"ID","title","amenityfeatures","description","streetaddress","type","city","state","unclear_address","Year","uncleartype","notes","Last.Modified","full.address","lon","lat","geoAddress","status"
3242,"Six Webster Place","(MW)","487-2266 guest house, year round","6 Webster Pl.","Accomodations","Provincetown","MA",NA,1992,"","","4/25/2023 9:32pm","6 Webster Pl. ,  Provincetown ,  MA",-70.1890806,42.0510858,"6 webster pl, provincetown, ma 02657, usa","Geocoded"
5082,"Ocean Walk","(MX),(SW)","728-0855 guest house & public bars","1 Atlantic Place","Accomodations","San Juan","PR",NA,1992,"","","4/25/2023 9:32pm","1 Atlantic Place ,  San Juan ,  PR",-66.0578831,18.4540659,"1 c. atlantic place, san juan, 00911, puerto rico","Geocoded"
5081,"Numero Uno On The Beach","(*),(MX),(IGTA),(SW)","Ocean Park 726-5010/727-9687 guesthouse, bar & grille, continental breakfast","1 Calle Santa Ana","Accomodations","San Juan","PR",NA,1992,"","","5/18/2023 8:27am","1 Calle Santa Ana ,  San Juan ,  PR",-66.0551125,18.4543702,"1 c. sta. ana, san juan, 00911, puerto rico","Geocoded"
5076,"Atlantic Beach Hotel","(*),(MW),(D)","(Condado) 721-6900 bar & restaurant on premises","1 Calle Vendig","Accomodations","San Juan","PR",NA,1992,"","","4/25/2023 9:32pm","1 Calle Vendig ,  San Juan ,  PR",-66.0723525,18.4571237,"1 cll vendig, san juan, 00907, puerto rico","Geocoded"
5742,"Chassman & Bem Booksellers","","Market Place 862-4332 gay/lesbian titles","1 Church St.","Bookstore/Retail Shops","Burlington","VT",NA,1992,"","","4/25/2023 9:32pm","1 Church St. ,  Burlington ,  VT",-73.2130269,44.4802156,"1 church st, burlington, vt 05401, usa","Geocoded"
3231,"Provincetown Inn","(MX),(F),(SW)","487-9500/(800)942-5388 full service hotel","1 Commercial St.","Accomodations","Provincetown","MA",NA,1992,"","","4/25/2023 9:32pm","1 Commercial St. ,  Provincetown ,  MA",-70.1957199,42.0376425,"historic district, 1 commercial st, provincetown, ma 02657, usa","Geocoded"
2189,"Club One","(MW),(D),(S),(AH),(F)","232-0200 9pm-3am Mon-Thurs, til 4am Fri & Sat, 8pm-2am Sun","1 Jefferson St.","Bars","Savannah","GA",NA,1992,"","","4/25/2023 9:32pm","1 Jefferson St. ,  Savannah ,  GA",-81.0948312,32.080902,"1 jefferson st, savannah, ga 31401, usa","Geocoded"
4170,"Wall Street Sauna","(*)","(11th flr) 233-8900 11am-8pm Mon-Fri, noon-6pm Sat, clsd Sun","1 Maiden Ln.","Gyms/Health Clubs","Greenwich Village","NY",NA,1992,"","","4/25/2023 9:32pm","1 Maiden Ln. ,  Greenwich Village ,  NY",NA,NA,"NA","Geocoded"
4088,"Artists Cafe","(MX)","523-9493","1 Main St.","Restaurants & Cafes","Lake Placid","NY",NA,1992,"","","4/25/2023 9:32pm","1 Main St. ,  Lake Placid ,  NY",-73.9840428,44.2854201,"main st, lake placid, ny 12946, usa","Geocoded"
3391,"Community News Center","","City Center 458-2123 gay section, 9am-6:30pm, clsd Sun","1 Monroe Center","Bookstore/Retail Shops","Grand Rapids","MI",NA,1992,"","","5/18/2023 8:27am","1 Monroe Center ,  Grand Rapids ,  MI",-85.6690121,42.9637202,"1 monroe center st nw, grand rapids, mi 49503, usa","Geocoded"
4734,"Whittier News Stand","","592-0767, 24hrs","1 N. Lewis St.","Erotica","Tulsa","OK",NA,1992,"","","4/25/2023 9:32pm","1 N. Lewis St. ,  Tulsa ,  OK",-95.9570118,36.1608035,"1 n lewis pl, tulsa, ok 74110, usa","Geocoded"
5439,"Oak Lawn Travel","(IGTA)","Ste. 100C 528-9130","1 Turtle Creek Village","Travel & Tour Operators","Dallas","TX",NA,1992,"","","4/25/2023 9:32pm","1 Turtle Creek Village ,  Dallas ,  TX",-96.7982835,32.8188861,"1 turtle creek bend, dallas, tx 75204, usa","Geocoded"
3032,"Hippo","(*),(MW),(D),(V)","547-0069 3pm-2am","1 W. Eager St.","Bars","Baltimore","MD",NA,1992,"","","4/25/2023 9:32pm","1 W. Eager St. ,  Baltimore ,  MD",-76.6163574,39.3008418,"1 w eager st, baltimore, md 21201, usa","Geocoded"
2964,"Sportsman's Club","(*),(D)","784-2251 8pm-1am","2 Bates St.","Bars","Lewiston","ME",NA,1992,"","","4/25/2023 9:32pm","2 Bates St. ,  Lewiston ,  ME",-70.2173331,44.1018535,"2 bates st, lewiston, me 04240, usa","Geocoded"
5085,"Barefoot Bar","(*),(H),(F)","(Condado) 724-7230 beach bar, open 24 hours, popular days","2 Calle Vendig","Bars","San Juan","PR",NA,1992,"","","4/25/2023 9:32pm","2 Calle Vendig ,  San Juan ,  PR",-66.0726432,18.4566065,"2 cll vendig, san juan, 00907, puerto rico","Geocoded"
5132,"Nan Max Travel","","272-2900/(800)842-3315 ask for Roger","2 Charles St.","Travel & Tour Operators","Providence","RI",NA,1992,"","","4/25/2023 9:32pm","2 Charles St. ,  Providence ,  RI",-71.4115313,41.8327151,"2 charles st, providence, ri 02904, usa","Geocoded"
3671,"West End Cafe","(MX)","361-2020","2 N. Euclid Ave.","Restaurants & Cafes","St. Louis","MO",NA,1992,"","","4/25/2023 9:32pm","2 N. Euclid Ave. ,  St. Louis ,  MO",-90.261994,38.640477,"2 n euclid ave, st. louis, mo 63108, usa","Geocoded"
3690,"Villa Book Shop","","","2 S. 27th lesbian/gay bookstore","Bookstore/Retail Shops","Billings","MT",NA,1992,"","","4/25/2023 9:32pm","2 S. 27th lesbian/gay bookstore ,  Billings ,  MT",-108.5028843,45.781014,"2 s 27th st, billings, mt 59101, usa","Geocoded"
3112,"Icarus","(MX)","426-1790 American cuisine","3 Appleton St.","Restaurants & Cafes","Boston","MA",NA,1992,"","","4/25/2023 9:32pm","3 Appleton St. ,  Boston ,  MA",-71.0697695,42.3466956,"3 appleton st, boston, ma 02116, usa","Geocoded"
5075,"3 Elena Guest House","(MW)","728-7418","3 Elena St.","Accomodations","San Juan","PR",NA,1992,"","","4/25/2023 9:32pm","3 Elena St. ,  San Juan ,  PR",-66.0461413,18.406538,"c. sta. elena, san juan, 00931, puerto rico","Geocoded"
5098,"Cafe Elena","(MW)","728-7418","3 Elena St.","Restaurants & Cafes","San Juan","PR",NA,1992,"","","4/25/2023 9:32pm","3 Elena St. ,  San Juan ,  PR",-66.0461413,18.406538,"c. sta. elena, san juan, 00931, puerto rico","Geocoded"
5111,"Raffles","(*),(MW),(D)","847-9663 7pm-1am Mon-Sat, from 5pm Sun","3 Farewell St.","Bars","Newport","RI",NA,1992,"","","4/25/2023 9:32pm","3 Farewell St. ,  Newport ,  RI",-71.3132894,41.490839,"3 farewell st, newport, ri 02840, usa","Geocoded"
4352,"New Chapter Books","","276-2191 general bookstore with gay/lesb titles","3 Heritage Hills","Bookstore/Retail Shops","Somers","NY",NA,1992,"","","4/25/2023 9:32pm","3 Heritage Hills ,  Somers ,  NY",-73.6884787,41.3314794,"3 heritage hills, somers, ny 10589, usa","Geocoded"
210,"Cedarberry Cottage B&B","(MX)","253-6115 private entrances & baths, outdoor hot tub, full breakfast","3 Kings Hwy","Accomodations","Eureka Springs","AR",NA,1992,"","","4/25/2023 9:32pm","3 Kings Hwy ,  Eureka Springs ,  AR",-93.7392889,36.4006499,"eureka springs, ar, usa","Geocoded"
2995,"Communiques","","773-5181 10am-6pm","3 Moulton St.","Bookstore/Retail Shops","Portland","ME",NA,1992,"","","4/25/2023 9:32pm","3 Moulton St. ,  Portland ,  ME",-70.2526999,43.6564851,"3 moulton st, portland, me 04101, usa","Geocoded"
2989,"Limelight, The","(*),(MW),(D),(S)","773-3315 5pm-1am","3 Spring St.","Bars","Portland","ME",NA,1992,"","","4/25/2023 9:32pm","3 Spring St. ,  Portland ,  ME",-70.2574098,43.6562263,"3 spring st, portland, me 04101, usa","Geocoded"
2991,"Underground","(*),(MW),(D),(SM)","773-3315 5pm-1am","3 Spring St.","Bars","Portland","ME",NA,1992,"","","4/25/2023 9:32pm","3 Spring St. ,  Portland ,  ME",-70.2574098,43.6562263,"3 spring st, portland, me 04101, usa","Geocoded"
3235,"Richmond Inn","","487-9193 year round","4 Conant st.","Accomodations","Provincetown","MA",NA,1992,"","","4/25/2023 9:32pm","4 Conant st. ,  Provincetown ,  MA",-70.1916503,42.0464954,"historic district, 4 conant st, provincetown, ma 02657, usa","Geocoded"
3252,"Atlantic House Hotel","(*),(D),(YC)","(The Big Room) 487-3821","4 Masonic Pl.","Bars","Provincetown","MA",NA,1992,"","","4/25/2023 9:32pm","4 Masonic Pl. ,  Provincetown ,  MA",-70.1887645,42.0499565,"4 masonic pl, provincetown, ma 02657, usa","Geocoded"
3612,"Larry's Gifts & Cards","","753-4757, 10am-7pm Mon-Sat, noon-5pm Sun","4 W. 39th St.","Bookstore/Retail Shops","Kansas City","MO",NA,1992,"","","4/25/2023 9:32pm","4 W. 39th St. ,  Kansas City ,  MO",-94.5864906,39.0567107,"4 w 39th st, kansas city, mo 64111, usa","Geocoded"
1539,"Norwich Book & Video","","887-5058","5 Falls Ave.","Erotica","Norwich","CT",NA,1992,"","","4/25/2023 9:32pm","5 Falls Ave. ,  Norwich ,  CT",-72.0816745,41.524535,"5 falls ave, norwich, ct 06360, usa","Geocoded"
5766,"Island Reef Bar, Grill, & Inn","(MX)","776-0131 250 yr. old Danish guest house, courtyard","5 Garden St.","Accomodations","Charlotte Amalie","Virgin Islands",NA,1992,"","","4/25/2023 9:32pm","5 Garden St. ,  Charlotte Amalie ,  Virgin Islands",-64.9311202,18.342445,"5 garden st, charlotte amalie, st thomas 00802, usvi","Geocoded"
5151,"Arcade Club, The","(*),(D),(S),(YC)","577-9160 8pm-2:30am, til 3am Fri","5 Liberty St.","Accomodations","Charleston","SC",NA,1992,"","","4/25/2023 9:32pm","5 Liberty St. ,  Charleston ,  SC",-79.9350537,32.782803,"beatty center for the school of business, 5 liberty st, charleston, sc 29401, usa","Geocoded"
4651,"Why Not Cafe","(D),(NH),(S)","324-9304 8:30pm-1am Sun-Thurs, until 2:30am Fri & Sat, patio","5 N. Murray St.","Bars","Springfield","OH",NA,1992,"","","4/25/2023 9:32pm","5 N. Murray St. ,  Springfield ,  OH",-83.8005152,39.9243756,"5 n murray st, springfield, oh 45503, usa","Geocoded"
3569,"Independence Place","(MW),(D),(S)","334-2939 opens 8:30pm Mon-Thur, from 7pm Fri & Sat","5 S. Henderson St.","Bars","Cape Girardeau","MO",NA,1992,"","","4/25/2023 9:32pm","5 S. Henderson St. ,  Cape Girardeau ,  MO",-89.534041,37.3046278,"5 s henderson ave, cape girardeau, mo 63703, usa","Geocoded"
3658,"Magnolia's","(*),(F),(S)","652-6500 4pm-3am, dinner nightly","5 S. Vandeventer","Bars","St. Louis","MO",NA,1992,"","","4/25/2023 9:32pm","5 S. Vandeventer ,  St. Louis ,  MO",-90.2421163,38.6358874,"5 s vandeventer ave, st. louis, mo 63108, usa","Geocoded"
3246,"Victoria House","(MW)",", 487-4455 year round","5 Standish St.","Accomodations","Provincetown","MA",NA,1992,"","","4/25/2023 9:32pm","5 Standish St. ,  Provincetown ,  MA",-70.1859761,42.0525478,"historic district, 5 standish st, provincetown, ma 02657, usa","Geocoded"
3241,"Shiremax Inn","(IGTA)","487-4621 guest house, year round","5 Tremont St.","Accomodations","Provincetown","MA",NA,1992,"","","4/25/2023 9:32pm","5 Tremont St. ,  Provincetown ,  MA",-70.1929061,42.0449344,"historic district, 5 tremont st, provincetown, ma 02657, usa","Geocoded"
4936,"Karla's","(MX),(E)","862-2612 lunch & dinner, full bar","5 W. Mechanic St.","Restaurants & Cafes","New Hope","PA",NA,1992,"","","4/25/2023 9:32pm","5 W. Mechanic St. ,  New Hope ,  PA",-74.9507655,40.3618176,"5 w mechanic st, new hope, pa 18938, usa","Geocoded"
3219,"Five Winslow Guest House","(PC)","487-0456 accomodations by personal recommendation & reference","5 Winslow","Accomodations","Provincetown","MA",NA,1992,"","","4/25/2023 9:32pm","5 Winslow ,  Provincetown ,  MA",-70.1886058,42.0513789,"historic district, 5 winslow st, provincetown, ma 02657, usa","Geocoded"
2209,"Charo's Restaurant & Bar","(MX)","826-6422 Mexican & continental cuisine","5-7132 Kuhio Hwy.","Restaurants & Cafes","Haena, Kauai","HI",NA,1992,"","","4/25/2023 9:32pm","5-7132 Kuhio Hwy. ,  Haena, Kauai ,  HI",-159.5458265,22.2218367,"5-7132 kuhio hwy, hanalei, hi 96714, usa","Geocoded"
5078,"Condado Inn","(*),(MW)","Condado 724-7145 priv baths, 1/2 blk to beach","6 Condado Ave.","Accomodations","San Juan","PR",NA,1992,"","","5/18/2023 8:27am","6 Condado Ave. ,  San Juan ,  PR",-66.0714214,18.456751,"6 condado ave, san juan, 00907, puerto rico","Geocoded"
3191,"Ampersand Guest House","(MW)","487-0959 year round","6 Cottage St.","Accomodations","Provincetown","MA",NA,1992,"","","4/25/2023 9:32pm","6 Cottage St. ,  Provincetown ,  MA",-70.1930921,42.0440747,"historic district, 6 cottage st, provincetown, ma 02657, usa","Geocoded"
2987,"Blackstones","(NH)","775-2885 4pm-1am","6 Pine St.","Bars","Portland","ME",NA,1992,"","","4/25/2023 9:32pm","6 Pine St. ,  Portland ,  ME",-70.266826,43.6526354,"6 pine st, portland, me 04101, usa","Geocoded"
1887,"Inn Exile","(V)","582-4144 3pm-2am Mon-Sat, 3pm-midnight Sun","6 S. J St.","Bars","Lakeland","FL",NA,1992,"","","4/25/2023 9:32pm","6 S. J St. ,  Lakeland ,  FL",-81.9584512,27.9692707,"jay st, lakeland, fl 33813, usa","Geocoded"
2973,"Leisure Inn","(MX)","646-2737 B & B, open April-October","6 School St.","Accomodations","Ogunquit","ME",NA,1992,"","","4/25/2023 9:32pm","6 School St. ,  Ogunquit ,  ME",-70.5983398,43.2475498,"6 school st, ogunquit, me 03907, usa","Geocoded"
3613,"Phoenix Books","","931-5794 gay/lesbian bookstore, 10am-6pm Mon-Sat, 1pm-5pm Sun","6 W. 39th St.","Bookstore/Retail Shops","Kansas City","MO",NA,1992,"","","4/25/2023 9:32pm","6 W. 39th St. ,  Kansas City ,  MO",-94.5865355,39.0567228,"6 w 39th st, kansas city, mo 64111, usa","Geocoded"
3208,"Chicago House","(*),(MW)","487-0537/(800)733-7869 cont'l bkfst, year round, apts avail.","6 Winslow St.","Accomodations","Provincetown","MA",NA,1992,"","","4/25/2023 9:32pm","6 Winslow St. ,  Provincetown ,  MA",-70.1887667,42.0512993,"historic district, 6 winslow st, provincetown, ma 02657, usa","Geocoded"
3925,"Woolverton Inn","(MX)","397-0802 B & B, full breakfast, year-round","6 Woolverton Rd.","Accomodations","Stockton","NJ",NA,1992,"","","4/25/2023 9:32pm","6 Woolverton Rd. ,  Stockton ,  NJ",-74.9801917,40.4092897,"6 woolverton rd, stockton, nj 08559, usa","Geocoded"
3223,"Heritage House","","487-3692 seasonal","7 Center St.","Accomodations","Provincetown","MA",NA,1992,"","","4/25/2023 9:32pm","7 Center St. ,  Provincetown ,  MA",-70.1847552,42.0536962,"historic district, 7 center st, provincetown, ma 02657, usa","Geocoded"
4097,"Jeffrey E. Lavigne, MD","","879-4260","7 East 68th St.","Info Lines & Services","New York City","NY",NA,1992,"","","4/25/2023 9:32pm","7 East 68th St. ,  New York City ,  NY",-73.9678306,40.7695984,"7 e 68th st, new york, ny 10065, usa","Geocoded"
3269,"Napi's","(MX)","487-1145 year round","7 Freeman St.","Restaurants & Cafes","Provincetown","MA",NA,1992,"","","4/25/2023 9:32pm","7 Freeman St. ,  Provincetown ,  MA",-70.1859761,42.0528826,"historic district, 7 freeman st, provincetown, ma 02657, usa","Geocoded"
3210,"Coat of Arms","(*)","487-0816 seasonal","7 Johnson St.","Accomodations","Provincetown","MA",NA,1992,"","","4/25/2023 9:32pm","7 Johnson St. ,  Provincetown ,  MA",-70.1842552,42.0542111,"historic district, 7 johnson st, provincetown, ma 02657, usa","Geocoded"
2974,"Ogunquit House","","646-2967 year-round","7 Kings Way","Accomodations","Ogunquit","ME",NA,1992,"","","4/25/2023 9:32pm","7 Kings Way ,  Ogunquit ,  ME",-70.6050128,43.2670011,"7 kings way, ogunquit, me 03907, usa","Geocoded"
3108,"Venus de Milo","(MW),(D)","421-9595 gay Wed only 9pm-2am","7 Lansdown St.","Bars","Boston","MA",NA,1992,"","","4/25/2023 9:32pm","7 Lansdown St. ,  Boston ,  MA",-71.0950605,42.3473283,"7 lansdowne st, boston, ma 02215, usa","Geocoded"
3248,"Watership Inn","(*),(MW)","487-0094 year round","7 Winthrop St.","Accomodations","Provincetown","MA",NA,1992,"","","4/25/2023 9:32pm","7 Winthrop St. ,  Provincetown ,  MA",-70.1908131,42.0484291,"historic district, 7 winthrop st, provincetown, ma 02657, usa","Geocoded"
4682,"Level Two","(MW),(D),(S)","357-1430 8pm-2am, clsd Mon & Tues","8 1/2 NW 2nd","Bars","Lawton","OK",NA,1992,"","","4/25/2023 9:32pm","8 1/2 NW 2nd ,  Lawton ,  OK",-98.3907725,34.6098045,"8 nw 2nd st, lawton, ok 73507, usa","Geocoded"
3670,"Sunshine Inn","(MX)","367-1413","8 1/2 S. Euclid Ave","Restaurants & Cafes","St. Louis","MO",NA,1992,"","","4/25/2023 9:32pm","8 1/2 S. Euclid Ave ,  St. Louis ,  MO",-90.262089,38.6399766,"8 1/2 s euclid ave, st. louis, mo 63108, usa","Geocoded"
3236,"Roomers","","487-3532 seasonal","8 Carver St.","Accomodations","Provincetown","MA",NA,1992,"","","4/25/2023 9:32pm","8 Carver St. ,  Provincetown ,  MA",-70.189965,42.0490682,"historic district, 8 carver st, provincetown, ma 02657, usa","Geocoded"
4000,"Esther's","(MW),(D),(E)","434-0994 7pm-4am Sun-Thurs, from 9pm Fri & Sat","8 Central Ave.","Bars","Albany","NY",NA,1992,"","","4/25/2023 9:32pm","8 Central Ave. ,  Albany ,  NY",NA,NA,"NA","Geocoded"
4148,"Reeds","(NH),(V)","675-7333 3pm-4am","8 Christopher St.","Bars","Greenwich Village","NY",NA,1992,"","","4/25/2023 9:32pm","8 Christopher St. ,  Greenwich Village ,  NY",-74.0001048,40.7338418,"8 christopher st, new york, ny 10014, usa","Geocoded"
3209,"Christopher Inn","(MW),(SW)","487-1920/(800)828-7896 guesthouse, year round","8 Dyer St.","Accomodations","Provincetown","MA",NA,1992,"","","4/25/2023 9:32pm","8 Dyer St. ,  Provincetown ,  MA",-70.1828599,42.0553003,"8 dyer st, provincetown, ma 02657, usa","Geocoded"
3224,"Joseph's","","487-1237 guest house","8 Johnson St.","Accomodations","Provincetown","MA",NA,1992,"","","4/25/2023 9:32pm","8 Johnson St. ,  Provincetown ,  MA",-70.1844412,42.0539469,"8 johnson st, provincetown, ma 02657, usa","Geocoded"
5176,"Castle, The","(*),(MW)","235-9949 8pm-4am Mon-Fri, til 2am Sat & Sun","8 LeGrand Blvd.","Bars","Greenville","SC",NA,1992,"","","4/25/2023 9:32pm","8 LeGrand Blvd. ,  Greenville ,  SC",-82.3681104,34.8361438,"8 legrand blvd, greenville, sc 29607, usa","Geocoded"
4939,"Wildflowers","(MX),(BYOB)","862-2241 noon-10pm, outdoor dining","8 W. Mechanic St.","Restaurants & Cafes","New Hope","PA",NA,1992,"","","4/25/2023 9:32pm","8 W. Mechanic St. ,  New Hope ,  PA",-74.9509481,40.3621147,"8 w mechanic st, new hope, pa 18938, usa","Geocoded"
3240,"Shipwreck Inn","(*)","487-9005","9 Court St.","Accomodations","Provincetown","MA",NA,1992,"","","4/25/2023 9:32pm","9 Court St. ,  Provincetown ,  MA",-70.190255,42.0489244,"9 court st, provincetown, ma 02657, usa","Geocoded"
3217,"Elm Guest House","","487-0793 seasonal","9 Johnson St.","Accomodations","Provincetown","MA",NA,1992,"","","4/25/2023 9:32pm","9 Johnson St. ,  Provincetown ,  MA",-70.1843947,42.0543478,"historic district, 9 johnson st, provincetown, ma 02657, usa","Geocoded"
3483,"Unicorn Theatre","","#209, 338-4045 gay/lesbian theatre, bi-monthly productions","9 N. 4th St.","Info Lines & Services","Minneapolis","MN",NA,1992,"","","4/25/2023 9:32pm","9 N. 4th St. ,  Minneapolis ,  MN",-93.2719155,44.9806349,"9 n 4th st, minneapolis, mn 55401, usa","Geocoded"
3499,"Gaze Newsstand","","Ste. 212, 341-0044 noon-6pm, til 11pm Fri-Sun","9 N. 4th St.","Bookstore/Retail Shops","Minneapolis","MN",NA,1992,"","","4/25/2023 9:32pm","9 N. 4th St. ,  Minneapolis ,  MN",-93.2719155,44.9806349,"9 n 4th st, minneapolis, mn 55401, usa","Geocoded"
3512,"Gaze Newspaper","","Ste. 212, Mpls. 338-4045","9 N. 4th St.","Publication","Minneapolis","MN",NA,1992,"","","4/25/2023 9:32pm","9 N. 4th St. ,  Minneapolis ,  MN",-93.2719155,44.9806349,"9 n 4th st, minneapolis, mn 55401, usa","Geocoded"
4056,"Fire Island Pines","","Fire Island Pines 597-6767 seasonal","9 Ocean Walk","Accomodations","Fire Island","NY",NA,1992,"","","5/18/2023 8:28am","9 Ocean Walk ,  Fire Island ,  NY",-73.0698807,40.6638059,"9 ocean walk, sayville, ny 11782, usa","Geocoded"
5787,"Sea Gate","(MX)","331-2206 B & B","9 Tazewell Ave.","Accomodations","Cape Charles","VA",NA,1992,"","","4/25/2023 9:32pm","9 Tazewell Ave. ,  Cape Charles ,  VA",-76.021171,37.2691835,"9 tazewell ave, cape charles, va 23310, usa","Geocoded"
1532,"Frank's Place","(MW),(NH),(D)","443-8883 huge patio, 4pm-1am Sun-Thurs, 3pm-2am Fri & Sat","9 Tilley St.","Bars","New London","CT",NA,1992,"","","4/25/2023 9:32pm","9 Tilley St. ,  New London ,  CT",-72.0972273,41.3517465,"9 tilley st, new london, ct 06320, usa","Geocoded"
5847,"Last Straw","(F),(NH)","342-1634 9am-2am","9 W. Salem Ave.","Bars","Roanoke","VA",NA,1992,"","","4/25/2023 9:32pm","9 W. Salem Ave. ,  Roanoke ,  VA",-79.940956,37.272612,"9 salem ave sw, roanoke, va 24011, usa","Geocoded"
3221,"Gifford House","","487-0688 year round, see ad national section","9-11 Carver St.","Accomodations","Provincetown","MA",NA,1992,"","","4/25/2023 9:32pm","9-11 Carver St. ,  Provincetown ,  MA",-70.1900224,42.0496268,"9 carver st, provincetown, ma 02657, usa","Geocoded"
3147,"Jon's","(MX),(D),(E)","884-9533 4pm-1am Mon-Fri, from 1pm Sat & Sun","9-11 Williams St.","Bars","Chelsea","MA",NA,1992,"","","4/25/2023 9:32pm","9-11 Williams St. ,  Chelsea ,  MA",-71.0391259,42.3881307,"9 williams st #11, chelsea, ma 02150, usa","Geocoded"
216,"Center Street Bar & Grille","(MX),(D),(E),(F)","253-8102 5pm-2am, clsd. Sun","10 Center St.","Bars","Eureka Springs","AR",NA,1992,"","","4/25/2023 9:32pm","10 Center St. ,  Eureka Springs ,  AR",-93.7366351,36.4027674,"10 center st, eureka springs, ar 72632, usa","Geocoded"
5120,"Devilles","(*),(W),(F)","(Simmons Bldg.) espresso bar","10 Davol Sq.","Bars","Providence","RI",NA,1992,"","","4/25/2023 9:32pm","10 Davol Sq. ,  Providence ,  RI",-71.4068641,41.8165535,"10 davol square, 10 davol sq, providence, ri 02903, usa","Geocoded"
3042,"Signals","(AH),(BYOB),(D)","727-1003 midnight til dawn Fri & Sat","10 E. Lafayette","Bars","Baltimore","MD",NA,1992,"","","4/25/2023 9:32pm","10 E. Lafayette ,  Baltimore ,  MD",-76.615823,39.310139,"10 e lafayette ave, baltimore, md 21202, usa","Geocoded"
1255,"Sutter's Mill","(F),(P)","(off Bush St) 788-8377 10am-10pm, lunch Mon-Fri","10 Mark Ln.","Bars","San Francisco","CA",NA,1992,"","","4/25/2023 9:32pm","10 Mark Ln. ,  San Francisco ,  CA",-122.4046843,37.7904802,"10 mark ln, san francisco, ca 94108, usa","Geocoded"
3676,"Pages, Video, & More","","361-3420 gay titles","10 N. Euclid Ave.","Bookstore/Retail Shops","St. Louis","MO",NA,1992,"","","4/25/2023 9:32pm","10 N. Euclid Ave. ,  St. Louis ,  MO",-90.2621122,38.6398983,"10 n euclid ave, st. louis, mo 63108, usa","Geocoded"
1578,"Everybody's","(MW),(D),(B),(AH)","(upstairs) 655-5632 opens 10pm Wed-Sat","11 E. 4th St.","Bars","Wilmington","DE",NA,1992,"","","4/25/2023 9:32pm","11 E. 4th St. ,  Wilmington ,  DE",-75.5508527,39.74046,"11 e 4th st, wilmington, de 19801, usa","Geocoded"
4372,"Scandals/Getaways/Cahoots","(MW),(D),(V),(S),(F)","252-2838 9am-2am Wed, Fri & Sat, 2 bars & restaurant (Tues-Sat) on premises","11 Grove St.","Bars","Asheville","NC",NA,1992,"","","4/25/2023 9:32pm","11 Grove St. ,  Asheville ,  NC",-82.5577653,35.5933934,"11 grove st, asheville, nc 28801, usa","Geocoded"
3230,"Plaza Guest House","(MW)","487-1818 year round","11 Pearl St.","Accomodations","Provincetown","MA",NA,1992,"","","4/25/2023 9:32pm","11 Pearl St. ,  Provincetown ,  MA",-70.1835575,42.0547185,"historic district, 11 pearl st, provincetown, ma 02657, usa","Geocoded"
5032,"Red Star","(*),(D),(L),(LV),(OC)","375-4116 winter hrs 5pm-2am Mon-Sat, summer hrs 8pm-2am Mon-Sat, patio","11 S. 10th St.","Bars","Reading","PA",NA,1992,"","","4/25/2023 9:32pm","11 S. 10th St. ,  Reading ,  PA",-75.9179484,40.3347165,"11 s 10th st, reading, pa 19602, usa","Geocoded"
3675,"Our World Too","","533-5322 gay/lesbian titles, gifts, jewelry, & art","11 S. Vandeventer","Bookstore/Retail Shops","St. Louis","MO",NA,1992,"","","4/25/2023 9:32pm","11 S. Vandeventer ,  St. Louis ,  MO",-90.2421506,38.6357385,"11 s vandeventer ave, st. louis, mo 63108, usa","Geocoded"
212,"Gardener's Cottage, The","","c/o 253-9111 private country cottage for 2, furnished kitchen, antique decor","11 Singleton","Accomodations","Eureka Springs","AR",NA,1992,"","","4/25/2023 9:32pm","11 Singleton ,  Eureka Springs ,  AR",-93.7388476,36.4056848,"11 singleton st, eureka springs, ar 72632, usa","Geocoded"
3222,"Haven House","(*),(SW)","487-3031","12 Carver St.","Accomodations","Provincetown","MA",NA,1992,"","","4/25/2023 9:32pm","12 Carver St. ,  Provincetown ,  MA",-70.1902973,42.0495474,"12 carver st, provincetown, ma 02657, usa","Geocoded"
3245,"Twelve Center Guest House","(*),(IGTA)","487-0381 year round","12 Center St.","Accomodations","Provincetown","MA",NA,1992,"","","4/25/2023 9:32pm","12 Center St. ,  Provincetown ,  MA",-70.1852319,42.0537166,"historic district, 12 center st, provincetown, ma 02657, usa","Geocoded"
2348,"Line I Video Arcade","","359-8529","12 E. Columbia Ave.","Erotica","Champaign/Urbana","IL",NA,1992,"","","4/25/2023 9:32pm","12 E. Columbia Ave. ,  Champaign/Urbana ,  IL",-88.242677,40.1212816,"12 e columbia ave, champaign, il 61820, usa","Geocoded"
2517,"Rainbow Inn","(MX),(NH)","254-7227 7pm-2am Tues-Thur, 4pm-2am Fri-Sun","12 E. Ferguson","Bars","Wood River","IL",NA,1992,"","","4/25/2023 9:32pm","12 E. Ferguson ,  Wood River ,  IL",-90.0978353,38.8609157,"12 e ferguson ave, wood river, il 62095, usa","Geocoded"
3244,"Trade Winds","","487-0138 year round","12 Johnson St.","Accomodations","Provincetown","MA",NA,1992,"","","4/25/2023 9:32pm","12 Johnson St. ,  Provincetown ,  MA",-70.1847203,42.0542201,"historic district, 12 johnson st, provincetown, ma 02657, usa","Geocoded"
3111,"Downtown Cafe","(*),(MX)","(behind Buddies) 338-7037 lunch & dinner, clsd Mon","12 La Grange St.","Restaurants & Cafes","Boston","MA",NA,1992,"","","4/25/2023 9:32pm","12 La Grange St. ,  Boston ,  MA",-71.0633569,42.3514331,"12 lagrange st, boston, ma 02116, usa","Geocoded"
3699,"Ms. Kitty's Adult Stores","","586-6989","12 N. Wilson","Erotica","Bozeman","MT",NA,1992,"","","4/25/2023 9:32pm","12 N. Wilson ,  Bozeman ,  MT",-111.0385518,45.6796432,"12 n willson ave, bozeman, mt 59715, usa","Geocoded"
3848,"Brass Rail Bar & Grill","(*),(F),(NH)","348-0192 24hrs","12 S. Mt. Vernon Ave.","Bars","Atlantic City","NJ",NA,1992,"","","4/25/2023 9:32pm","12 S. Mt. Vernon Ave. ,  Atlantic City ,  NJ",-74.4310387,39.3602778,"12 s mt vernon ave, atlantic city, nj 08401, usa","Geocoded"
4146,"Private Eyes","(*),(MW),(D),(V)","206-7770 best video bar (preppies), clsd Tues","12 W. 21st St.","Bars","Greenwich Village","NY",NA,1992,"","","4/25/2023 9:32pm","12 W. 21st St. ,  Greenwich Village ,  NY",-73.9916803,40.7404649,"12 w 21st st, new york, ny 10010, usa","Geocoded"
3195,"Beaconlite Inn","(MW)","487-9603 cont'l bkfst, private baths, year round","12 Winthrop","Accomodations","Provincetown","MA",NA,1992,"","","4/25/2023 9:32pm","12 Winthrop ,  Provincetown ,  MA",-70.1909992,42.0482019,"12 winthrop st, provincetown, ma 02657, usa","Geocoded"
3088,"Axis/DV8","(*),(MX),(D),(E)","262-2437 gay Sun only","13 Lansdowne","Bars","Boston","MA",NA,1992,"","","4/25/2023 9:32pm","13 Lansdowne ,  Boston ,  MA",-71.0952336,42.3473376,"13 lansdowne st, boston, ma 02215, usa","Geocoded"
2976,"Club, The","(*),(D),(V),(YC)","646-9282/646-6655","13 Main St.","Bars","Ogunquit","ME",NA,1992,"","","4/25/2023 9:32pm","13 Main St. ,  Ogunquit ,  ME",-70.6018405,43.2387123,"13 main st, ogunquit, me 03907, usa","Geocoded"
4785,"City Nightclub, The","(*),(MW),(D),(YC),(AH)","224-2489 10pm-2am Thurs & Sun, til 4am Fri, til 4:30am Sat, no alcohol","13 N.W. 13th Ave.","Bars","Portland","OR",NA,1992,"","","4/25/2023 9:32pm","13 N.W. 13th Ave. ,  Portland ,  OR",-122.6843908,45.5232208,"13 nw 13th ave, portland, or 97209, usa","Geocoded"
4641,"Christopher's Lounge","(MW),(NH),(D)","539-9381 8pm-2:30am, clsd Sun","13 Old St.","Bars","Monroe","OH",NA,1992,"","","4/25/2023 9:32pm","13 Old St. ,  Monroe ,  OH",-84.3612904,39.4431255,"13 old st, monroe, oh 45050, usa","Geocoded"
4105,"Parlee Plus/Equal Time the News","","Babylon 11702, (516)587-8669 monthly","13 S. Carl Ave.","Publication","New York City","NY",NA,1992,"","","5/18/2023 8:29am","13 S. Carl Ave. ,  New York City ,  NY",-74.0059728,40.7127753,"new york, ny, usa","Geocoded"
3280,"Provincetown Magazine","(MX)","487-3384","14 Center St.","Publication","Provincetown","MA",NA,1992,"","","4/25/2023 9:32pm","14 Center St. ,  Provincetown ,  MA",-70.1854412,42.0537727,"14 center st, provincetown, ma 02657, usa","Geocoded"
3211,"Courtland House","(MW)","487-2292 guest house, year round","14 Court St.","Accomodations","Provincetown","MA",NA,1992,"","","4/25/2023 9:32pm","14 Court St. ,  Provincetown ,  MA",-70.1906736,42.0488133,"historic district, 14 court st, provincetown, ma 02657, usa","Geocoded"
5190,"Rosebud Bar","(MX),(NH)","229-1312 more gay in late evening","14 S.E. 1st Ave.","Bars","Aberdeen","SD",NA,1992,"","","4/25/2023 9:32pm","14 S.E. 1st Ave. ,  Aberdeen ,  SD",-98.487181,45.463908,"14 1st ave se, aberdeen, sd 57401, usa","Geocoded"
2456,"Rialto","(*),(MW),(D)","427-9893 noon-4am Sun-Fri, til 5am Sat","14 W. Van Buren","Bars","Chicago","IL",NA,1992,"","","4/25/2023 9:32pm","14 W. Van Buren ,  Chicago ,  IL",-87.6283145,41.877067,"14 w van buren st, chicago, il 60605, usa","Geocoded"
4005,"Boulevard Bookstore","","436-8848 gay titles, 10am-7pm Mon-Sat, noon-5pm Sun","15 Central Ave.","Bookstore/Retail Shops","Albany","NY",NA,1992,"","","4/25/2023 9:32pm","15 Central Ave. ,  Albany ,  NY",NA,NA,"NA","Geocoded"
4176,"Oscar Wilde Memorial Bookshop","","255-8097 gay/lesbian bookstore, noon-7:30pm","15 Christopher St.","Bookstore/Retail Shops","Greenwich Village","NY",NA,1992,"","","4/25/2023 9:32pm","15 Christopher St. ,  Greenwich Village ,  NY",-74.0005639,40.7342158,"15 christopher st, new york, ny 10014, usa","Geocoded"
3233,"Red Inn","(MX),(F)","487-0050 year round","15 Commercial St.","Accomodations","Provincetown","MA",NA,1992,"","","4/25/2023 9:32pm","15 Commercial St. ,  Provincetown ,  MA",-70.1951153,42.0392088,"historic district, 15 commercial st, provincetown, ma 02657, usa","Geocoded"
1996,"Grocery Store, The","(MW),(D),(S)","433-8868 6pm-3am","15 East Intendencia","Bars","Pensacola","FL",NA,1992,"","","4/25/2023 9:32pm","15 East Intendencia ,  Pensacola ,  FL",-87.2140621,30.4102627,"15 e intendencia st, pensacola, fl 32502, usa","Geocoded"
1561,"Beach House","(MW),(SW)","277-7074 B & B, year round","15 Hickman St.","Accomodations","Rehoboth Beach","DE",NA,1992,"","","4/25/2023 9:32pm","15 Hickman St. ,  Rehoboth Beach ,  DE",-75.0775179,38.7125689,"15 hickman st, rehoboth beach, de 19971, usa","Geocoded"
3095,"Citi Club","(*),(MX),(D),(YC)","262-2424 gay Sun only","15 Lansdowne St.","Bars","Boston","MA",NA,1992,"","","4/25/2023 9:32pm","15 Lansdowne St. ,  Boston ,  MA",-71.0957386,42.3473623,"15 lansdowne st, boston, ma 02215, usa","Geocoded"
2689,"Mini Cinema","","955-9756 24hrs","15 N. 5th St.","Erotica","Fort Dodge","IA",NA,1992,"","","4/25/2023 9:32pm","15 N. 5th St. ,  Fort Dodge ,  IA",-94.1906992,42.5050633,"15 n 5th st, fort dodge, ia 50501, usa","Geocoded"
5057,"Michaels' (The Bar)","(*),(MW),(D),(YC),(F),(E)","Rear (in Plains Plaza) 829-4444 piano bar, Tues-Sun 5pm-2am","15 N. River St.","Bars","Wilkes-Barre","PA",NA,1992,"checked","This address is in Plains, PA on Google Maps","4/25/2023 9:32pm","15 N. River St. ,  Wilkes-Barre ,  PA",-75.8568829,41.279513,"15 n river st, plains, pa 18705, usa","Geocoded"
4190,"Society of Friends","","(Meeting House) 777-8866, 11am Sun","15 Rutherford Pl.","Religious Organization","Greenwich Village","NY",NA,1992,"","","4/25/2023 9:32pm","15 Rutherford Pl. ,  Greenwich Village ,  NY",NA,NA,"NA","Geocoded"
4463,"Palladium","(MW),(PC),(D),(S)","343-1000 9pm-1am Wed-Sun","15 S. Front St.","Bars","Wilmington","NC",NA,1992,"","","4/25/2023 9:32pm","15 S. Front St. ,  Wilmington ,  NC",-77.9482766,34.2348162,"15 s front st, wilmington, nc 28401, usa","Geocoded"
5191,"Heritage Book Store","","225-9969, 24hrs","16 1st Ave. S.E.","Erotica","Aberdeen","SD",NA,1992,"","","4/25/2023 9:32pm","16 1st Ave. S.E. ,  Aberdeen ,  SD",-98.4872698,45.4641244,"16 1st ave se, aberdeen, sd 57401, usa","Geocoded"
4028,"Allen","(MX)","881-0586 lunch Tues-Fri, dinner Tues-Sat, Sun brunch","16 Allen St.","Restaurants & Cafes","Buffalo","NY",NA,1992,"","","4/25/2023 9:32pm","16 Allen St. ,  Buffalo ,  NY",-78.8707216,42.8991643,"16 allen st, buffalo, ny 14202, usa","Geocoded"
5110,"Hydrangea House of Newport","(MW)","846-4435 B & B, private baths, non-smoking","16 Bellevue Ave","Accomodations","Newport","RI",NA,1992,"","","4/25/2023 9:32pm","16 Bellevue Ave ,  Newport ,  RI",-71.3092265,41.4874903,"16 bellevue ave, newport, ri 02840, usa","Geocoded"
3657,"Loading Zone","(NH)","361-4119 2pm-1:30am Mon-Sat","16 S. Euclid","Bars","St. Louis","MO",NA,1992,"","","4/25/2023 9:32pm","16 S. Euclid ,  St. Louis ,  MO",-90.2620226,38.6397264,"16 s euclid ave, st. louis, mo 63108, usa","Geocoded"
3852,"Surfside Six","(MW)","347-8532 noon-4am, Sun T-dance, sundeck, open May-Sept","16 S. Mt. Vernon","Bars","Atlantic City","NJ",NA,1992,"","","4/25/2023 9:32pm","16 S. Mt. Vernon ,  Atlantic City ,  NJ",-74.4309779,39.360181,"16 s mt vernon ave, atlantic city, nj 08401, usa","Geocoded"
3207,"Chancellor Inn","(MW)","487-9423 year round","17 Center St.","Accomodations","Provincetown","MA",NA,1992,"","","4/25/2023 9:32pm","17 Center St. ,  Provincetown ,  MA",-70.1853714,42.0542624,"17 center st, provincetown, ma 02657, usa","Geocoded"
218,"MCC of the Living Spring","","253-9337, 7pm Sun","17 Elk St.","Religious Organization","Eureka Springs","AR",NA,1992,"","","4/25/2023 9:32pm","17 Elk St. ,  Eureka Springs ,  AR",-93.7399584,36.4045521,"17 elk st, eureka springs, ar 72632, usa","Geocoded"
4316,"AA Gay/Lesbian","","(St Luke's) 232-6720 8:30pm Thurs","17 Fitzugh St.","Info Lines & Services","Rochester","NY",NA,1992,"","","4/25/2023 9:32pm","17 Fitzugh St. ,  Rochester ,  NY",-77.6141871,43.1545412,"17 s fitzhugh st, rochester, ny 14614, usa","Geocoded"
2190,"Faces II","(NH),(F)","233-3520 4pm-3am, patio","17 Lincoln St.","Bars","Savannah","GA",NA,1992,"","","4/25/2023 9:32pm","17 Lincoln St. ,  Savannah ,  GA",-81.0881591,32.0794775,"17 lincoln st, savannah, ga 31401, usa","Geocoded"
1699,"Marlin Beach Hotel","(*),(MW),(SW),(F),(IGTA)","467-6551 (800) 327-2246 jacuzzi, year round","17 S. Atlantic Blvd.","Accomodations","Ft. Lauderdale","FL",NA,1992,"","","4/25/2023 9:32pm","17 S. Atlantic Blvd. ,  Ft. Lauderdale ,  FL",-80.1048419,26.1223583,"17 s atlantic blvd, fort lauderdale, fl 33316, usa","Geocoded"
4338,"Dignity/Integrity","","328-9758 5pm Sun","17 S. Fitzhugh","Religious Organization","Rochester","NY",NA,1992,"","","4/25/2023 9:32pm","17 S. Fitzhugh ,  Rochester ,  NY",-77.6141871,43.1545412,"17 s fitzhugh st, rochester, ny 14614, usa","Geocoded"
3020,"Chez Claire","(MW)","685-4666/837-0996 B & B","17 W. Chase St.","Accomodations","Baltimore","MD",NA,1992,"","","4/25/2023 9:32pm","17 W. Chase St. ,  Baltimore ,  MD",-76.6172197,39.3021825,"17 w chase st, baltimore, md 21201, usa","Geocoded"
2478,"MCC (Holy Covenant)","","(Unitarian Church) 325-8488 worship 7pm Sun","17 W. Maple","Religious Organization","Hinsdale","IL",NA,1992,"","","4/25/2023 9:32pm","17 W. Maple ,  Hinsdale ,  IL",-87.9304737,41.8049539,"17 w maple st, hinsdale, il 60521, usa","Geocoded"
4015,"North Street Bookshop","","Endicott 785-9606 clsd Sun","17 Washington Ave.","Erotica","Binghampton","NY",NA,1992,"","","5/18/2023 8:29am","17 Washington Ave. ,  Binghampton ,  NY",-75.9147103,42.0938206,"17 washington st, binghamton, ny 13901, usa","Geocoded"
1607,"La Cage aux Follies","(*),(D),(V),(S),(YC)","554-3615 nude go-go boys","18 'O' St. SE","Bars","Washington","DC",NA,1992,"","","4/25/2023 9:32pm","18 'O' St. SE ,  Washington ,  DC",-76.9689832,38.8729477,"o st se, washington, dc, usa","Geocoded"
1773,"University Club, The","(MW),(D),(YC),(S)","378-6814 5pm-2am, 5pm-11pm Sun, patio","18 East University Ave.","Bars","Gainesville","FL",NA,1992,"","","4/25/2023 9:32pm","18 East University Ave. ,  Gainesville ,  FL",-82.3243785,29.6521883,"18 e university ave, gainesville, fl 32601, usa","Geocoded"
6020,"Yakima Magazine Ctr.","","248-8598","18 S. 1st St.","Erotica","Yakima","WA",NA,1992,"","","4/25/2023 9:32pm","18 S. 1st St. ,  Yakima ,  WA",-120.5062034,46.6014474,"18 s 1st st, yakima, wa 98901, usa","Geocoded"
3853,"Lyles Coffeshop","","8am-4pm","18 S. Mt. Vernon","Restaurants & Cafes","Atlantic City","NJ",NA,1992,"","","4/25/2023 9:32pm","18 S. Mt. Vernon ,  Atlantic City ,  NJ",-74.4309765,39.360121,"18 s mt vernon ave, atlantic city, nj 08401, usa","Geocoded"
3845,"Fraternity House","","347-0808 B & B, sundeck, priv baths","18 S. Mt. Vernon Ave.","Accomodations","Atlantic City","NJ",NA,1992,"","","4/25/2023 9:32pm","18 S. Mt. Vernon Ave. ,  Atlantic City ,  NJ",-74.4309765,39.360121,"18 s mt vernon ave, atlantic city, nj 08401, usa","Geocoded"
2946,"Integrity","","Hallowell (St. Matthew's Church) 623-3041 first Fri 8pm","18 Union St.","Religious Organization","Augusta","ME",NA,1992,"","","5/18/2023 8:29am","18 Union St. ,  Augusta ,  ME",-69.7793349,44.3055812,"18 union st, augusta, me 04330, usa","Geocoded"
3007,"Priscilla's Book Store","","873-2774","18 Water St.","Erotica","Waterville","ME",NA,1992,"","","4/25/2023 9:32pm","18 Water St. ,  Waterville ,  ME",-69.6322093,44.545024,"18 water st, waterville, me 04901, usa","Geocoded"
3898,"J. August's Cafe","(MX)","246-8028 11:30am-2am Sun-Thurs, til 3am Fri/Sat, full bar","19 Dennis St.","Restaurants & Cafes","New Brunswick","NJ",NA,1992,"","","4/25/2023 9:32pm","19 Dennis St. ,  New Brunswick ,  NJ",-74.4406782,40.4946996,"19 dennis st, new brunswick, nj 08901, usa","Geocoded"
3488,"Nineteen Bar","(MW),(NH),(BW)","Mpls. 871-5553 3pm-1am Mon-Thurs, 1pm-1am Fri-Sun","19 W. 15th St.","Bars","Minneapolis","MN",NA,1992,"","","4/25/2023 9:32pm","19 W. 15th St. ,  Minneapolis ,  MN",-93.2788049,44.9675268,"19 w 15th st, minneapolis, mn 55403, usa","Geocoded"
1631,"Club Washington","(PC)","(upstairs) 488-7317 spa, open 24hrs","20 'O' St. SE","Gyms/Health Clubs","Washington","DC",NA,1992,"","","4/25/2023 9:32pm","20 'O' St. SE ,  Washington ,  DC",-77.0084185,38.8731042,"20 o st se, washington, dc 20003, usa","Geocoded"
4027,"Stagedoor","(E)","886-9323 patio, piano bar, 5pm-4am","20 Allen St.","Bars","Buffalo","NY",NA,1992,"","","4/25/2023 9:32pm","20 Allen St. ,  Buffalo ,  NY",-78.8708764,42.8991982,"20 allen st, buffalo, ny 14202, usa","Geocoded"
6138,"Chesterfield Inn","","987-3682 B & B, restaurant to open May-October","20 Commerce St.","Accomodations","Mineral Point","WI",NA,1992,"","","4/25/2023 9:32pm","20 Commerce St. ,  Mineral Point ,  WI",-90.177192,42.8579018,"20 commerce st, mineral point, wi 53565, usa","Geocoded"
5731,"Colors","(*),(D)","254-8646 5pm-2am Sun-Fri, til 1am Sat","20 Elliott St.","Bars","Brattlebro","VT",NA,1992,"","","4/25/2023 9:32pm","20 Elliott St. ,  Brattlebro ,  VT",-72.5584237,42.8519106,"20 elliot st, brattleboro, vt 05301, usa","Geocoded"
1543,"Gay Men's Group of Fairfield County","","358-9002, 1st Thurs & 3rd Tues, call for info","20 Forest St.","Men's Services","Stamford","CT",NA,1992,"","","4/25/2023 9:32pm","20 Forest St. ,  Stamford ,  CT",-73.5368104,41.0570143,"20 forest st, stamford, ct 06901, usa","Geocoded"
3177,"Le Place","(MW),(D)","992-8156 2pm-2am Sun-Fri, noon-1am Sat","20 Kenyon St.","Bars","New Bedford","MA",NA,1992,"","","4/25/2023 9:32pm","20 Kenyon St. ,  New Bedford ,  MA",-70.9240522,41.6541812,"20 kenyon st, new bedford, ma 02740, usa","Geocoded"
1537,"Club 20","(D)","(South Norwalk) 866-2020 2 stories, til 1am Sun-Thurs, til 2am Fri & Sat","20 N. Main St.","Bars","Norwalk","CT",NA,1992,"","","4/25/2023 9:32pm","20 N. Main St. ,  Norwalk ,  CT",-73.4194483,41.1004459,"20 n main st, norwalk, ct 06854, usa","Geocoded"
4153,"Twenty/Twenty","(*),(MW),(D)","727-8840 call for info","20 W. 20th St.","Bars","Greenwich Village","NY",NA,1992,"","","4/25/2023 9:32pm","20 W. 20th St. ,  Greenwich Village ,  NY",-73.9925139,40.7400486,"20 w 20th st, new york, ny 10011, usa","Geocoded"
3093,"Campus & Man Ray","(MX),(D),(YC)","Cambridge 864-0400 gay Thurs only","21 Brookline","Bars","Boston","MA",NA,1992,"","","5/18/2023 8:30am","21 Brookline ,  Boston ,  MA",NA,NA,"NA","Geocoded"
3106,"Playland","(H),(E)","338-7254 piano bar upstairs","21 Essex","Bars","Boston","MA",NA,1992,"","","4/25/2023 9:32pm","21 Essex ,  Boston ,  MA",-71.0619906,42.3522752,"19-21 essex st, boston, ma 02111, usa","Geocoded"
1694,"Admiral's Court","(MX),(SW)","462-5072 open year round","21 Hendricks Isle","Accomodations","Ft. Lauderdale","FL",NA,1992,"","","4/25/2023 9:32pm","21 Hendricks Isle ,  Ft. Lauderdale ,  FL",-80.122173,26.1212125,"21 hendricks isle, fort lauderdale, fl 33301, usa","Geocoded"
1569,"Back Porch","(MX)","227-3674 open March-October, hrs 10am-11pm","21 Rehoboth Ave.","Restaurants & Cafes","Rehoboth Beach","DE",NA,1992,"","","4/25/2023 9:32pm","21 Rehoboth Ave. ,  Rehoboth Beach ,  DE",-75.0768934,38.7168718,"21 rehoboth ave, rehoboth beach, de 19971, usa","Geocoded"
4980,"Lambda Travel","(IGTA)","#545 925-3011","21 S. 5th St.","Travel & Tour Operators","Philadelphia","PA",NA,1992,"","","4/25/2023 9:32pm","21 S. 5th St. ,  Philadelphia ,  PA",-75.1485049,39.9498575,"21 s 5th st, philadelphia, pa 19106, usa","Geocoded"
4160,"Capito","(MW)","645-2160 Italian cuisine","21 W. 17th St.","Restaurants & Cafes","Greenwich Village","NY",NA,1992,"","","4/25/2023 9:32pm","21 W. 17th St. ,  Greenwich Village ,  NY",-73.993402,40.7385665,"21 w 17th st, new york, ny 10011, usa","Geocoded"
5793,"Tucker Inn","(MX),(W)","224-2031 beachside","21 Weens St.","Accomodations","Colonial Beach","VA",NA,1992,"","","4/25/2023 9:32pm","21 Weens St. ,  Colonial Beach ,  VA",-76.9604803,38.2472012,"21 weems st, colonial beach, va 22443, usa","Geocoded"
1411,"Club 22","(D),(L),(LV)","733-2175 7am-2am","22 Broadway","Bars","Denver","CO",NA,1992,"","","4/25/2023 9:32pm","22 Broadway ,  Denver ,  CO",-104.987409,39.7526363,"22nd st & n broadway, denver, co 80205, usa","Geocoded"
3226,"Land's End Inn","(MW)","487-0706 B & B, year round","22 Commercial St.","Accomodations","Provincetown","MA",NA,1992,"","","4/25/2023 9:32pm","22 Commercial St. ,  Provincetown ,  MA",-70.1955804,42.0400364,"historic district, 22 commercial st, provincetown, ma 02657, usa","Geocoded"
3087,"Oasis Guest House","(*),(IGTA)","267-2262","22 Edgerly Rd.","Accomodations","Boston","MA",NA,1992,"","","4/25/2023 9:32pm","22 Edgerly Rd. ,  Boston ,  MA",-71.0877653,42.3458633,"22 edgerly rd, boston, ma 02115, usa","Geocoded"
3309,"Midtown Athletic Club","(MX)","798-9703","22 Front St.","Gyms/Health Clubs","Worcester","MA",NA,1992,"","","4/25/2023 9:32pm","22 Front St. ,  Worcester ,  MA",-71.8013082,42.2633127,"22 front st, worcester, ma 01608, usa","Geocoded"
3678,"Patrik Travel","(IGTA)","367-1468","22 N. Euclid Ave.","Travel & Tour Operators","St. Louis","MO",NA,1992,"","","4/25/2023 9:32pm","22 N. Euclid Ave. ,  St. Louis ,  MO",-90.2617842,38.6408126,"22 n euclid ave, st. louis, mo 63108, usa","Geocoded"
5109,"Brinley Victorian Inn","(MX),(W)","849-7645","23 Brinley St.","Accomodations","Newport","RI",NA,1992,"","","4/25/2023 9:32pm","23 Brinley St. ,  Newport ,  RI",-71.3081004,41.4880562,"23 brinley st, newport, ri 02840, usa","Geocoded"
3289,"Just Friends","(MW),(D),(V)","781-5878 11am-2am","23 Hampden St.","Bars","Springfield","MA",NA,1992,"","","4/25/2023 9:32pm","23 Hampden St. ,  Springfield ,  MA",-72.5943724,42.1036039,"23 hampden st, springfield, ma 01103, usa","Geocoded"
102,"Charlie's","(MX),(E)","779-1919 11pm-1am, discreetly frequented by local gay population","23 N. Leroux","Bars","Flagstaff","AZ",NA,1992,"","","4/25/2023 9:32pm","23 N. Leroux ,  Flagstaff ,  AZ",-111.6490479,35.1984555,"23 n leroux st, flagstaff, az 86001, usa","Geocoded"
187,"Graduate","(*)","622-9233 11am-1am, cruise bar","23 W. University Ave.","Bars,Cruising Areas","Tucson","AZ",NA,1992,"","","4/25/2023 9:32pm","23 W. University Ave. ,  Tucson ,  AZ",-110.9724985,32.231604,"23 w university blvd, tucson, az 85705, usa","Geocoded"
1632,"GH Club","(PC)","(next door to Follies)","24 'O' St. SE","Gyms/Health Clubs","Washington","DC",NA,1992,"","","4/25/2023 9:32pm","24 'O' St. SE ,  Washington ,  DC",-77.0080681,38.8731895,"24 o st se, washington, dc 20003, usa","Geocoded"
1651,"Follies","","(upstairs) 484-0323 24 hrs","24 'O' St. SE","Erotica","Washington","DC",NA,1992,"","","4/25/2023 9:32pm","24 'O' St. SE ,  Washington ,  DC",-77.0080681,38.8731895,"24 o st se, washington, dc 20003, usa","Geocoded"
1516,"Weber's Travel Services","(IGTA)","229-4846","24 Cedar St.","Travel & Tour Operators","New Britain","CT",NA,1992,"","","4/25/2023 9:32pm","24 Cedar St. ,  New Britain ,  CT",-72.7874368,41.6672501,"24 cedar st, new britain, ct 06052, usa","Geocoded"
1042,"Twenty-four Henry","(IGTA)","864-5686 B & B","24 Henry St.","Accomodations","San Francisco","CA",NA,1992,"","","4/25/2023 9:32pm","24 Henry St. ,  San Francisco ,  CA",-122.4321037,37.7669153,"24 henry st, san francisco, ca 94114, usa","Geocoded"
1279,"Hosanna Church of Praise","","293-2437, 10:30am Sunday","24 N. Fifth St.","Religious Organization","San Jose","CA",NA,1992,"","","4/25/2023 9:32pm","24 N. Fifth St. ,  San Jose ,  CA",-121.8861896,37.3386053,"24 n 5th st, san jose, ca 95112, usa","Geocoded"
4951,"Club Revival","(MX),(D),(E),(PC),(YC),(AH)","627-4825 Sun gay night, house & progressive music","24 S. Third St.","Bars","Philadelphia","PA",NA,1992,"","","4/25/2023 9:32pm","24 S. Third St. ,  Philadelphia ,  PA",-75.1460526,39.9492263,"24 s 3rd st, philadelphia, pa 19106, usa","Geocoded"
1571,"Sydney's Side Street Restaurant Blues Place","(MX),(E)","227-1339 4pm-2am, full bar","25 Christian St.","Restaurants & Cafes","Rehoboth Beach","DE",NA,1992,"","","4/25/2023 9:32pm","25 Christian St. ,  Rehoboth Beach ,  DE",-75.0841103,38.7153612,"25 christian st, rehoboth beach, de 19971, usa","Geocoded"
3008,"Treasure Chest","","","25 College Ave","Erotica","Waterville","ME",NA,1992,"","","4/25/2023 9:32pm","25 College Ave ,  Waterville ,  ME",-69.6233793,44.5665982,"25 college ave, waterville, me 04901, usa","Geocoded"
5732,"Common Ground","(*),(MW)","257-0855 vegetarian, clsd Tues","25 Elliott St.","Restaurants & Cafes","Brattlebro","VT",NA,1992,"","","4/25/2023 9:32pm","25 Elliott St. ,  Brattlebro ,  VT",-72.5588858,42.8521308,"25 elliot st, brattleboro, vt 05301, usa","Geocoded"
4913,"Closet, The","","399-8818 lesbian/gay book store, 11am-10pm, clsd Sun-Mon","25 N. Prince St.","Bookstore/Retail Shops","Lancaster","PA",NA,1992,"","","4/25/2023 9:32pm","25 N. Prince St. ,  Lancaster ,  PA",-76.3082685,40.0408091,"25 n prince st, lancaster, pa 17602, usa","Geocoded"
3251,"Willows","","487-0520","25 Tremont St.","Accomodations","Provincetown","MA",NA,1992,"","","4/25/2023 9:32pm","25 Tremont St. ,  Provincetown ,  MA",-70.194379,42.043716,"25 tremont st, provincetown, ma 02657, usa","Geocoded"
3180,"Northstar","(MX),(D),(E),(F)","586-9409 dinner 5pm-10pm & dancing 10pm-1am, clsd Mon","25 West St.","Bars","Northampton","MA",NA,1992,"","","4/25/2023 9:32pm","25 West St. ,  Northampton ,  MA",-72.6366681,42.3166318,"25 west st, northampton, ma 01060, usa","Geocoded"
3872,"Carl's Adult World","","965-1110","25 White Horse Pike","Erotica","Egg Harbor City","NJ",NA,1992,"","","4/25/2023 9:32pm","25 White Horse Pike ,  Egg Harbor City ,  NJ",-74.654247,39.5337417,"25 white horse pike, egg harbor city, nj 08215, usa","Geocoded"
4024,"Cathode Ray","(V),(NH)","884-3615 1pm-4am, cruisy","26 Allen St.","Bars,Cruising Areas","Buffalo","NY",NA,1992,"","","4/25/2023 9:32pm","26 Allen St. ,  Buffalo ,  NY",-78.8709869,42.8991903,"26 allen st, buffalo, ny 14202, usa","Geocoded"
3225,"Lamplighter Guest House","(MW)","487-2529 B & B","26 Bradford St.","Accomodations","Provincetown","MA",NA,1992,"","","4/25/2023 9:32pm","26 Bradford St. ,  Provincetown ,  MA",-70.1938828,42.0463,"historic district, 26 bradford st, provincetown, ma 02657, usa","Geocoded"
3085,"Chandler Inn","(*),(MX),(IGTA)","482-3450","26 Chandler St.","Accomodations","Boston","MA",NA,1992,"","","4/25/2023 9:32pm","26 Chandler St. ,  Boston ,  MA",-71.0706178,42.3469629,"26 chandler st, boston, ma 02116, usa","Geocoded"
3220,"Flamingo Bay","(MW)","487-0068 private baths, year round","27 Conwell St.","Accomodations","Provincetown","MA",NA,1992,"","","4/25/2023 9:32pm","27 Conwell St. ,  Provincetown ,  MA",-70.1865342,42.0566656,"27 conwell st, provincetown, ma 02657, usa","Geocoded"
3094,"Chaps","(*),(D)","266-7778 4pm-2am","27 Huntington Ave.","Bars","Boston","MA",NA,1992,"","","4/25/2023 9:32pm","27 Huntington Ave. ,  Boston ,  MA",-71.0778313,42.3490137,"27 huntington ave, boston, ma 02116, usa","Geocoded"
2795,"Hawley Cooke Books","","Plaza 893-0133 gay/lesbian section","27 Shelbyville Rd.","Bookstore/Retail Shops","Louisville","KY",NA,1992,"","","4/25/2023 9:32pm","27 Shelbyville Rd. ,  Louisville ,  KY",-85.4571443,38.2339737,"shelbyville rd, kentucky, usa","Geocoded"
4180,"Cellblock 28","","733-3144 8pm-3pm Mon-Thurs, 3pm-3am Sun","28 9th Ave.","Men's Services","Greenwich Village","NY",NA,1992,"","","4/25/2023 9:32pm","28 9th Ave. ,  Greenwich Village ,  NY",-74.0058966,40.7396535,"28 9th ave, new york, ny 10014, usa","Geocoded"
3249,"Westwinds Guest House","(MW),(SW)","487-2506 year round","28 Commercial St.","Accomodations","Provincetown","MA",NA,1992,"","","4/25/2023 9:32pm","28 Commercial St. ,  Provincetown ,  MA",-70.1950455,42.0404802,"historic district, 28 commercial st, provincetown, ma 02657, usa","Geocoded"
4856,"Stonewall","(*),(MW),(D),(V),(F),(YC)","432-0706 2pm-2am Mon-Sat, Moose Lounge upstairs (piano bar & restaurant)","28-30 N. 10th St.","Bars","Allentown","PA",NA,1992,"","","4/25/2023 9:32pm","28-30 N. 10th St. ,  Allentown ,  PA",-75.4786136,40.601348,"28 n 10th st #30, allentown, pa 18101, usa","Geocoded"
4901,"Town News","","232-1100, 24hrs","29 N. 2nd St.","Erotica","Harrisburg","PA",NA,1992,"","","4/25/2023 9:32pm","29 N. 2nd St. ,  Harrisburg ,  PA",-76.8827704,40.2604946,"29 n 2nd st, harrisburg, pa 17101, usa","Geocoded"
3120,"WordsWorth","","Cambridge 354-5201 general titles with gay/lesbian section","30 Brattle St.","Bookstore/Retail Shops","Boston","MA",NA,1992,"","","5/18/2023 8:30am","30 Brattle St. ,  Boston ,  MA",-71.1206141,42.3731274,"30 brattle st, cambridge, ma 02138, usa","Geocoded"
3109,"Casa Romero","(MX)","536-4341 Mexican","30 Gloucester St.","Bars","Boston","MA",NA,1992,"","","4/25/2023 9:32pm","30 Gloucester St. ,  Boston ,  MA",-71.0844343,42.3494627,"30 gloucester st, boston, ma 02115, usa","Geocoded"
3305,"A and D Travel","(IGTA)","737-5706","30 Main St.","Travel & Tour Operators","West Springfield","MA",NA,1992,"","","4/25/2023 9:32pm","30 Main St. ,  West Springfield ,  MA",-72.6164769,42.1063622,"30 main st, west springfield, ma 01089, usa","Geocoded"
4311,"Blair's Tavern","(MX),(D)","561-9071 3pm-2am","30 Marion St.","Bars","Plattsburg","NY",NA,1992,"","","4/25/2023 9:32pm","30 Marion St. ,  Plattsburg ,  NY",-73.4544659,44.6979538,"30 marion st, plattsburgh, ny 12901, usa","Geocoded"
3275,"Weathering Heights","","487-9259","30 Shank Painter Rd.","Restaurants & Cafes","Provincetown","MA",NA,1992,"","","4/25/2023 9:32pm","30 Shank Painter Rd. ,  Provincetown ,  MA",-70.1941851,42.0491633,"historic district, 30 shank painter rd, provincetown, ma 02657, usa","Geocoded"
1301,"Gold Coast","(*),(D)","965-6701 4pm-2am, from 2pm Sat & Sun","30 W. Cota","Bars","Santa Barbara","CA",NA,1992,"","","4/25/2023 9:32pm","30 W. Cota ,  Santa Barbara ,  CA",-119.6977695,34.4170867,"30 w cota st, santa barbara, ca 93101, usa","Geocoded"
4022,"Buddie's","(MW),(D),(E)","855-1313 1pm-4am","31 Johnson Park","Bars","Buffalo","NY",NA,1992,"","","4/25/2023 9:32pm","31 Johnson Park ,  Buffalo ,  NY",-78.8775209,42.8927052,"31 johnson park, buffalo, ny 14201, usa","Geocoded"
4121,"Incentra Village Guest House","(*),(MW)","206-0007 10 rooms, priv baths","32 8th Ave.","Accomodations","Greenwich Village","NY",NA,1992,"","","4/25/2023 9:32pm","32 8th Ave. ,  Greenwich Village ,  NY",-74.0042319,40.7378937,"32 8th ave, new york, ny 10014, usa","Geocoded"
5733,"Peter's Haven","(*),(MW)","257-3333","32 Elliott St.","Restaurants & Cafes","Brattlebro","VT",NA,1992,"","","4/25/2023 9:32pm","32 Elliott St. ,  Brattlebro ,  VT",-72.5587241,42.8518652,"32 elliot st, brattleboro, vt 05301, usa","Geocoded"
5738,"Howden Cottage","(MW)","864-7198 smoke-free B & B","32 N. Champlain St.","Accomodations","Burlington","VT",NA,1992,"","","4/25/2023 9:32pm","32 N. Champlain St. ,  Burlington ,  VT",-73.2172694,44.4812135,"32 n champlain st, burlington, vt 05401, usa","Geocoded"
2985,"Gays in Sobriety","","(Williston W. Church) 774-4060 meetings 6:30pm-8pm Sun & 8pm Thurs","32 Thomas St.","Info Lines & Services","Portland","ME",NA,1992,"","","4/25/2023 9:32pm","32 Thomas St. ,  Portland ,  ME",-70.2709772,43.6480178,"32 thomas st, portland, me 04102, usa","Geocoded"
1525,"Fairmont Theatre","","467-3832, cruisy, gay shows 11pm-1am Fri-Sun","33 Main St.","Cruising Areas,Erotica","New Haven","CT",NA,1992,"","","4/25/2023 9:32pm","33 Main St. ,  New Haven ,  CT",-72.8916173,41.2883133,"33 main st, new haven, ct 06512, usa","Geocoded"
3387,"Apartment, The","(F)","451-0815 11am-2am Mon-Sat, 2pm-2am Sun","33 Sheldon","Bars","Grand Rapids","MI",NA,1992,"","","4/25/2023 9:32pm","33 Sheldon ,  Grand Rapids ,  MI",-85.6669865,42.9622169,"33 sheldon blvd se, grand rapids, mi 49503, usa","Geocoded"
3065,"Club, The","(BYOB),(MX),(D),(E),(S)","791-6969 8pm-closing Sun-Thurs; 11pm-closing Fri & Sat","33 W. Antietam St.","Bars","Hagerstown","MD",NA,1992,"","","4/25/2023 9:32pm","33 W. Antietam St. ,  Hagerstown ,  MD",-77.7224592,39.6411589,"33 w antietam st, hagerstown, md 21740, usa","Geocoded"
1524,"MCC","","(United Church), Westville 777-9808, 4pm Sun","34 Harrison St.","Religious Organization","New Haven","CT",NA,1992,"","","4/25/2023 9:32pm","34 Harrison St. ,  New Haven ,  CT",-72.9628185,41.3275678,"34 harrison st, new haven, ct 06515, usa","Geocoded"
4937,"Mother's","","862-5270 8am-10pm","34 N. Main St.","Restaurants & Cafes","New Hope","PA",NA,1992,"","","4/25/2023 9:32pm","34 N. Main St. ,  New Hope ,  PA",-74.9516787,40.3654849,"34 n main st, new hope, pa 18938, usa","Geocoded"
1567,"Blue Moon","(*),(MW),(D),(F)","227-6515 Popular T-Dance 4pm, dinner & Sun brunch","35 Baltimore Ave.","Bars","Rehoboth Beach","DE",NA,1992,"","","4/25/2023 9:32pm","35 Baltimore Ave. ,  Rehoboth Beach ,  DE",-75.0798904,38.7173204,"35 baltimore ave, rehoboth beach, de 19971, usa","Geocoded"
3125,"Dignity","","(St. John the Evnglst Epis. Church) 536-6518 5:30pm Sun","35 Boudoin St.","Religious Organization","Boston","MA",NA,1992,"","","4/25/2023 9:32pm","35 Boudoin St. ,  Boston ,  MA",NA,NA,"NA","Geocoded"
3810,"Runaway Travel","","434-0897","35 Crystal Ave.","Travel & Tour Operators","Derry","NH",NA,1992,"","","4/25/2023 9:32pm","35 Crystal Ave. ,  Derry ,  NH",-71.3264931,42.8878994,"35 crystal ave, derry, nh 03038, usa","Geocoded"
4614,"Changes","(S),(D),(YC)","445-9077 11:30am-2:30am, from 1pm Sun","35 W. 5th St.","Bars","Dayton","OH",NA,1992,"","","4/25/2023 9:32pm","35 W. 5th St. ,  Dayton ,  OH",-84.1925415,39.7566944,"35 w 5th st, dayton, oh 45402, usa","Geocoded"
97,"St. Elmo's","(MX)","437-5578 discreetly frequented by local gay population","36 Brewery Gulch Ave.","Bars","Bisbee","AZ",NA,1992,"","","4/25/2023 9:32pm","36 Brewery Gulch Ave. ,  Bisbee ,  AZ",-109.9133562,31.448586,"36 brewery gulch, bisbee, az 85603, usa","Geocoded"
4062,"Loft","","597-6720 seasonal","36 Fire Island Blvd.","Bars","Fire Island","NY",NA,1992,"","","4/25/2023 9:32pm","36 Fire Island Blvd. ,  Fire Island ,  NY",-73.06977,40.6651878,"36 fire island blvd, sayville, ny 11782, usa","Geocoded"
4060,"Crew's Quarters","(*),(SW)","Fire Island Pines 597-6873 seasonal","36 Fire Island Blvd.","Bars","Fire Island","NY",NA,1992,"","","5/18/2023 8:30am","36 Fire Island Blvd. ,  Fire Island ,  NY",-73.06977,40.6651878,"36 fire island blvd, sayville, ny 11782, usa","Geocoded"
762,"Garry's Country Kitchen","(MX)","328-0617 7am-2:30pm Mon-Fri, 8am-2pm Sat & Sun","36-815 Cathedral Canyon Dr.","Restaurants & Cafes","Palm Springs","CA",NA,1992,"","","4/25/2023 9:32pm","36-815 Cathedral Canyon Dr. ,  Palm Springs ,  CA",-116.4671276,33.7812895,"36815 cathedral canyon dr, cathedral city, ca 92234, usa","Geocoded"
5178,"MCC","","(Unitarian Church) 233-0919 7pm Sun","37 E. Hillcrest Dr.","Religious Organization","Greenville","SC",NA,1992,"","","4/25/2023 9:32pm","37 E. Hillcrest Dr. ,  Greenville ,  SC",-82.3876351,34.8692605,"37 e hillcrest dr, greenville, sc 29609, usa","Geocoded"
2971,"Inn at Tall Chimney, The","","646-8974","37 Main St.","Accomodations","Ogunquit","ME",NA,1992,"","","4/25/2023 9:32pm","37 Main St. ,  Ogunquit ,  ME",-70.6022728,43.2401816,"37 main st, ogunquit, me 03907, usa","Geocoded"
1570,"Square One","(MW)","227-1994 5pm-1am","37 Wilmington Ave.","Restaurants & Cafes","Rehoboth Beach","DE",NA,1992,"","","4/25/2023 9:32pm","37 Wilmington Ave. ,  Rehoboth Beach ,  DE",-75.0797079,38.7155756,"37 wilmington ave, rehoboth beach, de 19971, usa","Geocoded"
2961,"Brewster Inn","(MX),(W)","924-3130 B & B, year-round","37 Zions Hill","Accomodations","Dexter","ME",NA,1992,"","","4/25/2023 9:32pm","37 Zions Hill ,  Dexter ,  ME",-69.2947005,45.0232317,"37 zions hill rd, dexter, me 04930, usa","Geocoded"
4373,"Traxx II","(MW),(D),(NH),(S),(CW)","258-8729 9pm-2am Wed, Fri-Sun, CW bar upstairs","38 N. French Broad Ave.","Bars","Asheville","NC",NA,1992,"","","4/25/2023 9:32pm","38 N. French Broad Ave. ,  Asheville ,  NC",-82.5592001,35.5945219,"38 n french broad ave, asheville, nc 28801, usa","Geocoded"
1573,"Lambda Rising","","227-6969 lesbian/gay bookstore, call for hours","39 Baltimore Ave.","Bookstore/Retail Shops","Rehoboth Beach","DE",NA,1992,"","","4/25/2023 9:32pm","39 Baltimore Ave. ,  Rehoboth Beach ,  DE",-75.0802098,38.7173219,"39 baltimore ave, rehoboth beach, de 19971, usa","Geocoded"
2287,"Risque II Theatre","","(upstairs) 531-7318 call for hours","39 N. Hotel St.","Erotica","Honolulu, Oahu","HI",NA,1992,"","","4/25/2023 9:32pm","39 N. Hotel St. ,  Honolulu, Oahu ,  HI",-157.862572,21.311436,"39 n hotel st, honolulu, hi 96817, usa","Geocoded"
3900,"MCC New Brunswick-Rutgers Univ Campus","","(St. Michael's Epis. Church) 566-8565 2:30pm Sun","40 Davidson Rd.","Religious Organization","New Brunswick","NJ",NA,1992,"","","4/25/2023 9:32pm","40 Davidson Rd. ,  New Brunswick ,  NJ",-74.4524571,40.5247064,"st moses & anba abram coptic orthodox church, 40 davidson rd, piscataway, nj 08854, usa","Geocoded"
4598,"Trends","(*),(MW),(D),(YC),(E)","461-0076 5pm-2:30am","40 E. Long St.","Bars","Columbus","OH",NA,1992,"","","4/25/2023 9:32pm","40 E. Long St. ,  Columbus ,  OH",-82.9998357,39.9653188,"40 e long st, columbus, oh 43215, usa","Geocoded"
5730,"Cahoots","(W),(D)","8pm-2am, til 1am Sat","40 Elliott St.","Bars","Brattlebro","VT",NA,1992,"","","4/25/2023 9:32pm","40 Elliott St. ,  Brattlebro ,  VT",-72.5589544,42.8519278,"40 elliot st, brattleboro, vt 05301, usa","Geocoded"
1565,"Rehoboth Guest House","(MX)","227-4117 B&B, May-Sept, shared baths","40 Maryland Ave.","Accomodations","Rehoboth Beach","DE",NA,1992,"","","4/25/2023 9:32pm","40 Maryland Ave. ,  Rehoboth Beach ,  DE",-75.080301,38.717694,"40 maryland ave, rehoboth beach, de 19971, usa","Geocoded"
4324,"Forty Union","(MW),(E),(F)","325-6216 5pm-2am, clsd Mon","40 S. Union St.","Bars","Rochester","NY",NA,1992,"","","4/25/2023 9:32pm","40 S. Union St. ,  Rochester ,  NY",-77.5975052,43.1540026,"40 s union st, rochester, ny 14607, usa","Geocoded"
3200,"Bradford House & Motel","(MW)","487-0173 year round, private baths","41 Bradford St.","Accomodations","Provincetown","MA",NA,1992,"","","4/25/2023 9:32pm","41 Bradford St. ,  Provincetown ,  MA",-70.1922084,42.0473396,"historic district, 41 bradford st, provincetown, ma 02657, usa","Geocoded"
4494,"Akron Steam & Sauna","(PC)","784-0777 noon-midnight Sun-Thurs, noon-6am Fri & Sat","41 S. Case","Gyms/Health Clubs","Akron","OH",NA,1992,"","","4/25/2023 9:32pm","41 S. Case ,  Akron ,  OH",-81.4887384,41.069049,"41 s case ave, akron, oh 44305, usa","Geocoded"
2474,"Nut Bush","(D)","366-5117 3pm-2am Sun-Thurs, 1pm-3am Fri & Sat","41 S. Harlem","Bars","Forest Park","IL",NA,1992,"","","4/25/2023 9:32pm","41 S. Harlem ,  Forest Park ,  IL",-87.804577,41.8794288,"41 s harlem ave, oak park, il 60302, usa","Geocoded"
1563,"Paper Nautilus","(MW)","227-1603","42 1/2 Baltimore Ave.","Accomodations","Rehoboth Beach","DE",NA,1992,"","","4/25/2023 9:32pm","42 1/2 Baltimore Ave. ,  Rehoboth Beach ,  DE",-75.0803467,38.7169395,"42 baltimore ave, rehoboth beach, de 19971, usa","Geocoded"
4917,"Sassy but Classy","","393-9990","42 W. King St.","Erotica","Lancaster","PA",NA,1992,"","","4/25/2023 9:32pm","42 W. King St. ,  Lancaster ,  PA",-76.3072127,40.0375184,"42 w king st, lancaster, pa 17603, usa","Geocoded"
1132,"Ginger's Too","","543-3622 10am-2am","43 6th. St.","Bars","San Francisco","CA",NA,1992,"","","4/25/2023 9:32pm","43 6th. St. ,  San Francisco ,  CA",-122.40933,37.7818007,"43 6th st, san francisco, ca 94103, usa","Geocoded"
3196,"Bed 'N' B'fast","(IGTA)","487-9555 year round","44 Commercial St.","Accomodations","Provincetown","MA",NA,1992,"","","4/25/2023 9:32pm","44 Commercial St. ,  Provincetown ,  MA",-70.1943944,42.0414427,"historic district, 44 commercial st, provincetown, ma 02657, usa","Geocoded"
1482,"Bookends","","745-3988 9am-10pm Mon-Sat, 10:30am-6pm Sun","44 Enfield St.","Erotica","Enfield","CT",NA,1992,"","","4/25/2023 9:32pm","44 Enfield St. ,  Enfield ,  CT",-72.585224,42.0238946,"44 enfield st, enfield, ct 06082, usa","Geocoded"
2975,"Yellow Monkey Guest House & Hotel","(MW)","646-9056 April 15-Thanksgiving, sundeck, fitness room","44 Main St.","Accomodations","Ogunquit","ME",NA,1992,"","","4/25/2023 9:32pm","44 Main St. ,  Ogunquit ,  ME",-70.6010695,43.2408018,"44 main st, ogunquit, me 03907, usa","Geocoded"
3286,"Country Club","(*),(MW),(PC),(D),(SW),(E),(V)","(Rte. 139) 961-2414 noon-2am","44 Mazeo Dr","Bars","Randolph","MA",NA,1992,"","","4/25/2023 9:32pm","44 Mazeo Dr ,  Randolph ,  MA",-71.0585486,42.1628315,"44 mazzeo dr, randolph, ma 02368, usa","Geocoded"
4618,"Stage Door","(NH)","223-7418 11am-2:30am Mon-Fri, from 1pm Sat & Sun","44 N. Jefferson","Bars","Dayton","OH",NA,1992,"","","4/25/2023 9:32pm","44 N. Jefferson ,  Dayton ,  OH",-84.190007,39.760934,"44 n jefferson st, dayton, oh 45402, usa","Geocoded"
4174,"Greetings","","242-0424, 11am-11pm","45 Christopher St.","Bookstore/Retail Shops","Greenwich Village","NY",NA,1992,"","","4/25/2023 9:32pm","45 Christopher St. ,  Greenwich Village ,  NY",NA,NA,"NA","Geocoded"
1500,"Integrity","","(Christ Church Cathedral) 522-2196, 5:30pm 2nd & 4th Sun","45 Church St.","Religious Organization","Hartford","CT",NA,1992,"","","4/25/2023 9:32pm","45 Church St. ,  Hartford ,  CT",-72.674107,41.7683756,"45 church st, hartford, ct 06103, usa","Geocoded"
1245,"United Nations Plaza Hotel","","626-5200 (800) 553-1900","45 McAllister St.","Accomodations","San Francisco","CA",NA,1992,"","","4/25/2023 9:32pm","45 McAllister St. ,  San Francisco ,  CA",-122.4126728,37.780882,"45 mcallister st, san francisco, ca 94102, usa","Geocoded"
1253,"Peter Pan Lounge","(NH)","928-6991 6am-2am","45 Turk St.","Bars","San Francisco","CA",NA,1992,"","","4/25/2023 9:32pm","45 Turk St. ,  San Francisco ,  CA",-122.4089922,37.7834544,"45 turk st, san francisco, ca 94102, usa","Geocoded"
4138,"Kelly's Village West","(MW),(E)","929-9322 noon-4am","46 Bedford St.","Bars","Greenwich Village","NY",NA,1992,"","","4/25/2023 9:32pm","46 Bedford St. ,  Greenwich Village ,  NY",-74.0041563,40.730584,"46 bedford st, new york, ny 10014, usa","Geocoded"
2377,"T.J.'s on Oak","(V)","943-6319 noon-2am Mon-Fri, from 3pm Sat & Sun","46 E. Oak St.","Bars","Chicago","IL",NA,1992,"","","4/25/2023 9:32pm","46 E. Oak St. ,  Chicago ,  IL",-87.6265628,41.9010355,"46 e oak st, chicago, il 60611, usa","Geocoded"
1315,"Tinker's Damn","(*),(D),(YC)","243-4595 3pm-2am Mon-Fri, 1pm-2am Sat & Sun","46 N. Saratoga","Bars","Santa Clara","CA",NA,1992,"","","4/25/2023 9:32pm","46 N. Saratoga ,  Santa Clara ,  CA",-121.9867192,37.2966114,"saratoga ave, california, usa","Geocoded"
2299,"Windward Oahu B&B","(MW),(SW)","235-1124 windward coast accomodations","46-251 Ikiiki St.","Accomodations","Honolulu, Oahu","HI",NA,1992,"","","4/25/2023 9:32pm","46-251 Ikiiki St. ,  Honolulu, Oahu ,  HI",-157.8071381,21.4308878,"46-251 ikiiki st, kaneohe, hi 96744, usa","Geocoded"
2955,"Beginnings Etc.","","721-0702 specialty bookstore","47 Maine St.","Bookstore/Retail Shops","Brunswick","ME",NA,1992,"","","4/25/2023 9:32pm","47 Maine St. ,  Brunswick ,  ME",-69.966249,43.9179571,"47 maine st, brunswick, me 04011, usa","Geocoded"
912,"Re/Max Associates-Dean Burrows","","299-DEAN San Diego's #1 real estate professional","47Morena Blvd.","Info Lines & Services","San Diego","CA",NA,1992,"","","4/25/2023 9:32pm","47Morena Blvd. ,  San Diego ,  CA",-117.206589,32.783188,"2043-47 morena blvd, san diego, ca 92110, usa","Geocoded"
2129,"Metro, The","(D),(LV),(V)","874-9869 9pm-3am, til 4 am Fri","48 6th St.","Bars","Atlanta","GA",NA,1992,"","","4/25/2023 9:32pm","48 6th St. ,  Atlanta ,  GA",-84.3855866,33.7777398,"48 6th st ne, atlanta, ga 30308, usa","Geocoded"
3234,"Renaissance Apartments","(MW)","487-4600 weekly rentals","48 Commercial St.","Accomodations","Provincetown","MA",NA,1992,"","","4/25/2023 9:32pm","48 Commercial St. ,  Provincetown ,  MA",-70.1942548,42.0417154,"historic district, 48 commercial st, provincetown, ma 02657, usa","Geocoded"
4259,"Flavors on Sixty-Ninth","(MW),(F)","429-8501 4pm-4am from noon Sun","48-10 69th St.","Bars","Queens","NY",NA,1992,"","","4/25/2023 9:32pm","48-10 69th St. ,  Queens ,  NY",-73.8961814,40.7381616,"48-10 69th st, woodside, ny 11377, usa","Geocoded"
2126,"Gallus Restaurant & Bar","(*),(MW),(E),(H)","3pm-3am, hustlers in downstairs bar, food service 6pm-midnight","49 6th St. N.E.","Bars","Atlanta","GA",NA,1992,"","","4/25/2023 9:32pm","49 6th St. N.E. ,  Atlanta ,  GA",-84.3856992,33.7772586,"49 6th st ne, atlanta, ga 30308, usa","Geocoded"
4165,"Five Oaks","(*),(MW),(E)","243-8885 piano bar","49 Grove St.","Restaurants & Cafes","Greenwich Village","NY",NA,1992,"","","4/25/2023 9:32pm","49 Grove St. ,  Greenwich Village ,  NY",-74.0037967,40.7331585,"49 grove st, new york, ny 10014, usa","Geocoded"
4087,"Rumours","(*),(MW),(D),(YC),(V)","49 Lower Dix Ave. Ext., Queensbury 798-0820, 792-9646 8pm-4am Mon-Thurs, 3pm-4am Fri-Sun","","Bars","Lake George","NY",NA,1992,"","","5/18/2023 8:30am"," ,  Lake George ,  NY",-73.7123408,43.4261809,"lake george, ny 12845, usa","Geocoded"
1501,"MCC","","(Unitarian Meeting House) 236-3411, 7pm Sun","50 Bloomfield Ave.","Religious Organization","Hartford","CT",NA,1992,"","","4/25/2023 9:32pm","50 Bloomfield Ave. ,  Hartford ,  CT",-72.7128482,41.7888687,"50 bloomfield ave, hartford, ct 06105, usa","Geocoded"
4328,"Jazzberry's Uptown Restaurant & Nightclub","(MX),(F),(E)","262-3600 call for hours and events","50 East Ave.","Bars","Rochester","NY",NA,1992,"","","4/25/2023 9:32pm","50 East Ave. ,  Rochester ,  NY",-77.6026547,43.1575852,"50 east ave, rochester, ny 14604, usa","Geocoded"
5150,"Fifty Folly Place","(MW)","571-4171 B & B, year round, nr. historic Charleston","50 Folly Rd.","Accomodations","Charleston","SC",NA,1992,"","","4/25/2023 9:32pm","50 Folly Rd. ,  Charleston ,  SC",-79.9719814,32.7787716,"50 folly rd blvd, charleston, sc 29407, usa","Geocoded"
4326,"Heaven","(MX),(D),(YC)","262-3050","50 Liberty Pole Way","Bars","Rochester","NY",NA,1992,"","","4/25/2023 9:32pm","50 Liberty Pole Way ,  Rochester ,  NY",-77.6044461,43.1584508,"50 liberty pole way, rochester, ny 14604, usa","Geocoded"
4348,"Blythewood","(F)","382-9755 9pm-4:30am","50 N. Jay St.","Bars","Schenectady","NY",NA,1992,"","","4/25/2023 9:32pm","50 N. Jay St. ,  Schenectady ,  NY",-73.9375809,42.8177159,"50 n jay st, schenectady, ny 12305, usa","Geocoded"
5094,"Vibrations","(*),(LV),(S)","(Condado) 10pm-5am","51 Ave. Barranquitos","Bars","San Juan","PR",NA,1992,"","","4/25/2023 9:32pm","51 Ave. Barranquitos ,  San Juan ,  PR",-66.0763692,18.4585576,"51 cll barranquitas, san juan, 00907, puerto rico","Geocoded"
50,"Society Lounge","(MW),(D),(S)","433-9141 noon-?","51 Conception","Bars","Mobile","AL",NA,1992,"","","4/25/2023 9:32pm","51 Conception ,  Mobile ,  AL",NA,NA,"NA","Geocoded"
3907,"Rah-Rah Pub","(*),(MW),(D),(E),(F)","676-1399 4pm 2am","51 S. Day St.","Bars","Orange","NJ",NA,1992,"","","4/25/2023 9:32pm","51 S. Day St. ,  Orange ,  NJ",-74.2309322,40.7708803,"51 s day st, city of orange, nj 07050, usa","Geocoded"
3092,"Buddies","(*),(D),(E),(V),(YC)","426-3772 noon-2am","51 Stuart St.","Bars","Boston","MA",NA,1992,"","","4/25/2023 9:32pm","51 Stuart St. ,  Boston ,  MA",-71.0641984,42.3511995,"51 stuart st suite 2, boston, ma 02116, usa","Geocoded"
217,"Cafe Armagost","(*),(MX)","253-8075 excellent French & Creole gourmet, dinner 5pm-10pm, Sun brunch 9am-2pm","52 King Hwy","Restaurants & Cafes","Eureka Springs","AR",NA,1992,"","","4/25/2023 9:32pm","52 King Hwy ,  Eureka Springs ,  AR",-93.7350631,36.4095695,"52 king st, eureka springs, ar 72632, usa","Geocoded"
3102,"Napolean Club","(*),(OC),(D),(E)","338-7547 dance bar weekends only, piano bar every day","52 Piedmont","Bars","Boston","MA",NA,1992,"","","4/25/2023 9:32pm","52 Piedmont ,  Boston ,  MA",-71.0692096,42.34966,"52 piedmont st, boston, ma 02116, usa","Geocoded"
5087,"Deep, The","(MW),(V)","725-1247 8pm-6am","53 Calle Aguadilla","Bars","San Juan","PR",NA,1992,"","","4/25/2023 9:32pm","53 Calle Aguadilla ,  San Juan ,  PR",-66.0510466,18.4130485,"53 cll aguadilla, san juan, 00917, puerto rico","Geocoded"
5089,"Numbers","(V),(H)","725-9476 8pm-6am","53 Calle Aguadilla","Bars","San Juan","PR",NA,1992,"","","4/25/2023 9:32pm","53 Calle Aguadilla ,  San Juan ,  PR",-66.0510466,18.4130485,"53 cll aguadilla, san juan, 00917, puerto rico","Geocoded"
5083,"Wind Chimes Guest House","(*),(MW)","727-4153 guesthouse & effeciency apts., cont'l breakfast","53 Calle Taft","Accomodations","San Juan","PR",NA,1992,"","","4/25/2023 9:32pm","53 Calle Taft ,  San Juan ,  PR",-66.0604196,18.4524145,"53 c. taft, san juan, 00911, puerto rico","Geocoded"
4143,"New Jimmy's","(MW),(F)","(Stonewall Pl.) noon-4am, pub-style menu","53 Christopher St.","Bars","Greenwich Village","NY",NA,1992,"","","4/25/2023 9:32pm","53 Christopher St. ,  Greenwich Village ,  NY",-74.0021707,40.7338644,"53 christopher st, new york, ny 10014, usa","Geocoded"
3829,"Members","(*),(D),(V),(E),(PC),(S)","436-9451 8pm-1:30am, from 6pm Fri & Sun","53 Green St.","Bars","Portsmouth","NH",NA,1992,"","","4/25/2023 9:32pm","53 Green St. ,  Portsmouth ,  NH",-70.7617754,43.0797891,"53 green st, portsmouth, nh 03801, usa","Geocoded"
4915,"Den of Pleasure","","299-1779","53 N. Prince St.","Erotica","Lancaster","PA",NA,1992,"","","4/25/2023 9:32pm","53 N. Prince St. ,  Lancaster ,  PA",-76.3077782,40.0391793,"53 n prince st, lancaster, pa 17603, usa","Geocoded"
1261,"City Books","","885-4216","53 Turk St.","Erotica","San Francisco","CA",NA,1992,"","","4/25/2023 9:32pm","53 Turk St. ,  San Francisco ,  CA",-122.4100228,37.7832192,"53 turk st, san francisco, ca 94115, usa","Geocoded"
3215,"Eighteen-O-Seven House","(MW)","487-2173","54 Commercial St.","Accomodations","Provincetown","MA",NA,1992,"","","4/25/2023 9:32pm","54 Commercial St. ,  Provincetown ,  MA",-70.1939293,42.0420664,"historic district, 54 commercial st, provincetown, ma 02657, usa","Geocoded"
1143,"Caribbean Zone","(*),(MX)","541-9465 festive decor, waterfalls and airplanes, cocktails","55 Natoma St.","Restaurants & Cafes","San Francisco","CA",NA,1992,"","","4/25/2023 9:32pm","55 Natoma St. ,  San Francisco ,  CA",-122.3993391,37.7866894,"55 natoma st, san francisco, ca 94105, usa","Geocoded"
3430,"Poppers Pontiac","(*),(S)","(shopping center) 335-1550 2pm-2am, opens noon Thurs, 4pm Sat","55 S. Glenwood St.","Bars","Pontiac","MI",NA,1992,"","","4/25/2023 9:32pm","55 S. Glenwood St. ,  Pontiac ,  MI",-83.2837677,42.6493361,"55 s glenwood ave, pontiac, mi 48342, usa","Geocoded"
51,"Sparky's","(D),(NH),(PC),(V)","Hi NRG dance & cruise bar","55 S. Joachim St.","Bars,Cruising Areas","Mobile","AL",NA,1992,"","","4/25/2023 9:32pm","55 S. Joachim St. ,  Mobile ,  AL",-88.0433197,30.6901695,"55 s joachim st, mobile, al 36602, usa","Geocoded"
1608,"Lost & Found","(*),(D),(V),(F),(S),(YC),(AH)","488-1200 7pm Tues-Sat, Sun T-dance 4pm, Thurs CW, patio","56 'L' St. SE","Bars","Washington","DC",NA,1992,"","","4/25/2023 9:32pm","56 'L' St. SE ,  Washington ,  DC",-77.0066899,38.8776671,"56 l st se, washington, dc 20003, usa","Geocoded"
4185,"Congregation Beth Simchat Torah","","929-9498, 8:30pm Fri","57 Bethune St.","Religious Organization","Greenwich Village","NY",NA,1992,"","","4/25/2023 9:32pm","57 Bethune St. ,  Greenwich Village ,  NY",-74.0087048,40.7365597,"57 bethune st, new york, ny 10014, usa","Geocoded"
3089,"Bobby's","(MW),(D),(E),(F)","248-9520 4pm-1am, dinner nightly","57 Canal St.","Bars","Boston","MA",NA,1992,"","","4/25/2023 9:32pm","57 Canal St. ,  Boston ,  MA",-71.0591222,42.3638828,"57 canal st, boston, ma 02114, usa","Geocoded"
5077,"Casa Blanca Guest House","(*),(MW)","(Condado) 722-7139 gueshouse/bar, 1 blk to beach, near casinos & restaurants","57 Caribe","Accomodations","San Juan","PR",NA,1992,"","","4/25/2023 9:32pm","57 Caribe ,  San Juan ,  PR",-66.0702611,18.454915,"57 caribe st, carolina, san juan 00979, puerto rico","Geocoded"
2992,"Unicorn, The","(MW),(NH),(F),(D),(AH)","879-0645 3pm-1am, late breakfast & Sun brunch","57 Center St.","Bars","Portland","ME",NA,1992,"","","4/25/2023 9:32pm","57 Center St. ,  Portland ,  ME",-70.2574496,43.6552997,"57 center st, portland, me 04101, usa","Geocoded"
6015,"Red Apple Restaurant & Lounge","(MX),(F)","525-5113","57 E. Main","Restaurants & Cafes","Walla Walla","WA",NA,1992,"","","4/25/2023 9:32pm","57 E. Main ,  Walla Walla ,  WA",-118.3378604,46.0679715,"57 e main st, walla walla, wa 99362, usa","Geocoded"
1511,"Grove Book & Video, The","","235-0704","57 West Main","Erotica","Meridien","CT",NA,1992,"","","4/25/2023 9:32pm","57 West Main ,  Meridien ,  CT",-72.80477,41.538473,"57 w main st, meriden, ct 06451, usa","Geocoded"
2993,"Westside","(MX)","773-8223","58 Pine St.","Bars","Portland","ME",NA,1992,"","","4/25/2023 9:32pm","58 Pine St. ,  Portland ,  ME",-70.2684424,43.6510679,"58 pine st, portland, me 04102, usa","Geocoded"
3894,"Murphy's Tavern","(F)","622-9176 6pm-2amSun-Thurs, til 3am Fri & Sat, lunch daily","59 Edison Pl.","Bars","Newark","NJ",NA,1992,"","","4/25/2023 9:32pm","59 Edison Pl. ,  Newark ,  NJ",-74.170064,40.734348,"59 edison pl, newark, nj 07102, usa","Geocoded"
4141,"Marie's Crisis","(*),(MW),(E)","at Sheridan sq. 243-9323 piano bar","59 Grove St.","Bars","Greenwich Village","NY",NA,1992,"","","4/25/2023 9:32pm","59 Grove St. ,  Greenwich Village ,  NY",-74.0033971,40.7332382,"59 grove st, new york, ny 10014, usa","Geocoded"
4371,"O' Henry's","(MW),(D),(NH),(PC)","254-1891 11am-2am, from 1pm Sun","59 Haywood St.","Bars","Asheville","NC",NA,1992,"","","4/25/2023 9:32pm","59 Haywood St. ,  Asheville ,  NC",-82.5549094,35.5963644,"59 haywood st, asheville, nc 28801, usa","Geocoded"
4114,"New York Wrestling Club","","477-4227 national org for wrestlers & fans","59 W. 10th St.","Info Lines & Services","Greenwich Village","NY",NA,1992,"","","4/25/2023 9:32pm","59 W. 10th St. ,  Greenwich Village ,  NY",-73.998016,40.734646,"59 w 10th st, new york, ny 10011, usa","Geocoded"
3151,"World Eye Bookshop","","772-2186 general bookstore with gay/lesbian titles & bulletin board","60 Federal St.","Bookstore/Retail Shops","Greenfield","MA",NA,1992,"","","4/25/2023 9:32pm","60 Federal St. ,  Greenfield ,  MA",-72.5996681,42.5895911,"60 federal st, greenfield, ma 01301, usa","Geocoded"
4156,"Uncle Charlie's","(*),(V),(YC)","255-8787 great video, very preppie","60 Greenwich Ave.","Bars","Greenwich Village","NY",NA,1992,"","","4/25/2023 9:32pm","60 Greenwich Ave. ,  Greenwich Village ,  NY",-74.0005639,40.7360304,"60 greenwich ave, new york, ny 10011, usa","Geocoded"
784,"Cafe 60 North","(MX)","(at Union) 793-9000 7am-10pm","60 N. Raymond","Restaurants & Cafes","Pasadena","CA",NA,1992,"","","4/25/2023 9:32pm","60 N. Raymond ,  Pasadena ,  CA",-118.1487416,34.1468647,"60 n raymond ave, pasadena, ca 91103, usa","Geocoded"
4133,"Duplex","(*),(MX),(E)","255-5438 piano bar, cabaret, 4pm-4am","61 Christopher St.","Bars","Greenwich Village","NY",NA,1992,"","","4/25/2023 9:32pm","61 Christopher St. ,  Greenwich Village ,  NY",-74.0024825,40.7337976,"61 christopher st, new york, ny 10014, usa","Geocoded"
4375,"Malaprop's Bookstore & Cafe","","254-6734 gay/lesbian section, 9am-8pm Mon-Sat, noon-5pm Sun","61 Haywood St.","Bookstore/Retail Shops","Asheville","NC",NA,1992,"","","4/25/2023 9:32pm","61 Haywood St. ,  Asheville ,  NC",-82.5550496,35.5963855,"61 haywood st, asheville, nc 28801, usa","Geocoded"
3130,"Gay Community News","","426-4469","62 Berkeley St.","Publication","Boston","MA",NA,1992,"","","4/25/2023 9:32pm","62 Berkeley St. ,  Boston ,  MA",-71.0709006,42.3464722,"62 berkeley st, boston, ma 02116, usa","Geocoded"
2107,"Atlanta Gay Center","","876-5372 social service center","63 12th St. NE","Info Lines & Services","Atlanta","GA",NA,1992,"","","4/25/2023 9:32pm","63 12th St. NE ,  Atlanta ,  GA",-84.3862063,33.7845728,"63 12th st ne, atlanta, ga 30309, usa","Geocoded"
2344,"Chester Street","(MX),(D)","356-5607 5pm-1am","63 Chester St.","Bars","Champaign/Urbana","IL",NA,1992,"","","4/25/2023 9:32pm","63 Chester St. ,  Champaign/Urbana ,  IL",-88.2395009,40.1155436,"63 e chester st, champaign, il 61820, usa","Geocoded"
2020,"Space Age Books","","773-7660","63 Ocean Blvd.","Erotica","Satellite Beach","FL",NA,1992,"","","4/25/2023 9:32pm","63 Ocean Blvd. ,  Satellite Beach ,  FL",-80.5982197,28.2087901,"63 ocean blvd, satellite beach, fl 32937, usa","Geocoded"
4127,"Barbary Coast","(NH)","675-0385 8am-4am","64 7th Ave.","Bars","Greenwich Village","NY",NA,1992,"","","4/25/2023 9:32pm","64 7th Ave. ,  Greenwich Village ,  NY",-73.9997225,40.7388673,"64 7th ave, new york, ny 10011, usa","Geocoded"
1146,"Half Shell","(*),(MX)","552-7677 seafood, 11:30am-10:30pm Mon-Thurs, til 11pm Fri & Sat","64 Rausch St.","Restaurants & Cafes","San Francisco","CA",NA,1992,"","","4/25/2023 9:32pm","64 Rausch St. ,  San Francisco ,  CA",-122.4094478,37.7759271,"64 rausch st, san francisco, ca 94103, usa","Geocoded"
2970,"Grenadier Motor Inn","(MX)","646-3432 April-October only","64 S. Main St.","Accomodations","Ogunquit","ME",NA,1992,"","","4/25/2023 9:32pm","64 S. Main St. ,  Ogunquit ,  ME",-70.601725,43.2419694,"64 main st, ogunquit, me 03907, usa","Geocoded"
4537,"MCC New Spirit","","(Church of Our Savior) 241-8216, 7pm Sun","65 E. Hollister Ave.","Religious Organization","Cincinnati","OH",NA,1992,"","","4/25/2023 9:32pm","65 E. Hollister Ave. ,  Cincinnati ,  OH",-84.5101447,39.1253931,"65 e hollister st, cincinnati, oh 45219, usa","Geocoded"
4251,"Me Again Tours","(IGTA)","852-2327","66 Court St.","Travel & Tour Operators","Brooklyn","NY",NA,1992,"","","4/25/2023 9:32pm","66 Court St. ,  Brooklyn ,  NY",NA,NA,"NA","Geocoded"
4739,"Playbill Club","(MX),(D),(E)","(Cook's Tavern) 488-4626 2pm-2am, dancing Thurs-Sat","66 E. Main St.","Bars","Ashland","OR",NA,1992,"","","4/25/2023 9:32pm","66 E. Main St. ,  Ashland ,  OR",-122.7142789,42.1967226,"66 e main st, ashland, or 97520, usa","Geocoded"
1478,"Triangles Cafe","(*),(MW),(D),(S)","Rte. 7, 798-6996 outdoor patio, live DJ, call for hours","66 Sugar Hollow Rd","Bars","Danbury","CT",NA,1992,"","","4/25/2023 9:32pm","66 Sugar Hollow Rd ,  Danbury ,  CT",-73.4710598,41.3351753,"66 sugar hollow rd, danbury, ct 06810, usa","Geocoded"
1265,"Turk Street News","","885-2040","66 Turk St.","Erotica","San Francisco","CA",NA,1992,"","","4/25/2023 9:32pm","66 Turk St. ,  San Francisco ,  CA",-122.4102983,37.7835248,"66 turk st, san francisco, ca 94102, usa","Geocoded"
4374,"Downtown Books & News","","253-8654 smal gay/lesbian section, 9am-8pm Mon-Sat, noon-5pm Sun","67 N. Lexington Ave.","Bookstore/Retail Shops","Asheville","NC",NA,1992,"","","4/25/2023 9:32pm","67 N. Lexington Ave. ,  Asheville ,  NC",-82.5536775,35.5971105,"67 n lexington ave, asheville, nc 28801, usa","Geocoded"
3389,"Club 67 Promenade Bar","(*),(MW),(S),(D),(F)","454-8003 2pm-2am","67 S. Division Ave.","Bars","Grand Rapids","MI",NA,1992,"","","4/25/2023 9:32pm","67 S. Division Ave. ,  Grand Rapids ,  MI",-85.6682172,42.9612836,"67 division ave n, grand rapids, mi 49503, usa","Geocoded"
771,"Trio's","(MX),(E)","321-0477 full bar, continental cuisine","67-399 Hgwy 111","Restaurants & Cafes","Palm Springs","CA",NA,1992,"","","4/25/2023 9:32pm","67-399 Hgwy 111 ,  Palm Springs ,  CA",-116.4476968,33.7710933,"69-825 ca-111 #67, rancho mirage, ca 92270, usa","Geocoded"
730,"Desert Palms Inn","(*),(SW),(F)","(Cathedral City) 324-5100 cocktails, jacuzzi, open year round","67-580 E. Palm Canyon Dr.","Accomodations","Palm Springs","CA",NA,1992,"","","5/18/2023 8:31am","67-580 E. Palm Canyon Dr. ,  Palm Springs ,  CA",-116.484138,33.7895979,"67580 e palm canyon dr, cathedral city, ca 92234, usa","Geocoded"
748,"Villa, The","(*),(SW)","(Cathedral City) 328-7211 indiv bungalows, sauna & jacuzzi, open year round, women welcome","67-670 Carey Rd.","Accomodations","Palm Springs","CA",NA,1992,"","","5/18/2023 8:31am","67-670 Carey Rd. ,  Palm Springs ,  CA",-116.4813021,33.7927697,"67670 carey rd, cathedral city, ca 92234, usa","Geocoded"
763,"Maria's Italian Kitchen","(MX),(BW)","(Cathedral City) 328-4378 clsd Mon, 11am-2:30pm, 5:30-9:30pm Tues-Sat, 5:30-9:30pm Sun","67-778 Hwy. 111","Restaurants & Cafes","Palm Springs","CA",NA,1992,"","","5/18/2023 8:31am","67-778 Hwy. 111 ,  Palm Springs ,  CA",-116.4790538,33.7867542,"67778 ca-111, cathedral city, ca 92234, usa","Geocoded"
756,"Rocks","(*),(MW),(D),(F)","(Cathedral City) 324-0688 patio, Sun T-dance, 2pm-2am","67-901 Hwy. 111","Bars","Palm Springs","CA",NA,1992,"","","5/18/2023 8:31am","67-901 Hwy. 111 ,  Palm Springs ,  CA",-116.4800921,33.7882527,"67 ca-111, cathedral city, ca 92234, usa","Geocoded"
772,"Wild Goose","(MX),(E)","328-5775 continental/wild game, from 5:30pm, cocktails","67-938 Hwy. 111","Restaurants & Cafes","Palm Springs","CA",NA,1992,"","","4/25/2023 9:32pm","67-938 Hwy. 111 ,  Palm Springs ,  CA",-116.4800921,33.7882527,"67 ca-111, cathedral city, ca 92234, usa","Geocoded"
4126,"Bar, The","(NH)","674-9714 1pm-4am","68 2nd Ave.","Bars","Greenwich Village","NY",NA,1992,"","","4/25/2023 9:32pm","68 2nd Ave. ,  Greenwich Village ,  NY",-73.9893836,40.7259843,"68 2nd ave, new york, ny 10003, usa","Geocoded"
3205,"Carl's Guest House","(*),(N)","487-1650 B & B, year round","68 Bradford St.","Accomodations","Provincetown","MA",NA,1992,"","","4/25/2023 9:32pm","68 Bradford St. ,  Provincetown ,  MA",-70.1908247,42.0493148,"historic district, 68 bradford st, provincetown, ma 02657, usa","Geocoded"
777,"World Wide Book Store","","321-1313","68-300 Ramon Rd.","Erotica","Palm Springs","CA",NA,1992,"","","4/25/2023 9:32pm","68-300 Ramon Rd. ,  Palm Springs ,  CA",-116.469686,33.8163684,"68300 e ramon rd, cathedral city, ca 92234, usa","Geocoded"
760,"Cattails","(*),(MX)","(Cathedral City) 324-8263 open 6pm, clsd Tues, classical French","68-369 Hwy. 111","Restaurants & Cafes","Palm Springs","CA",NA,1992,"","","5/18/2023 8:31am","68-369 Hwy. 111 ,  Palm Springs ,  CA",-116.4692643,33.7803432,"68369 ca-111, cathedral city, ca 92234, usa","Geocoded"
751,"C.C. Construction Co.","(*),(D),(LV),(YC)","324-4241 patio, 5pm-2am","68-449 Perez Rd.","Bars","Palm Springs","CA",NA,1992,"","","4/25/2023 9:32pm","68-449 Perez Rd. ,  Palm Springs ,  CA",-116.4678497,33.7841988,"68449 perez rd, cathedral city, ca 92234, usa","Geocoded"
775,"Star Magazine","","(Cathedral City) 328-5511 every other week magazine","68-469 Hwy. 111","Publication","Palm Springs","CA",NA,1992,"","","5/18/2023 8:31am","68-469 Hwy. 111 ,  Palm Springs ,  CA",-116.469668,33.7810433,"68 ca-111, cathedral city, ca 92234, usa","Geocoded"
761,"Club One Eleven","(MW),(E)","(Cathedral City) 321-5157 10am-1am, bar & restaurant, dinners only, cont'l cuisine","68-599 Hwy. 111","Restaurants & Cafes","Palm Springs","CA",NA,1992,"","","5/18/2023 8:31am","68-599 Hwy. 111 ,  Palm Springs ,  CA",-116.469668,33.7810433,"68 ca-111, cathedral city, ca 92234, usa","Geocoded"
757,"Shades","(*),(D),(NH),(E),(V),(YC),(P)","(Cathedral City) 321-9792 3pm-2am, noon-2am Sat & Sun","68-657 Hwy 111","Bars","Palm Springs","CA",NA,1992,"","","5/18/2023 8:32am","68-657 Hwy 111 ,  Palm Springs ,  CA",-116.469668,33.7810433,"68 ca-111, cathedral city, ca 92234, usa","Geocoded"
770,"Shame on the Moon","(*),(MX)","(Cathedral City) 324-5515 continental cuisine, 6-10:30pm, clsd Mon","68-805 Hwy. 111","Restaurants & Cafes","Palm Springs","CA",NA,1992,"","","5/18/2023 8:32am","68-805 Hwy. 111 ,  Palm Springs ,  CA",-116.469668,33.7810433,"68 ca-111, cathedral city, ca 92234, usa","Geocoded"
764,"Paoli's Pizzeria & Pasta House","(MX)","(Cathedral City) 324-3737 clsd Mon, call for hours","68-977 Hwy. 111","Restaurants & Cafes","Palm Springs","CA",NA,1992,"","","5/18/2023 8:32am","68-977 Hwy. 111 ,  Palm Springs ,  CA",-116.469668,33.7810433,"68 ca-111, cathedral city, ca 92234, usa","Geocoded"
752,"Daddy Warbucks","(*),(S),(E),(D),(YC)","(Cathedral City) 324-1022 Sun night whipped cream wrestling, 5pm-2am","68-981 Hwy 11","Bars","Palm Springs","CA",NA,1992,"","","5/18/2023 8:32am","68-981 Hwy 11 ,  Palm Springs ,  CA",-116.5452921,33.8302961,"palm springs, ca, usa","Geocoded"
3100,"Luxor","(*),(V),(F)","423-6969 4pm-1am","69 Church","Bars","Boston","MA",NA,1992,"","","4/25/2023 9:32pm","69 Church ,  Boston ,  MA",NA,NA,"NA","Geocoded"
5119,"Courtney's Lounge","","331-2291 noon-1am, piano bar","69 Union St.","Bars","Providence","RI",NA,1992,"","","4/25/2023 9:32pm","69 Union St. ,  Providence ,  RI",-71.414383,41.8237949,"69 union st, providence, ri 02903, usa","Geocoded"
4490,"Innerbelt","(D),(V),(S)","253-5700 8pm-3am","70 N. Howard St.","Bars","Akron","OH",NA,1992,"","","4/25/2023 9:32pm","70 N. Howard St. ,  Akron ,  OH",-81.5173383,41.0874173,"70 n howard st, akron, oh 44308, usa","Geocoded"
2969,"Admiral's Inn","(MX),(SW)","646-7093 year-round","70 S. Main St.","Accomodations","Ogunquit","ME",NA,1992,"","","4/25/2023 9:32pm","70 S. Main St. ,  Ogunquit ,  ME",-70.6021314,43.2425376,"70 main st, ogunquit, me 03907, usa","Geocoded"
4067,"Martini's","(MX),(YC)","798-9809 9am-4am","70 South St.","Bars","Glens Falls","NY",NA,1992,"","","4/25/2023 9:32pm","70 South St. ,  Glens Falls ,  NY",-73.6472973,43.3088062,"70 south st, glens falls, ny 12801, usa","Geocoded"
5734,"Everyone's Books","","254-8160 general bookstore, gay section","71 Elliott St.","Bookstore/Retail Shops","Brattlebro","VT",NA,1992,"","","4/25/2023 9:32pm","71 Elliott St. ,  Brattlebro ,  VT",-72.5596999,42.8520342,"71 elliot st, brattleboro, vt 05301, usa","Geocoded"
737,"Hideaway Resort","(*),(MX),(SW)","(Rancho Mirage) 346-4720 weekly/monthly rental only, kitchens, hot spa, open year round","71-472 San Jacinto Dr.","Accomodations","Palm Springs","CA",NA,1992,"","","5/18/2023 8:33am","71-472 San Jacinto Dr. ,  Palm Springs ,  CA",-116.4158507,33.7471474,"71472 san jacinto dr, rancho mirage, ca 92270, usa","Geocoded"
4600,"Grapevine Cafe","(MX)","221-VINE 4pm-1am Tues-Sat, clsd Sun & Mon","73 E. Gay St.","Restaurants & Cafes","Columbus","OH",NA,1992,"","","4/25/2023 9:32pm","73 E. Gay St. ,  Columbus ,  OH",-82.9987232,39.9636347,"73 e gay st, columbus, oh 43215, usa","Geocoded"
4264,"Magic Touch","(*),(M),(D),(S)","Jackson Heights 429-8605 Latin night Wed, 4pm-4am","73-13 37th Ave.","Bars","Queens","NY",NA,1992,"","","5/18/2023 8:33am","73-13 37th Ave. ,  Queens ,  NY",-73.892497,40.7491338,"73-13 37th ave, jackson heights, ny 11372, usa","Geocoded"
769,"Ron's in the Desert","(MX),(E)","Palm Desert 773-3766 cont'l, lunch 11am-3pm, dinner from 5:30 pm","73-703 Hwy. 111","Restaurants & Cafes","Palm Springs","CA",NA,1992,"","","5/18/2023 8:33am","73-703 Hwy. 111 ,  Palm Springs ,  CA",-116.4476968,33.7710933,"69-825 ca-111 #73, rancho mirage, ca 92270, usa","Geocoded"
3495,"Fresh Expression's","","Mpls. 339-2705 7am-9pm Mon-Fri, 8am-6pm Sat, 11am-5pm Sun","74 S. Seventh St.","Restaurants & Cafes","Minneapolis","MN",NA,1992,"","","4/25/2023 9:32pm","74 S. Seventh St. ,  Minneapolis ,  MN",-93.2714493,44.9767115,"74 s 7th st, minneapolis, mn 55402, usa","Geocoded"
5137,"Video Expo","","274-4477","75 Empire St.","Erotica","Providence","RI",NA,1992,"","","4/25/2023 9:32pm","75 Empire St. ,  Providence ,  RI",-71.4154442,41.821332,"75 empire st, providence, ri 02903, usa","Geocoded"
3121,"City Travel","(IGTA)","426-0001","75 Kneeland St.","Bookstore/Retail Shops","Boston","MA",NA,1992,"","","4/25/2023 9:32pm","75 Kneeland St. ,  Boston ,  MA",-71.0606782,42.3500947,"75 kneeland st, boston, ma 02111, usa","Geocoded"
1900,"Switchboard of Miami","","358-4357 24hr, info & referrals in Dade County","75 S.W. 8th St.","Info Lines & Services","Miami","FL",NA,1992,"","","4/25/2023 9:32pm","75 S.W. 8th St. ,  Miami ,  FL",-80.194782,25.766648,"75 sw 8th st, miami, fl 33130, usa","Geocoded"
3122,"Forex Travel","","482-2900","76 Arlington St.","Bookstore/Retail Shops","Boston","MA",NA,1992,"","","4/25/2023 9:32pm","76 Arlington St. ,  Boston ,  MA",-71.0698695,42.3504872,"76 arlington st, boston, ma 02116, usa","Geocoded"
4004,"Waterworks Pub","(D)","465-9079 4pm-4am Mon-Thurs, from 3pm Fri-Sun","76 Central Ave.","Bars","Albany","NY",NA,1992,"","","4/25/2023 9:32pm","76 Central Ave. ,  Albany ,  NY",NA,NA,"NA","Geocoded"
4128,"Boots & Saddle","(LV),(L)","929-9684 8am-4am","76 Christopher St.","Bars","Greenwich Village","NY",NA,1992,"","","4/25/2023 9:32pm","76 Christopher St. ,  Greenwich Village ,  NY",-74.0034034,40.7334603,"76 christopher st, new york, ny 10014, usa","Geocoded"
1531,"New London People's Forum","","(St. James Episcopal Church) 447-3410 mtg 7:30pm Wed, social support group","76 Federal","Info Lines & Services","New London","CT",NA,1992,"","","4/25/2023 9:32pm","76 Federal ,  New London ,  CT",-72.0989862,41.3570375,"76 federal st, new london, ct 06320, usa","Geocoded"
3388,"Carousel, II","(*),(D),(S),(V)","454-5800 noon-2am Mon-Sat, 2pm-2am Sun","76 S. Division St.","Bars","Grand Rapids","MI",NA,1992,"","","4/25/2023 9:32pm","76 S. Division St. ,  Grand Rapids ,  MI",-85.6675456,42.9610288,"76 division st, grand rapids, mi 49503, usa","Geocoded"
3919,"Feather's Disco","(*),(D),(YC),(V),(S)","342-6410 7pm-2am","77 Kindermack Rd.","Bars","River Ridge","NJ",NA,1992,"","","4/25/2023 9:32pm","77 Kindermack Rd. ,  River Ridge ,  NJ",-74.0352679,41.0215317,"77 kinderkamack rd, woodcliff lake, nj 07677, usa","Geocoded"
4487,"Adams Street Bar","(*),(D),(LV)","434-9794 4:30pm-2:30am Mon-Fri, 9pm-2:30am Sat, midnight-2:30am Sun","77 N. Adams St.","Bars","Akron","OH",NA,1992,"","","4/25/2023 9:32pm","77 N. Adams St. ,  Akron ,  OH",-81.4980483,41.0799446,"77 n adams st, akron, oh 44304, usa","Geocoded"
4263,"Love Boat","(NH),(S)","Elmhurst Latino","77-02 Broadway","Bars","Queens","NY",NA,1992,"","","5/18/2023 8:33am","77-02 Broadway ,  Queens ,  NY",-73.8881686,40.7451386,"7702 broadway, queens, ny 11373, usa","Geocoded"
4260,"Friends Tavern","(NH)","Jackson Heights 397-7256 4pm-4am","78-11 Roosevelt Ave.","Bars","Queens","NY",NA,1992,"","","5/18/2023 8:33am","78-11 Roosevelt Ave. ,  Queens ,  NY",-73.8871603,40.7474855,"78-11 roosevelt ave, queens, ny 11372, usa","Geocoded"
4261,"Haliquin Bar","(MW),(D),(S)","Jackson Heights Latino","78-11 Roosevelt","Bars","Queens","NY",NA,1992,"","","5/18/2023 8:33am","78-11 Roosevelt ,  Queens ,  NY",-73.8871603,40.7474855,"78-11 roosevelt ave, queens, ny 11372, usa","Geocoded"
768,"Robi","(MX),(BW),(E)","La Quinta 564-0544 continental cuisine, open 7pm, clsd Mon","78-085 Avenida La Fonda","Restaurants & Cafes","Palm Springs","CA",NA,1992,"","","5/18/2023 8:33am","78-085 Avenida La Fonda ,  Palm Springs ,  CA",NA,NA,"NA","Geocoded"
3099,"Jacque's","(S)","426-8902 11am-midnight, drag bar","79 Broadway","Bars","Boston","MA",NA,1992,"","","4/25/2023 9:32pm","79 Broadway ,  Boston ,  MA",-71.0553881,42.3414796,"79 w broadway, boston, ma 02127, usa","Geocoded"
5095,"Village, The","(MW),(D),(V),(YC)","725-3221/721-7420","80 Avenida Condado","Bars","San Juan","PR",NA,1992,"","","4/25/2023 9:32pm","80 Avenida Condado ,  San Juan ,  PR",-66.0733694,18.4537053,"80 condado ave, san juan, 00907, puerto rico","Geocoded"
3239,"Sea Drift Inn","","487-3686 year round","80 Bradford St.","Accomodations","Provincetown","MA",NA,1992,"","","4/25/2023 9:32pm","80 Bradford St. ,  Provincetown ,  MA",-70.190069,42.0501932,"80 bradford st, provincetown, ma 02657, usa","Geocoded"
4142,"Monster, The","(*),(D),(E)","924-3557 disco downstairs, piano bar upstairs","80 Grove St.","Bars","Greenwich Village","NY",NA,1992,"","","4/25/2023 9:32pm","80 Grove St. ,  Greenwich Village ,  NY",-74.0023353,40.7333573,"80 grove st, new york, ny 10014, usa","Geocoded"
5030,"Adult World","","(Rte. 309) 538-1522","80 S. Westend Blvd.","Erotica","Quakerstown","PA",NA,1992,"","","4/25/2023 9:32pm","80 S. Westend Blvd. ,  Quakerstown ,  PA",-75.3572273,40.4412202,"80 s west end blvd, quakertown, pa 18951, usa","Geocoded"
2945,"Papa Joes's","(*),(MW),(D),(CW)","623-4041 7pm-1am Tues-Sat","80 Water St.","Bars","Augusta","ME",NA,1992,"","","4/25/2023 9:32pm","80 Water St. ,  Augusta ,  ME",-69.7735956,44.3191249,"80 water st, augusta, me 04330, usa","Geocoded"
1494,"Warehouse, The","(*),(D),(YC)","#4, 951-0500 8pm-1am Wed, Thurs & Sun","81 Pope Park Hwy.","Bars","Hartford","CT",NA,1992,"","","4/25/2023 9:32pm","81 Pope Park Hwy. ,  Hartford ,  CT",-72.7027156,41.7554941,"81 pope park hwy, hartford, ct 06106, usa","Geocoded"
3515,"Fantasy House","","333-6313","81 S. 10th St.","Erotica","Minneapolis","MN",NA,1992,"","","4/25/2023 9:32pm","81 S. 10th St. ,  Minneapolis ,  MN",-93.2773503,44.975007,"81 s 10th st, minneapolis, mn 55403, usa","Geocoded"
4033,"Book-And","","856-8936","83 W. Chippewa","Erotica","Buffalo","NY",NA,1992,"","","4/25/2023 9:32pm","83 W. Chippewa ,  Buffalo ,  NY",-78.875971,42.8908405,"83 w chippewa st, buffalo, ny 14202, usa","Geocoded"
4173,"Alternate Card & Gift Shop","","645-8966","85 Christopher St.","Bookstore/Retail Shops","Greenwich Village","NY",NA,1992,"","","4/25/2023 9:32pm","85 Christopher St. ,  Greenwich Village ,  NY",-74.0038693,40.7336419,"85 christopher st, new york, ny 10014, usa","Geocoded"
1521,"Kurt's New Haven","","624-0008 6pm-1am Mon-Thurs, 5pm-4am Fri, from 6pm Sat, 4pm-1am Sun","85 St. John St.","Bars","New Haven","CT",NA,1992,"","","4/25/2023 9:32pm","85 St. John St. ,  New Haven ,  CT",-72.9121941,41.3073349,"85 st john st, new haven, ct 06511, usa","Geocoded"
4175,"Loft","","691-2334, 11am-midnight","89 Christopher St.","Bookstore/Retail Shops","Greenwich Village","NY",NA,1992,"","","4/25/2023 9:32pm","89 Christopher St. ,  Greenwich Village ,  NY",-74.004053,40.7336293,"89 christopher st, new york, ny 10014, usa","Geocoded"
3133,"Mirror","","Ste. 160, 247-9141","89 Massachussetts Ave.","Publication","Boston","MA",NA,1992,"","","4/25/2023 9:32pm","89 Massachussetts Ave. ,  Boston ,  MA",-71.0883573,42.3485788,"89 massachusetts ave, boston, ma 02115, usa","Geocoded"
2140,"Velvet","(MX),(D)","681-9936 theme nights, Mon mostly gay men, clsd Tues & Wed","89 Park Pl.","Bars","Atlanta","GA",NA,1992,"","","4/25/2023 9:32pm","89 Park Pl. ,  Atlanta ,  GA",-84.38771,33.7572586,"89 park pl ne, atlanta, ga 30303, usa","Geocoded"
3218,"Fairbanks Inn","(*),(MW)","487-0386 B & B, year round","90 Bradford St.","Accomodations","Provincetown","MA",NA,1992,"","","4/25/2023 9:32pm","90 Bradford St. ,  Provincetown ,  MA",-70.1889527,42.0508118,"historic district, 90 bradford st, provincetown, ma 02657, usa","Geocoded"
4001,"Last Straw","(AH)","9pm-6am daily, juice bar","90 Central Ave.","Bars","Albany","NY",NA,1992,"","","4/25/2023 9:32pm","90 Central Ave. ,  Albany ,  NY",NA,NA,"NA","Geocoded"
1438,"Metro Travel","(IGTA)","333-6777","90 Madison Ste. 101","Travel & Tour Operators","Denver","CO",NA,1992,"","","4/25/2023 9:32pm","90 Madison Ste. 101 ,  Denver ,  CO",-104.9458745,39.7174476,"90 madison st #101, denver, co 80206, usa","Geocoded"
2984,"Gay/Straight/Bisexual Rap","","(U. of S. Maine) 874-6596 5:30pm Wed","92 Bedford","Info Lines & Services","Portland","ME",NA,1992,"","","4/25/2023 9:32pm","92 Bedford ,  Portland ,  ME",-70.275711,43.6613973,"92 bedford st, portland, me 04102, usa","Geocoded"
4166,"Nightbird","(MX),(YC)","254-4747 2pm-5am","92 Second Ave.","Restaurants & Cafes","Greenwich Village","NY",NA,1992,"","","4/25/2023 9:32pm","92 Second Ave. ,  Greenwich Village ,  NY",-73.9885382,40.7269233,"92 2nd ave, new york, ny 10003, usa","Geocoded"
5250,"Reflections","(D),(S)","272-1525 8pm-3am, til 5am Fri & Sat, clsd Mon","94 N. Avalon","Bars","Memphis","TN",NA,1992,"","","4/25/2023 9:32pm","94 N. Avalon ,  Memphis ,  TN",-90.0067204,35.1405105,"94 n avalon st, memphis, tn 38104, usa","Geocoded"
4094,"Eulenspiegel Society","","633-8376 S/M group 7:30 Tues","94 St. Marks Pl.","Info Lines & Services","New York City","NY",NA,1992,"","","4/25/2023 9:32pm","94 St. Marks Pl. ,  New York City ,  NY",-73.9849712,40.7272968,"94 st marks pl, new york, ny 10009, usa","Geocoded"
5118,"Club In Town","","621-8739 opens at noon, piano bar","95 Eddy St.","Bars","Providence","RI",NA,1992,"","","4/25/2023 9:32pm","95 Eddy St. ,  Providence ,  RI",-71.412163,41.8229385,"95 eddy st, providence, ri 02903, usa","Geocoded"
4167,"Pennyfeathers","","242-9567","95-7th Ave. S.","Restaurants & Cafes","Greenwich Village","NY",NA,1992,"","","4/25/2023 9:32pm","95-7th Ave. S. ,  Greenwich Village ,  NY",-74.0029149,40.7329926,"95 7th ave s, new york, ny 10014, usa","Geocoded"
3203,"Captain Lysander's Inn","(MX)","487-2253 elegant captain's guest house","96 Commercial St.","Accomodations","Provincetown","MA",NA,1992,"","","4/25/2023 9:32pm","96 Commercial St. ,  Provincetown ,  MA",-70.1923945,42.0445451,"historic district, 96 commercial st, provincetown, ma 02657, usa","Geocoded"
3127,"Lutherans Concerned, New England","","#1, 536-3788 call for time & location","96 Hemenway","Religious Organization","Boston","MA",NA,1992,"","","4/25/2023 9:32pm","96 Hemenway ,  Boston ,  MA",-71.0922104,42.3394829,"huntington-hemenway mall, 96 hemenway st, boston, ma 02115, usa","Geocoded"
3199,"Bouy, The","","487-3082 B & B","97 Bradford St.","Accomodations","Provincetown","MA",NA,1992,"","","4/25/2023 9:32pm","97 Bradford St. ,  Provincetown ,  MA",-70.1885806,42.0507079,"historic district, 97 bradford st, provincetown, ma 02657, usa","Geocoded"
4162,"David's Potbelly","(MX)","243-9614","98 Christopher St.","Restaurants & Cafes","Greenwich Village","NY",NA,1992,"","","4/25/2023 9:32pm","98 Christopher St. ,  Greenwich Village ,  NY",-74.004656,40.7331669,"98 christopher st, new york, ny 10014, usa","Geocoded"
5127,"Rue de L'espoir","(*),(MX)","751-8890 11:30-2:30 lunch, 5pm dinner Tues-Sun, full bar","99 Hope St.","Restaurants & Cafes","Providence","RI",NA,1992,"","","4/25/2023 9:32pm","99 Hope St. ,  Providence ,  RI",-71.3964184,41.8220465,"99 hope st, providence, ri 02906, usa","Geocoded"
1285,"MCC Maranatha","","(Christ Lutheran Church) 481-9720, 6pm Sun","100 Hacienda","Bars","San Lorenzo","CA",NA,1992,"","","4/25/2023 9:32pm","100 Hacienda ,  San Lorenzo ,  CA",-122.1159182,37.6769382,"100 hacienda ave, san lorenzo, ca 94580, usa","Geocoded"
1988,"La Royale Lounge & Liquor Store","(*),(MW)","763-9110 3pm-3am Mon-Thurs, 4pm-4am Fri & Sat, 4pm-12:30am Sun","100 Harrison","Bars","Panama City","FL",NA,1992,"","","4/25/2023 9:32pm","100 Harrison ,  Panama City ,  FL",-85.6579362,30.1942936,"100 harrison pl, panama city, fl 32405, usa","Geocoded"
4081,"Sneakers","(MW),(D),(YC),(LV)","484-8816 2pm-2am","100 Harrison","Bars","Jamestown","NY",NA,1992,"","","4/25/2023 9:32pm","100 Harrison ,  Jamestown ,  NY",-79.2353765,42.0936911,"100 harrison st, jamestown, ny 14701, usa","Geocoded"
3506,"Lutheran's Concerned","","St. Paul 224-3371, 7:30 3rd Fri","100 N. Oxford","Religious Organization","St. Paul","MN",NA,1992,"","","8/7/2023 11:22am","100 N. Oxford ,  St. Paul ,  MN",NA,NA,"NA","Geocoded"
