"title","description","streetaddress","city","state","amenityfeatures","unclear_address","Year","type","notes","full.address","lon","lat","geoAddress"
"Bricktown Brewery Restaurant","232-2739 10am-midnight, til 2am Fri-Sat","1 N Oklahoma","Oklahoma City","OK","(D)",NA,1998,"Restaurants","","1 N Oklahoma, Oklahoma City, OK",-97.5108069,35.4667332,"1 n oklahoma ave, oklahoma city, ok 73104, usa"
"Grownups","862-9304 gay-owned/run","2 E Mechanic St","New Hope","PA","(*),(NS)",NA,1998,"Erotica","","2 E Mechanic St, New Hope, PA",-74.9504308,40.3619975,"2 e mechanic st, new hope, pa 18938, usa"
"The Arcade","722-5656 9:30pm-?, clsd Mon-Wed","5 Liberty St","Charleston","SC","(D),(A),(K),(S),(YC),(WC),(*),(M)",NA,1998,"Bars & Nightclubs","","5 Liberty St, Charleston, SC",-79.9350537,32.782803,"beatty center for the school of business, 5 liberty st, charleston, sc 29401, usa"
"Ampersand Guesthouse","487-0959/(800) 574-9645","6 Cottage St","Provincetown","MA","(MW)",NA,1998,"Accommodations","","6 Cottage St, Provincetown, MA",-70.1930651,42.0440834,"historic district, 6 cottage st, provincetown, ma 02657, usa"
"Charleston Columns","722-7341","8 Vanderhorst St","Charleston","SC","(MW),(NS)",NA,1998,"Accommodations","","8 Vanderhorst St, Charleston, SC",-79.9380484,32.787303,"8 vanderhorst st, charleston, sc 29403, usa"
"Hydrangea House Inn","846-4435/(800) 945-4667 full brkfst, nr. beach, see ad page 587","16 Bellevue Ave","Newport","RI","(*),(GF)",NA,1998,"Accommodations","","16 Bellevue Ave, Newport, RI",-71.3092265,41.4874903,"16 bellevue ave, newport, ri 02840, usa"
"Pasto","779-1937 5pm-9:30pm, til 10pm Fri-Sat, Italian","19 E Aspen","Flagstaff","AZ","",NA,1998,"Restaurants","","19 E Aspen, Flagstaff, AZ",-111.6481046,35.1981305,"19 e aspen ave, flagstaff, az 86001, usa"
"Boca","Ybor City  Lunch & dinner, 4 course Sun brunch, 2 full bars","20th & 7th ave","Ybor City","FL","",NA,1998,"Restaurants","Listed under ""Tampa""","20th & 7th ave, Ybor City, FL",NA,NA,NA
"Charlie's","779-1919 noon-lam, Sun brunch, patio","23 N Leroux","Flagstaff","AZ","(GF),(F),(WC)",NA,1998,"Bars & Nightclubs","","23 N Leroux, Flagstaff, AZ",-111.6490426,35.1984359,"23 n leroux st, flagstaff, az 86001, usa"
"Mother’s","862-5270 9am-10pm","34 N Main St","New Hope","PA","(*),(NS)",NA,1998,"Restaurants","","34 N Main St, New Hope, PA",-74.9516122,40.3654945,"34 n main st, new hope, pa 18938, usa"
"The Khyber","238-5888 Wed gay night","56 S 2nd St","Philadelphia","PA","(GF),(F),(E)",NA,1998,"Bars & Nightclubs","","56 S 2nd St, Philadelphia, PA",-75.144226,39.948643,"56 s 2nd st, philadelphia, pa 19106, usa"
"65 Radcliff Street","577-6183","65 Radcliff St","Charleston","SC","(MW)",NA,1998,"Accommodations","","65 Radcliff St, Charleston, SC",-79.9438297,32.7873842,"65 radcliffe st, charleston, sc 29403, usa"
"Integrity","(Calvary Episcopal Church) 525-6602 3rd Tue 6pm","102 N Second St","Memphis","TN","(*),(NS)",NA,1998,"Spiritual Groups","","102 N Second St, Memphis, TN",-90.050123,35.1472895,"102 n 2nd st, memphis, tn 38103, usa"
"Havana","862-9897 11am-midnight, bar til 2am","105 S Main St","New Hope","PA","(E)",NA,1998,"Restaurants","","105 S Main St, New Hope, PA",-74.9504351,40.3609614,"105 s main st, new hope, pa 18938, usa"
"501 Club","274-8655 noon-3am, til 6am Fri-Sat, patio; also cruise bar","111 N Claybrook","Memphis","TN","(M),(D),(F),(S),(WC)",NA,1998,"Bars & Nightclubs","","111 N Claybrook, Memphis, TN",-90.0180475,35.1421709,"111 n claybrook st, memphis, tn 38104, usa"
"Aradia Books","779-3817 10:30am-5:30pm, clsd Sun, some gay men's titles","116 W Cottage","Flagstaff","AZ","",NA,1998,"Bookstores & Retail Shops","","116 W Cottage, Flagstaff, AZ",-111.6517029,35.1962402,"116 w cottage ave, flagstaff, az 86001, usa"
"Pekin Noodle Parlor","5pm-9pm, clsd Tue","117 S Main","Butte","MT","",NA,1998,"Restaurants","","117 S Main, Butte, MT",-112.5358696,46.0117131,"117 s main st, butte, mt 59701, usa"
"Club Body Center","735-9568 24hrs","120 S 13th St","Philadelphia","PA","(MO),(PC)",NA,1998,"Men's Clubs","","120 S 13th St, Philadelphia, PA",-75.1621831,39.9497053,"120 s 13th st, philadelphia, pa 19107, usa"
"Yukon Trading Co","274-6620 5pm-1am, til 2am Fri-Sat, uniform, bear bar","124 Snow St","Providence","RI","(D),(L),(*),(M)",NA,1998,"Bars & Nightclubs","","124 Snow St, Providence, RI",-71.4135527,41.8211684,"124 snow st, providence, ri 02903, usa"
"Latham Hotel","563-7474/(800) 528-4261","135 S 17th St","Philadelphia","PA","(GF)",NA,1998,"Accommodations","","135 S 17th St, Philadelphia, PA",-75.1689025,39.9501583,"135 s 17th st, philadelphia, pa 19102, usa"
"Mickey's","723-7121 24hrs","137 Market St","Charleston","SC","(*)",NA,1998,"Restaurants","","137 Market St, Charleston, SC",-79.9326481,32.7804828,"137 market st, charleston, sc 29401, usa"
"Down City Diner","331-9217 lunch & dinner, popular Sun brunch (very gay), full bar","151 Weybosset St","Providence","RI","(WC)",NA,1998,"Restaurants","","151 Weybosset St, Providence, RI",-71.4120311,41.8217565,"151 weybosset st, providence, ri 02903, usa"
"Global Excellence--The Travel Agency","732-8080/(800) 339-3600","155 Jefferson Blvd","Warwick","RI","(*),(NS)",NA,1998,"Travel Agents","","155 Jefferson Blvd, Warwick, RI",-71.4378758,41.7441952,"155 jefferson blvd, warwick, ri 02888, usa"
"Coffeeright","451-6976 hrs vary, clsd Sun","160 E Front St","Erie","PA","(WC)",NA,1998,"Cafes","","160 E Front St, Erie, PA",-80.0864932,42.1366863,"160 e front st, erie, pa 16507, usa"
"The Providence Eagle","421-1447 6pm-1am, til 2am Fri-Sat","200 Union St","Providence","RI","(M),(L),(WC)",NA,1998,"Bars & Nightclubs","","200 Union St, Providence, RI",-71.4120786,41.8223671,"200 union st, providence, ri 02903, usa"
"Upstairs Bookshop","272-3139","206 Washington","Providence","RI","(*),(NS)",NA,1998,"Erotica","","206 Washington, Providence, RI",-71.416184,41.8218476,"206 washington st, providence, ri 02903, usa"
"Rittenhouse Hotel","546-9000/(800) 635-1042","210 W Rittenhouse Sq","Philadelphia","PA","(GF),(F)",NA,1998,"Accommodations","","210 W Rittenhouse Sq, Philadelphia, PA",-75.1731018,39.9498228,"210 w rittenhouse square, philadelphia, pa 19103, usa"
"Millennium Coffee","731-9798 open til midnight","212 S 12th St","Philadelphia","PA","(*),(NS)",NA,1998,"Cafes","","212 S 12th St, Philadelphia, PA",-75.1608093,39.948081,"212 s 12th st, philadelphia, pa 19107, usa"
"Rhino Coffee Roastery & Cafe","923-2630 7am-midnight, from 8:30am wknds","212 South St","Philadelphia","PA","(*),(NS)",NA,1998,"Cafes","","212 South St, Philadelphia, PA",-75.146124,39.9411206,"212 south st, philadelphia, pa 19147, usa"
"The Frog’s Pond","Oakland 682-7707","223 Atwood St","Oakland","PA","(MW),(D),(K),(S),(F)",NA,1998,"Bars & Nightclubs","Listed under ""Pittsburgh, PA""","223 Atwood St, Oakland, PA",-79.9568001,40.4407156,"223 atwood st, pittsburgh, pa 15213, usa"
"Swingers Books","845-9803","226 W Market St","York","PA","(*),(NS)",NA,1998,"Erotica","","226 W Market St, York, PA",-76.7327567,39.960582,"226 w market st, york, pa 17401, usa"
"Grass Roots Bookstore","754-7668 9am-7pm, til 9pm Fri, til 5:30pm Sat, 11am-5pm Sun; also full music section, espresso bar","227 SW 2nd St","Corvallis","OR","(WC)",NA,1998,"Bookstores & Retail Shops","","227 SW 2nd St, Corvallis, OR",-123.2604967,44.5625066,"227 sw 2nd st, corvallis, or 97333, usa"
"Michael's","829-9126 5pm-9pm, til 10:30pm Fri-Sat, 11am-3pm Sun, clsd Mon, Italian","239 Chestnut St","Philadelphia","PA","(*),(NS)",NA,1998,"Restaurants","","239 Chestnut St, Philadelphia, PA",-75.1457168,39.9487136,"239 chestnut st, philadelphia, pa 19106, usa"
"Renaissance Chocolates","#12 488-8344/(800) 587-7201 7am-5pm","240 E Hersey","Ashland","OR","(*),(NS)",NA,1998,"Cafes","","240 E Hersey, Ashland, OR",-122.7072936,42.2008721,"240 e hersey st, ashland, or 97520, usa"
"Cupid’s Connection Adult Boutique","846-5029","244 N George St","York","PA","(*),(NS)",NA,1998,"Erotica","","244 N George St, York, PA",-76.7299117,39.9659406,"244 n george st, york, pa 17401, usa"
"The Inn Philadelphia","732-2339 4:30pm-10pm, til 9pm Sun, cont'l, full bar","251 S Camac St","Philadelphia","PA","(*),(NS)",NA,1998,"Restaurants","","251 S Camac St, Philadelphia, PA",-75.1615865,39.947103,"251 s camac st, philadelphia, pa 19107, usa"
"The Arden Forest Inn","488-1496/(800) 460-3912 full brkfst","261 W Hersey St","Ashland","OR","(GF),(SW),(NS),(WC)",NA,1998,"Accommodations","","261 W Hersey St, Ashland, OR",-122.7176843,42.2036803,"261 w hersey st, ashland, or 97520, usa"
"Chez Collette","256-9134 4pm-3am","300 Hermitage Ave","Nashville","TN","(W),(NH)",NA,1998,"Bars & Nightclubs","","300 Hermitage Ave, Nashville, TN",-86.7509823,36.1537321,"300 hermitage ave, nashville, tn 37210, usa"
"Sneakers Bar & Dance Club","363-0549 4pm-2:30am, restaurant clsd Sun-Mon","300 Liberty St SE","Salem","OR","(MW),(D),(E),(K),(WC)",NA,1998,"Bars & Nightclubs","","300 Liberty St SE, Salem, OR",-123.0397596,44.9373094,"300 liberty st se, salem, or 97301, usa"
"Jungle Lounge & Restaurant","256-9411 11am-3am, patio","306 4th Ave S","Nashville","TN","(M),(D),(F),(S)",NA,1998,"Bars & Nightclubs","","306 4th Ave S, Nashville, TN",-86.7748746,36.1580722,"306 4th ave s, nashville, tn 37201, usa"
"Rural Book & News","255-9121","315 Market St","Harrisburg","PA","(*),(NS)",NA,1998,"Erotica","","315 Market St, Harrisburg, PA",-76.8801719,40.2612011,"315 market st, harrisburg, pa 17101, usa"
"Julian’s","861-1770 7am-3pm, clsd Mon","318 Broadway","Providence","RI","(*),(NS)",NA,1998,"Restaurants","","318 Broadway, Providence, RI",-71.4281274,41.8199427,"318 broadway, providence, ri 02909, usa"
"Unitarian Universalist Fellowship","248-3737/248-0715 9am & 10:30am Sun","320+ Turnagain St","Anchorage","AK","",NA,1998,"Spiritual Groups","","320+ Turnagain St, Anchorage, AK",-149.9353645,61.1925583,"turnagain st, anchorage, ak 99517, usa"
"Touchez","(enter rear)  335-9874 8pm-2am","323 S Phillips Ave","Sioux Falls","SD","(D),(F),(*),(MW)",NA,1998,"Bars & Nightclubs","","323 S Phillips Ave, Sioux Falls, SD",-96.7271139,43.5439112,"323 s phillips ave, sioux falls, sd 57104, usa"
"Neil Creek House B&B","482-6443/(800) 460-7860 full brkfst","341 Mowetza Dr","Ashland","OR","(GF),(SW),(NS)",NA,1998,"Accommodations","","341 Mowetza Dr, Ashland, OR",-122.6351882,42.1464959,"341 mowetza dr, ashland, or 97520, usa"
"Antique Row B&B","592-7802 full brkfst","341 S 12th St","Philadelphia","PA","(GF)",NA,1998,"Accommodations","","341 S 12th St, Philadelphia, PA",-75.1611513,39.9452569,"341 s 12th st, philadelphia, pa 19107, usa"
"MCC of the Lehigh Valley","(Unitarian Church) 439-8755 6pm Sun","424 Center St","Bethlehem","PA","(*),(NS)",NA,1998,"Spiritual Groups","","424 Center St, Bethlehem, PA",-75.374877,40.6194933,"424 center st, bethlehem, pa 18018, usa"
"Country Host","(Rte 202)  862-5575 7am-10pm","463 Old York Rd","New Hope","PA","(WC)",NA,1998,"Restaurants","","463 Old York Rd, New Hope, PA",-74.9686639,40.3616863,"463 old york rd, new hope, pa 18938, usa"
"NV AIDS Hotline","#304 community info & resources, Spanish spoken","505 E King St","Carson City","NV","",NA,1998,"Info Lines & Services","","505 E King St, Carson City, NV",-119.7631894,39.1635177,"505 e king st, carson city, nv 89701, usa"
"Time Out","448-1180 6pm-?, til 2am Sat","520 8th Ave N","Myrtle Beach","SC","(NH),(D),(S),(PC),(WC),(*),(M)",NA,1998,"Bars & Nightclubs","","520 8th Ave N, Myrtle Beach, SC",-78.884682,33.693884,"520 8th ave n, myrtle beach, sc 29577, usa"
"The Edge","272-3036 5pm-1am","532 S Cooper","Memphis","TN","(M)",NA,1998,"Bars & Nightclubs","","532 S Cooper, Memphis, TN",-89.990146,35.1313322,"532 cooper st, memphis, tn 38104, usa"
"Phoenix Rising","#710 223-8299 sexual minority counseling center","620 SW 5th","Portland","OR","(WC)",NA,1998,"Info Lines & Services","","620 SW 5th, Portland, OR",-122.6768727,45.519002,"620 sw 5th ave, portland, or 97204, usa"
"Deer Hunter","363-1802 4pm-1am, from 2pm wknds","636 S 300 W","Salt Lake City","UT","(M),(D),(L),(PC)",NA,1998,"Bars & Nightclubs","","636 S 300 W, Salt Lake City, UT",-111.9002778,40.7554916,"636 s 300 w, salt lake city, ut 84101, usa"
"Pickering Bend B&B","933-0183","656 Church Rd","Malvern","PA","(GF)",NA,1998,"Accommodations","","656 Church Rd, Malvern, PA",-75.5553009,40.0980321,"656 church rd, malvern, pa 19355, usa"
"Crescent Harbor Hideaway","747-4900","709 Lincoln St","Sitka","AK","(GF)",NA,1998,"Accommodations","","709 Lincoln St, Sitka, AK",-135.327029,57.0513057,"709 lincoln st, sitka, ak 99835, usa"
"Bear E. Patch","762-6555 7am-8pm, patio","801 Folly Rd","Charleston","SC","(WC)",NA,1998,"Cafes","","801 Folly Rd, Charleston, SC",-79.9674338,32.7396025,"801 folly rd, charleston, sc 29412, usa"
"Meristem Women’s Bookstore","276-0282 10am-6pm, some gay men’s titles","930 S Cooper","Memphis","TN","(WC)",NA,1998,"Bookstores & Retail Shops","","930 S Cooper, Memphis, TN",-89.990682,35.120471,"930 cooper st, memphis, tn 38104, usa"
"Twin Travel","923-2995","1101 Spruce St","Philadelphia","PA","(*),(NS)",NA,1998,"Travel Agents","","1101 Spruce St, Philadelphia, PA",-75.1595772,39.9464884,"1101 spruce st, philadelphia, pa 19107, usa"
"St. Francis & St. Clare MCC","332-3966 5:30pm Sun, 7pm summers","1129 E 9th St","Sioux Falls","SD","(*),(NS)",NA,1998,"Spiritual Groups","","1129 E 9th St, Sioux Falls, SD",-96.7115702,43.5474512,"1129 e 9th st, sioux falls, sd 57103, usa"
"Arch St. Books","854-9546","1202 Arch St","Philadelphia","PA","(*),(NS)",NA,1998,"Erotica","","1202 Arch St, Philadelphia, PA",-75.159737,39.953786,"1202 arch st, philadelphia, pa 19107, usa"
"Unity","851-1912 9am-5:30pm, clsd wknds, lesbigay/TG/support/social services","1207 Chestnut St","Philadelphia","PA","(*),(NS)",NA,1998,"Info Lines & Services","","1207 Chestnut St, Philadelphia, PA",-75.160512,39.9507133,"1207 chestnut st, philadelphia, pa 19107, usa"
"Abigail Adams B&B","546-7336/(800) 887-1776","1208 Walnut St","Philadelphia","PA","(GF),(NS)",NA,1998,"Accommodations","","1208 Walnut St, Philadelphia, PA",-75.1610718,39.9487314,"1208 walnut st, philadelphia, pa 19107, usa"
"Unicorn Books","646-3680 10am-9pm, til 5pm wknds, spiritual","1210 Massachusetts Ave","Arlington","MA","",NA,1998,"Bookstores & Retail Shops","","1210 Massachusetts Ave, Arlington, MA",-71.1768804,42.4235968,"1210 massachusetts ave, arlington, ma 02476, usa"
"Uncle’s","546-6660 11am-2am","1220 Locust St","Philadelphia","PA","(M),(NH)",NA,1998,"Bars & Nightclubs","","1220 Locust St, Philadelphia, PA",-75.1615082,39.9477654,"1220 locust st, philadelphia, pa 19107, usa"
"1221 St. lames St","735-5772 opens midnight, call for info","1221 St James St","Philadelphia","PA","(M),(D),(PC)",NA,1998,"Bars & Nightclubs","","1221 St James St, Philadelphia, PA",-75.1616977,39.9483551,"1221 st james st, philadelphia, pa 19107, usa"
"J. Wags Bar","725-1909 24hrs, beer & set-ups only, patio","1268 Madison","Memphis","TN","(M),(D),(F),(S)",NA,1998,"Bars & Nightclubs","","1268 Madison, Memphis, TN",-90.0188256,35.1394447,"1268 madison ave, memphis, tn 38104, usa"
"The Pride Store","2nd flr 743-4297 noon-6pm, clsd Sun","1307 E 38th St","Tulsa","OK","(WC)",NA,1998,"Bookstores & Retail Shops","","1307 E 38th St, Tulsa, OK",-95.9754447,36.1080729,"1307 e 38th st, tulsa, ok 74105, usa"
"Country Willows B&B Inn","488-1590/(800) 945-5697 full brkfst, jacuzzi","1313 Clay St","Ashland","OR","(GF),(SW),(NS),(WC),(TA)",NA,1998,"Accommodations","","1313 Clay St, Ashland, OR",-122.6774162,42.171227,"1313 clay st, ashland, or 97520, usa"
"Philadelphia Tea Party","732-8327 11am-10pm, til midnight Fri-Sat, clsd Sun","1334 Walnut St","Philadelphia","PA","(*),(NS)",NA,1998,"Restaurants","","1334 Walnut St, Philadelphia, PA",-75.1636003,39.9491585,"1334 walnut st, philadelphia, pa 19107, usa"
"Autumn Street Pub","274-8010 1pm-3am, clsd Mon-Tue, patio","1349 Autumn St","Memphis","TN","(MW),(NH),(D),(F),(WC)",NA,1998,"Bars & Nightclubs","","1349 Autumn St, Memphis, TN",-90.0145589,35.1507864,"1349 autumn ave, memphis, tn 38104, usa"
"Queen of Clubs","928-2616 beer & set-ups only","1408 E Main St","Johnson City","TN","(MW),(NH),(D),(A),(MR),(S),(18+),(WC)",NA,1998,"Bars & Nightclubs","","1408 E Main St, Johnson City, TN",-82.3329476,36.325203,"1408 e main st, johnson city, tn 37601, usa"
"Rodz/Tyz/Bottoms","546-1900 various bars & hrs","1418 Rodman St","Philadelphia","PA","(MW),(D),(F),(E)",NA,1998,"Bars & Nightclubs","","1418 Rodman St, Philadelphia, PA",-75.1666275,39.9440336,"1418 rodman st, philadelphia, pa 19146, usa"
"Barnes & Noble","828-7900 9am-11pm, 11am-7pm Sun, lesbigay section","1441 Bald Hill Rd","Warwick","RI","(*),(NS)",NA,1998,"Bookstores & Retail Shops","","1441 Bald Hill Rd, Warwick, RI",-71.4967721,41.7003998,"1441 bald hill rd, warwick, ri 02886, usa"
"Memphis Lambda Center (AA)","276-7379 (AA) 8pm nightly, meeting place for 12-Step groups","1488 Madison","Memphis","TN","",NA,1998,"Info Lines & Services","","1488 Madison, Memphis, TN",-90.0115675,35.1386736,"1488 madison ave, memphis, tn 38104, usa"
"Striped Bass","732-4444 lunch, dinner & Sun brunch, upscale dining","1500 Walnut St","Philadelphia","PA","(*),(NS)",NA,1998,"Restaurants","","1500 Walnut St, Philadelphia, PA",-75.1663033,39.9489949,"1500 walnut st, philadelphia, pa 19102, usa"
"Carousel II","522-6966 9pm-3am, unconfirmed","1501 White Ave","Knoxville","TN","(*),(MW),(D),(S)",NA,1998,"Bars & Nightclubs","","1501 White Ave, Knoxville, TN",-83.9291718,35.9590811,"1501 white ave, knoxville, tn 37916, usa"
"Circa","545-6800 lunch, dinner, Sun brunch","1518 Walnut St","Philadelphia","PA","(E),(WC)",NA,1998,"Restaurants","","1518 Walnut St, Philadelphia, PA",-75.1668961,39.9494256,"1518 walnut st, philadelphia, pa 19102, usa"
"P&H Cafe","726-0906 11am-3am, from 5pm Sat, clsd Sun","1532 Madison","Memphis","TN","(BW),(WC)",NA,1998,"Cafes","","1532 Madison, Memphis, TN",-90.0101548,35.1385569,"1532 madison ave, memphis, tn 38104, usa"
"Gay/Lesbian Community Center","(YWCA) 951-7000. 9am-5pm, clsd wknds","1566 Wilder Ave","Honolulu, Oahu","HI","",NA,1998,"Info Lines & Services","Listed under ""Oahu""","1566 Wilder Ave, Honolulu, Oahu, HI",-157.8327837,21.3035602,"1566 wilder ave, honolulu, hi 96822, usa"
"Madison Flame","278-9839 5pm-3am, DJ Th-Sat, country/western Th","1588 Madison","Memphis","TN","(MW),(NH)",NA,1998,"Bars & Nightclubs","","1588 Madison, Memphis, TN",-90.0082153,35.1382872,"1588 madison ave, memphis, tn 38104, usa"
"The Inn on the Mexican War Streets","231-6544","1606 Buena Vista St","Pittsburgh","PA","(MW)",NA,1998,"Accommodations","","1606 Buena Vista St, Pittsburgh, PA",-80.014716,40.4583022,"1606 buena vista st, pittsburgh, pa 15212, usa"
"New Age Renegade/The Rainbow Room","585-3405 2pm-2am, patio","1649 S Main St","Tulsa","OK","(NH),(S),(*),(MW)",NA,1998,"Bars & Nightclubs","","1649 S Main St, Tulsa, OK",-95.9871822,36.1380628,"1649 s main st, tulsa, ok 74119, usa"
"Rosebud","261-2221 lunch & dinner, clsd Mon","1650 Smallman St","Pittsburgh","PA","(E),(WC)",NA,1998,"Restaurants","","1650 Smallman St, Pittsburgh, PA",-79.9873964,40.4497609,"1650 smallman st, pittsburgh, pa 15222, usa"
"Astral Plane","546-6230 5pm-11pm, full bar","1708 Lombard St","Philadelphia","PA","(*),(NS)",NA,1998,"Restaurants","","1708 Lombard St, Philadelphia, PA",-75.1704897,39.9452023,"1708 lombard st, philadelphia, pa 19146, usa"
"The Embers","454-9171 8pm-2am, clsd Sun","1711 State St","Erie","PA","(*),(NS)",NA,1998,"Bars & Nightclubs","","1711 State St, Erie, PA",-80.0779266,42.1190892,"1711 state st, erie, pa 16501, usa"
"Iron City Ink Tattoo/Hellion House Body Piercing","683-9888 clsd Sun","1814 Penn Ave","Pittsburgh","PA","(*),(NS)",NA,1998,"Erotica","","1814 Penn Ave, Pittsburgh, PA",-79.984389,40.4505416,"1814 penn ave, pittsburgh, pa 15222, usa"
"Travel Professionals International","#B  765-1212","1931 Bull St","Columbia","SC","(TA)",NA,1998,"Travel Agents","","1931 Bull St, Columbia, SC",-81.0337661,34.0130825,"1931 bull st, columbia, sc 29201, usa"
"Corner Book","861-0739","1954 Westminster","Providence","RI","(*),(NS)",NA,1998,"Erotica","","1954 Westminster, Providence, RI",-71.4427531,41.8165973,"1954 westminster st, providence, ri 02909, usa"
"Sun Kachina Travel","#108  855-0066","1987 McCullich","Lake Havasu City","AZ","(TA)",NA,1998,"Travel Agents","","1987 McCullich, Lake Havasu City, AZ",-114.3325282,34.4774901,"1987 mcculloch blvd n, lake havasu city, az 86403, usa"
"Backstreet","276-5522 8pm-3am, til 6am wknds, beer & set-ups only","2018 Court Ave","Memphis","TN","(MW),(D),(WC)",NA,1998,"Bars & Nightclubs","","2018 Court Ave, Memphis, TN",-89.9928982,35.1385447,"2018 court ave, memphis, tn 38104, usa"
"Maxwell’s (24hr Extra News & Video)","626-3140","2027 Hwy 501","Myrtle Beach","SC","(*),(NS)",NA,1998,"Erotica","","2027 Hwy 501, Myrtle Beach, SC",-78.909115,33.7046565,"2027 us-501, myrtle beach, sc 29577, usa"
"Angles","524-3431 (9pm-2am, clsd Mon-Wed","2117 NW 39th St","Oklahoma City","OK","(D),(S),(WC),(*),(MW)",NA,1998,"Bars & Nightclubs","","2117 NW 39th St, Oklahoma City, OK",-97.5481468,35.5116702,"2117 nw 39th st, oklahoma city, ok 73112, usa"
"One More","278-8015 10am-3am, from noon Sun","2117 Peabody Ave","Memphis","TN","(GF),(NH),(MR),(F)",NA,1998,"Bars & Nightclubs","","2117 Peabody Ave, Memphis, TN",-89.9910301,35.1316166,"2117 peabody ave, memphis, tn 38104, usa"
"Safe Harbor MCC","(Union Ave UMC) 458-0501 11am & 7pm Sun","2117 Union Ave","Memphis","TN","(*),(NS)",NA,1998,"Spiritual Groups","","2117 Union Ave, Memphis, TN",-89.9909036,35.1337227,"2117 union ave, memphis, tn 38104, usa"
"My Thai","985-1878 5pm-10pm, til 11pm Fri-Sat","2200 South St","Philadelphia","PA","(*),(NS)",NA,1998,"Restaurants","","2200 South St, Philadelphia, PA",-75.178744,39.9451319,"2200 south st, philadelphia, pa 19146, usa"
"Airport Book Mart","345-0657 24hrs","2214 Brooks Rd E","Memphis","TN","(*),(NS)",NA,1998,"Erotica","","2214 Brooks Rd E, Memphis, TN",-89.9904114,35.0608208,"2214 e brooks rd, memphis, tn 38132, usa"
"Paris Theater","323-2665 24hrs","2432 Summer Ave","Memphis","TN","(*),(NS)",NA,1998,"Erotica","","2432 Summer Ave, Memphis, TN",-89.9779303,35.151025,"2432 summer ave, memphis, tn 38112, usa"
"Escapade","Rte 36 946-8195 8pm-2am, from 6pm Sun","2523 Union Ave","Altoona","PA","(MW),(D),(F)",NA,1998,"Bars & Nightclubs","","2523 Union Ave, Altoona, PA",-78.4063009,40.5005446,"2523 union ave, altoona, pa 16602, usa"
"Port Blue","Port Richmond 425-4699 4pm-2am, clsd Sun-Mon","2552 E Allegheny Ave","Port Richmond","PA","(GF),(NH)",NA,1998,"Bars & Nightclubs","Listed under ""Philadelphia, PA""","2552 E Allegheny Ave, Port Richmond, PA",-75.1042599,39.9857383,"2552 e allegheny ave, philadelphia, pa 19134, usa"
"Body Piercing by Nicole","712-1122","2722 E 15th","Tulsa","OK","(*),(NS)",NA,1998,"Erotica","","2722 E 15th, Tulsa, OK",-95.9505727,36.1404202,"2722 e 15th st, tulsa, ok 74104, usa"
"Amnesia","454-1366 8pm-3am, clsd Mon-Wed, dinner nightly, patio, unconfirmed","2866 Poplar","Memphis","TN","(D),(A),(SW),(WC),(*),(MW)",NA,1998,"Bars & Nightclubs","","2866 Poplar, Memphis, TN",-89.9655346,35.1352177,"2866 poplar ave, memphis, tn 38111, usa"
"Lizzy Bordon’s Part II","833-4059 9pm-2am, clsd Sun","3412 W 12th St","Erie","PA","(*),(NS)",NA,1998,"Bars & Nightclubs","","3412 W 12th St, Erie, PA",-80.1595621,42.0953574,"3412 w 12th st, erie, pa 16505, usa"
"Coffee Cellar","320-7853 7am-midnight, 8am-8pm Sat, patio","3573 Southern","Memphis","TN","(WC)",NA,1998,"Cafes","","3573 Southern, Memphis, TN",-90.0489801,35.1495343,"memphis, tn, usa"
"The Adobe Cafe","Roxborough  483-3947 4:30pm-10:30pm","4550 Mitchell St","Roxborough","PA","(E)",NA,1998,"Restaurants","Listed under ""Philadelphia, PA""","4550 Mitchell St, Roxborough, PA",-75.2191448,40.0342316,"4550 mitchell st, philadelphia, pa 19128, usa"
"Roma Cocktail Lounge & Restaurant","679-7100 4pm-2am, kitchen til 10pm","5096 Hwy 99 S","Roseburg","OR","(GF),(E)",NA,1998,"Bars & Nightclubs","","5096 Hwy 99 S, Roseburg, OR",-122.8019133,42.260648,"5096 or-99, phoenix, or 97535, usa"
"Family of Faith MCC","622-1441 11am Sun","5451 -E S Mingo","Tulsa","OK","(*),(NS)",NA,1998,"Spiritual Groups","","5451 -E S Mingo, Tulsa, OK",-95.8688005,36.1535371,"s mingo rd, tulsa, ok, usa"
"Lambda Group AA","(Unitarian Universalist Church) 452-2675 8pm Sun","7180 New Perry Hwy","Erie","PA","(WC)",NA,1998,"Info Lines & Services","","7180 New Perry Hwy, Erie, PA",-80.0574539,42.0825267,"perry hwy, erie, pa, usa"
"Cove Lounge & Club","576-2683 from 8pm, from 3pm Sun","9112 Greenville Hwy","Spartanburg","SC","(MW),(D),(PC)",NA,1998,"Bars & Nightclubs","","9112 Greenville Hwy, Spartanburg, SC",-81.9499806,34.9507334,"greenville st, spartanburg, sc 29301, usa"
"Camp Michael B&B","342-5590 full brkfst, peaceful getaway","13051 Bogus Jim Rd","Rapid City","SD","(MW)",NA,1998,"Accommodations","","13051 Bogus Jim Rd, Rapid City, SD",-103.440617,44.1191629,"13051 bogus jim rd, rapid city, sd 57702, usa"
"Middle Creek Run","843-7606 full brkfst, hot tub","25400 Harmony Rd","Sheridan","OR","(GF),(SW)",NA,1998,"Accommodations","","25400 Harmony Rd, Sheridan, OR",-123.4334871,45.0765552,"25400 harmony rd, sheridan, or 97378, usa"
"Travel Network","#C   (503) 570-0761","29756 Town Ctr Loop W","Wilsonville","OR","(TA)",NA,1998,"Travel Agents","","29756 Town Ctr Loop W, Wilsonville, OR",-122.7645405,45.3043868,"29756 town center loop w, wilsonville, or 97070, usa"
"Sweet Spirit MCC","(back room in Beauty College) 363-6618 11am Sun","Lancaster Dr & Silverton Rd","Salem","OR","(*),(NS)",NA,1998,"Spiritual Groups","","Lancaster Dr & Silverton Rd, Salem, OR",NA,NA,NA
"Road's End Dory Cove","994-5180 11:30am-9pm, steak & seafood","Logan Rd","Lincoln City","OR","(*),(NS)",NA,1998,"Restaurants","","Logan Rd, Lincoln City, OR",-124.0081172,45.0085071,"nw logan rd, lincoln city, or 97367, usa"
"Ocean Walk Guest House","Ocean Park  728-0855/(800) 468-0615","1 Atlantic Pl","Ocean Park","PR","(GF),(SW),(TA)",NA,1998,"Accommodations","Listed under ""San Juan, PR""","1 Atlantic Pl, Ocean Park, PR",-66.0508142,18.4532983,"ocean park, san juan, puerto rico"
"The Inn at Northampton","586-1211/(800) 582-2929","1 Atwood Dr","Northampton","MA","(GF),(SW),(F),(WC)",NA,1998,"Accommodations","","1 Atwood Dr, Northampton, MA",-72.6238946,42.3038643,"1 atwood dr, northampton, ma 01060, usa"
"Thomas Floral & Adult Gifts","#108 744-6400 8:30am-6pm, 9am-5pm Sat, clsd Sun","1 Broadway","Denver","CO","(WC)",NA,1998,"Bookstores & Retail Shops","","1 Broadway, Denver, CO",-104.9879911,39.7171204,"1 n broadway, denver, co 80203, usa"
"Numero Uno on the Beach","Ocean Park  726-5010 also bar & grill","1 Calle Santa Ana","Ocean Park","PR","(GF),(SW),(WC)",NA,1998,"Accommodations","Listed under ""San Juan, PR""","1 Calle Santa Ana, Ocean Park, PR",-66.0551191,18.4543842,"1 c. sta. ana, san juan, 00911, puerto rico"
"Atlantic Beach Hotel","Condado 721-6900/(888) 611-6900","1 Calle Vendig","Condado","PR","(SW),(TA),(*),(MW)",NA,1998,"Accommodations","Listed under ""San Juan, PR""","1 Calle Vendig, Condado, PR",-66.0723525,18.4571237,"1 cll vendig, san juan, 00907, puerto rico"
"Provincetown Inn","487-9500","1 Commercial St","Provincetown","MA","(GF),(SW),(F),(WC)",NA,1998,"Accommodations","","1 Commercial St, Provincetown, MA",-70.1960351,42.0373842,"historic district, 1 commercial st, provincetown, ma 02657, usa"
"Dignity","(Provincetown Inn) 487-9500 10:30am Sun (May-Oct)","1 Commercial St","Provincetown","MA","",NA,1998,"Spiritual Groups","","1 Commercial St, Provincetown, MA",-70.1960351,42.0373842,"historic district, 1 commercial st, provincetown, ma 02657, usa"
"Pier House Resort & Caribbean Spa","296-4600/(800) 327-8340 private beach, restaurants, bars, spa, fitness center","1 Duval St","Key West","FL","(GF),(SW)",NA,1998,"Accommodations","","1 Duval St, Key West, FL",-81.8059108,24.5611624,"1 duval st, key west, fl 33040, usa"
"MCC of Asheville","(Unitarian Universalist Church) 232-0062 6:30pm Sun","1 Edwin Pl","Asheville","NC","(WC)",NA,1998,"Spiritual Groups","","1 Edwin Pl, Asheville, NC",-82.5465298,35.6092008,"1 edwin pl, asheville, nc 28801, usa"
"Unitarian Universalist Church of Asheville","254-6001 9am & 11am Sun (10am Sun summers)","1 Edwin Pl","Asheville","NC","(WC)",NA,1998,"Spiritual Groups","","1 Edwin Pl, Asheville, NC",-82.5465298,35.6092008,"1 edwin pl, asheville, nc 28801, usa"
"Gerardo’s","274-5560 4pm-1am, til 2am Fri-Sat","1 Franklin Sq","Providence","RI","(MW),(D),(E),(WC)",NA,1998,"Bars & Nightclubs","","1 Franklin Sq, Providence, RI",-71.4162729,41.8179581,"us-1 & franklin st, providence, ri 02903, usa"
"AA Gay/Lesbian","752-9000 7pm Sat","1 Freeland St","Worcester","MA","",NA,1998,"Info Lines & Services","","1 Freeland St, Worcester, MA",-71.8249614,42.248282,"1 freeland st, worcester, ma 01603, usa"
"Bretts","261-2660","1 Front St","Amelia Island","FL","",NA,1998,"Restaurants","","1 Front St, Amelia Island, FL",-81.4654109,30.6684176,"1 s front st, fernandina beach, fl 32034, usa"
"One Hot Spot","(under Brooklyn Bridge) 852-0139, 9pm-3am, clsd Sun-Tue, from 6pm Th","1 Front St","New York City","NY","(MW),(D),(E),(MR),(S),(WC)",NA,1998,"Bars & Nightclubs","Listed under ""N.Y.C. -- Brooklyn""","1 Front St, New York City, NY",-74.073551,40.6362615,"1 front st, staten island, ny 10301, usa"
"Hemingway's at the Hyatt","Lake Buena Vista 239-1234 cont'l","1 Grand Cypress Blvd","Orlando","FL","(*)",NA,1998,"Restaurants","","1 Grand Cypress Blvd, Orlando, FL",-81.5113633,28.382399,"1 grand cypress blvd, orlando, fl 32836, usa"
"Club One","232-0200 5pm-3am","1 Jefferson St","Savannah","GA","(MW),(D),(F),(S)",NA,1998,"Bars & Nightclubs","","1 Jefferson St, Savannah, GA",-81.0947645,32.0816197,"1 jefferson st, savannah, ga 31401, usa"
"New Haven Gay & Lesbian Community Center","East Haven 777-7780 6om-7:45pm Mon, Wed & Th, also mtgs","1 Long Wharf Dr","East Haven","CT","",NA,1998,"Info Lines & Services","Listed under ""New Haven, CT""","1 Long Wharf Dr, East Haven, CT",-72.9281842,41.288679,"1 long wharf dr, new haven, ct 06511, usa"
"Wall Street Sauna","11th fir 233-8900","1 Maiden Ln","New York City","NY","(*),(MO)",NA,1998,"Men's Clubs","Listed under ""N.Y.C. -- Soho, Greenwich & Chelsea""","1 Maiden Ln, New York City, NY",-74.0096846,40.7098301,"1 maiden ln, new york, ny 10038, usa"
"Artists' Cafe","523-9493 8am-10pm, steak & seafood","1 Main St","Lake Placid","NY","(BW)",NA,1998,"Restaurants","","1 Main St, Lake Placid, NY",-73.9840428,44.2854201,"main st, lake placid, ny 12946, usa"
"Ivory Isle Travel","#350 726-8998","1 N Franklin","Chicago","IL","(TA)",NA,1998,"Travel Agents","Listed under ""Chicago - North Side""","1 N Franklin, Chicago, IL",-87.6350041,41.8822063,"1 n franklin st, chicago, il 60606, usa"
"Whittier News Stand","592-0767 24hrs","1 N Lewis St","Tulsa","OK","(*),(NS)",NA,1998,"Erotica","","1 N Lewis St, Tulsa, OK",-95.9570118,36.1608035,"1 n lewis pl, tulsa, ok 74110, usa"
"Outright","(4th Fl.) 828-6560/(888) 567-7600 6pm Tue & 7:30pm Fri, youth organization","1 Peasant St","Portland","ME","",NA,1998,"Info Lines & Services","","1 Peasant St, Portland, ME",-70.2574535,43.6547557,"1 pleasant st, portland, me 04101, usa"
"Mikuni Travel Service","#1010 227-3639/(800) 248-0624","1 SW Columbia St","Portland","OR","(TA)",NA,1998,"Travel Agents","","1 SW Columbia St, Portland, OR",-122.6755607,45.5134826,"umpqua bank plaza, 1 sw columbia st, portland, or 97258, usa"
"Red Garter","433-9292, 8pm-3am","1 W Main St","Pensacola","FL","(MW),(D),(S),(WC)",NA,1998,"Bars & Nightclubs","","1 W Main St, Pensacola, FL",-87.2141707,30.4076202,"1 w main st, pensacola, fl 32502, usa"
"Al Boccalino","622-7688 5pm-10pm, classy southern italian","1 Yesler Wy","Seattle","WA","(*),(NS)",NA,1998,"Restaurants","","1 Yesler Wy, Seattle, WA",-122.3357322,47.601564,"1 yesler wy, seattle, wa 98104, usa"
"Netrick-Martin Institute","674-2400/674-8695 (TTY) extensive services for lesbigay youth; also 'You Are Not Alone' resource directory","2 Astor Pl","New York City","NY","",NA,1998,"Info Lines & Services","Listed under ""N.Y.C. -- Overview""","2 Astor Pl, New York City, NY",-73.9925831,40.7298791,"2 astor pl, new york, ny 10003, usa"
"Lips","675-7710 the ad says it all! (facing page)","2 Bank St","New York City","NY","",NA,1998,"Restaurants","Listed under ""N.Y.C. -- Soho, Greenwich & Chelsea""","2 Bank St, New York City, NY",-74.0016528,40.7370736,"2 bank st, new york, ny 10014, usa"
"The Sportman's Club","784-2251 8pm-1am","2 Bates St","Lewiston","ME","(*),(MW),(D)",NA,1998,"Bars & Nightclubs","","2 Bates St, Lewiston, ME",-70.2173502,44.1018478,"2 bates st, lewiston, me 04240, usa"
"Barefoot Bar","Condado  724-7230 9am-3am, brkfst & lunch, hustlers","2 Calle Vendig","Condado","PR","(F),(*),(M)",NA,1998,"Bars & Nightclubs","Listed under ""San Juan, PR""","2 Calle Vendig, Condado, PR",-66.0726432,18.4566065,"2 cll vendig, san juan, 00907, puerto rico"
"Thoreau's Walden B&B","Lincoln 259-1899","2 Concord Rd","Boston","MA","(GF)",NA,1998,"Accommodations","","2 Concord Rd, Boston, MA",-71.0613606,42.3773678,"2 concord st, charlestown, ma 02129, usa"
"Sophies","782-8080 5pm-2:0am","2 E LaClede","Youngstown","OH","(MW),(NH)",NA,1998,"Bars & Nightclubs","","2 E LaClede, Youngstown, OH",-80.6571859,41.0749109,"2 e laclede ave, youngstown, oh 44507, usa"
"Adventure Travel","Scarborough 885-5060","2 Elsie Wy","Scaborough","ME","(TA)",NA,1998,"Travel Agents","Listed under ""Portland, ME""","2 Elsie Wy, Scaborough, ME",-70.348176,43.602656,"2 elsie way, scarborough, me 04074, usa"
"Ujjala's B&B","255-6360 full brkfst, body therapy avail.","2 Forest Glen","New Paltz","NY","(GF)",NA,1998,"Accommodations","","2 Forest Glen, New Paltz, NY",-74.1185439,41.7022871,"2 forest glen rd, new paltz, ny 12561, usa"
"Gertrude & Alice's","693-3816","2 Front St","Collinsville","CT","",NA,1998,"Bookstores & Retail Shops","","2 Front St, Collinsville, CT",-72.9229702,41.8105085,"2 front st, canton, ct 06019, usa"
"Villa Dubois Tourist Lodge","253-6965 cottage, full kitchen, private check, jacuzzi","2 Kings Hwy","Eureka Springs","AR","(M)",NA,1998,"Accommodations","","2 Kings Hwy, Eureka Springs, AR",-93.7392889,36.4006499,"eureka springs, ar, usa"
"The Gramercy Park Hotel","(at E. 21st St.) 475-4320/(800) 221-4083","2 Lexington Ave","New York City","NY","(GF)",NA,1998,"Accommodations","Listed under ""N.Y.C. -- Soho, Greenwich & Chelsea""","2 Lexington Ave, New York City, NY",-73.9851581,40.7391653,"2 lexington ave, new york, ny 10010, usa"
"Einstein Bagels","367-7999 6am-8pm, 7am-5pm wknds","2 N Euclid Ave","St. Louis","MO","",NA,1998,"Restaurants","","2 N Euclid Ave, St. Louis, MO",-90.261994,38.640477,"2 n euclid ave, st. louis, mo 63108, usa"
"Flex","832-8855 5pm-?, from 2pm Sun","2 S West St","Raleigh","NC","(*),(M),(L)",NA,1998,"Bars & Nightclubs","","2 S West St, Raleigh, NC",-78.6461187,35.7804189,"2 s west st, raleigh, nc 27603, usa"
"Donna's Coffee Bar","385-0180","2 W Madison","Baltimore","MD","(BW)",NA,1998,"Cafes","","2 W Madison, Baltimore, MD",-76.6160772,39.2985825,"2 w madison st, baltimore, md 21201, usa"
"Icarus","426-1790 dinner & Sun brunch, clsd Sun (summers)","3 Appleton St","Boston","MA","",NA,1998,"Restaurants","","3 Appleton St, Boston, MA",-71.0697695,42.3466956,"3 appleton st, boston, ma 02116, usa"
"Casita Bonita by The Sea","728-1241","3 Calle Histella","San Juan","PR","(MW)",NA,1998,"Accommodations","","3 Calle Histella, San Juan, PR",-66.0381233,18.4525925,"3 c. histella, san juan, 00913, puerto rico"
"The Chestnut House","229-9521 full brkfst","3 Chestnut St","Nantucket","MA","(GF)",NA,1998,"Accommodations","","3 Chestnut St, Nantucket, MA",-70.1000081,41.2847817,"3 chestnut st, nantucket, ma 02554, usa"
"Asheton House","487-9966","3 Cook St","Provincetown","MA","(GF)",NA,1998,"Accommodations","","3 Cook St, Provincetown, MA",-70.1785011,42.057088,"3 cook st, provincetown, ma 02657, usa"
"Cedarberry Cottage B&B","253-6115/(800)590-2424 full brkfst, jacuzzis","3 Kings Hwy","Eureka Springs","AR","(GF)",NA,1998,"Accommodations","","3 Kings Hwy, Eureka Springs, AR",-93.7909848,36.4035425,"3rd st, arkansas 72631, usa"
"Sarducci's","223-0229 11:30am-10pm, Italian, full bar","3 Main St","Montpelier","VT","(WC)",NA,1998,"Restaurants","","3 Main St, Montpelier, VT",-72.5765564,44.2576696,"3 main st, montpelier, vt 05602, usa"
"Communiques","773-5181 10am-7pm, til 9pm summers, cards, gifts, clothing","3 Moutlon St","Portland","ME","",NA,1998,"Bookstores & Retail Shops","","3 Moutlon St, Portland, ME",-70.2526999,43.6564851,"3 moulton st, portland, me 04101, usa"
"Latitudes","644-7047","3 N 19th St","Richmond","VA","(TA)",NA,1998,"Travel Agents","","3 N 19th St, Richmond, VA",-77.4263648,37.5325644,"3 n 19th st, richmond, va 23223, usa"
"Piaf","487-7458/(800) 340-7423","3 Prince St","Provincetown","MA","(GF)",NA,1998,"Accommodations","","3 Prince St, Provincetown, MA",-70.1903131,42.0506555,"historic district, 3 prince st, provincetown, ma 02657, usa"
"Underground","773-3315 4pm-1am","3 Spring St","Portland","ME","(*),(MW),(D),(S)",NA,1998,"Bars & Nightclubs","","3 Spring St, Portland, ME",-70.2574098,43.6562263,"3 spring st, portland, me 04101, usa"
"AA Gay/Lesbian","(Capitol View Methodist) 664-7303 8pm Wed & 6pm Sun","3rd & Pulaski","Little Rock","AK","",NA,1998,"Info Lines & Services","","3rd & Pulaski, Little Rock, AK",NA,NA,NA
"Cafe Suzanne","588-2101 5:30pm-9:30pm, Sun brunch, clsd Mon","4 Center St","Charleston","SC","(E)",NA,1998,"Restaurants","","4 Center St, Charleston, SC",-79.943987,32.7996003,"4 c st, charleston, sc 29403, usa"
"Grand View Inn","487-9193/(888) 268-9169","4 Conant St","Provincetown","MA","(MW)",NA,1998,"Accommodations","","4 Conant St, Provincetown, MA",-70.1916854,42.0464929,"historic district, 4 conant st, provincetown, ma 02657, usa"
"Atlantic House Hotel","(at 'The Big Room') 487-3821 9pm-1am","4 Masonic Pl","Provincetown","MA","(*),(M),(D)",NA,1998,"Bars & Nightclubs","","4 Masonic Pl, Provincetown, MA",-70.1887202,42.0499516,"4 masonic pl, provincetown, ma 02657, usa"
"In Town Reservations, Travel & Real Estate","487- 1883/(800) 67P-TOWN","4 Standish St","Provincetown","MA","",NA,1998,"Info Lines & Services","","4 Standish St, Provincetown, MA",-70.1860434,42.0521741,"historic district, 4 standish st, provincetown, ma 02657, usa"
"Martuni's","241-0205 piano bar","4 Valencia St","San Francisco","CA","(M),(NH),(P)",NA,1998,"Bars & Nightclubs","Listed under ""S.F.-Castro & Noe Valley""","4 Valencia St, San Francisco, CA",-122.4227604,37.7721289,"4 valencia st, san francisco, ca 94103, usa"
"Passion Flower","601-7750 toya, leather, etc.","4 Yosemite Ave","Oakland","CA","",NA,1998,"Erotica","Listed under ""East Bay""","4 Yosemite Ave, Oakland, CA",-122.2552878,37.8238874,"4 yosemite ave, oakland, ca 94611, usa"
"Sideout","822-0082. noon-1:30am, bands Tue. Th & wknds","4-1330 Kuhio Hwy","Kapaa, Kauai","HI","(*),(GF),(E),(WC)",NA,1998,"Bars & Nightclubs","Listed under ""Kauai""","4-1330 Kuhio Hwy, Kapaa, Kauai, HI",-159.3185187,22.0750691,"4-1330 kuhio hwy, kapaʻa, hi 96746, usa"
"Avalon","Guerneville 869-9566","4th & Mill St","Guerneville","CA","(GF),(SW)",NA,1998,"Accommodations","Listed under ""Russian River, CA""","4th & Mill St, Guerneville, CA",NA,NA,NA
"Old First Reformed Church (United Church of Christ)","922-4566","4th & Race St","Philadelphia","PA","(*),(NS)",NA,1998,"Spiritual Groups","","4th & Race St, Philadelphia, PA",NA,NA,NA
"Bell St. Chapel (Unitarian)","831-3794 10am Sun","5 Bell St","Providence","RI","(*),(NS)",NA,1998,"Spiritual Groups","","5 Bell St, Providence, RI",-71.436128,41.8188007,"5 bell st, providence, ri 02909, usa"
"Royal Sonesta Hotel","Cambridge 576-5972","5 Cambridge Pkwy","Boston","MA","(GF),(TA)",NA,1998,"Accommodations","","5 Cambridge Pkwy, Boston, MA",-71.074225,42.3841089,"5 cambridge st, boston, ma 02129, usa"
"Stage Left","828-4444 5:30pm-2am, from 4:30pm Sun","5 Livingston Ave","New Brunswick","NJ","(*),(MW),(WC)",NA,1998,"Restaurants","","5 Livingston Ave, New Brunswick, NJ",-74.4438913,40.4936737,"5 livingston ave, new brunswick, nj 08901, usa"
"Grand Central","487-7599 seasonal, int'l/seafood, full bar","5 Masonic St","Provincetown","MA","",NA,1998,"Restaurants","","5 Masonic St, Provincetown, MA",-70.1886271,42.0501209,"historic district, 5 masonic pl, provincetown, ma 02657, usa"
"Sacajawea Inn","","5 N Main St","Three Forks","MT","(GF),(F),(WC)",NA,1998,"Accommodations","","5 N Main St, Three Forks, MT",-111.551889,45.8952869,"5 n main st, three forks, mt 59752, usa"
"Independence Place","334-2939 8:30pm-1:30am, from 7pm Fri-Sat, clsd Sun","5 S Henderson St","Cape Girardeau","MO","(MW),(D),(TG),(S)",NA,1998,"Bars & Nightclubs","","5 S Henderson St, Cape Girardeau, MO",-89.5340514,37.3046091,"5 s henderson ave, cape girardeau, mo 63703, usa"
"Magnolia's","652-6500 5pm:1:30am, clsd Sun","5 S Vandeventer","St. Louis","MO","(*),(M),(MR-AF),(S),(WC)",NA,1998,"Bars & Nightclubs","","5 S Vandeventer, St. Louis, MO",-90.2421163,38.6358874,"5 s vandeventer ave, st. louis, mo 63108, usa"
"Victoria House","487-4455","5 Standish St","Provincetown","MA","(MW)",NA,1998,"Accommodations","","5 Standish St, Provincetown, MA",-70.1859602,42.0525256,"historic district, 5 standish st, provincetown, ma 02657, usa"
"Heart of the Hills B&B","253-7468/(800)253-7468 full brkfst, patio; also reservation service","5 Summit","Eureka Springs","AR","(GF)",NA,1998,"Accommodations","","5 Summit, Eureka Springs, AR",-93.7432511,36.4030555,"5 summit st, eureka springs, ar 72632, usa"
"Shiremax Inn","487-1233/(888) 744-7362","5 Tremont St","Provincetown","MA","(M)",NA,1998,"Accommodations","","5 Tremont St, Provincetown, MA",-70.1929515,42.044945,"historic district, 5 tremont st, provincetown, ma 02657, usa"
"Le Chateau Exotique","862-3810 fetish wear","5 W Bridge St","New Hope","PA","(*),(NS)",NA,1998,"Erotica","","5 W Bridge St, New Hope, PA",-74.9518746,40.3642275,"5 w bridge st, new hope, pa 18938, usa"
"Karla’s","862-2612 lunch, dinner & late night brkfst Fri-Sat, full bar","5 W Mechanic St","New Hope","PA","(E)",NA,1998,"Restaurants","","5 W Mechanic St, New Hope, PA",-74.9507655,40.3618176,"5 w mechanic st, new hope, pa 18938, usa"
"Garden at 6 Atwood","487-2113/(800) 277-5451 shared baths","6 Atwood St","Provincetown","MA","(M)",NA,1998,"Accommodations","","6 Atwood St, Provincetown, MA",-70.1941618,42.0425918,"historic district, 6 atwood ave, provincetown, ma 02657, usa"
"Mayflower Apartments","487-1916","6 Bangs St","Provincetown","MA","(GF)",NA,1998,"Accommodations","","6 Bangs St, Provincetown, MA",-70.1800379,42.0564651,"historic district, 6 bangs st, provincetown, ma 02657, usa"
"Condado Inn","724-7145 also lounge","6 Condado Ave","San Juan","PR","(MW)",NA,1998,"Accommodations","","6 Condado Ave, San Juan, PR",-66.0714233,18.4567481,"6 condado ave, san juan, 00907, puerto rico"
"Dexter's Inn","487-1911/(888) 521-1999","6 Conwell St","Provincetown","MA","(MW),(NS)",NA,1998,"Accommodations","","6 Conwell St, Provincetown, MA",-70.1852203,42.0551452,"6 conwell st, provincetown, ma 02657, usa"
"Casablanca Lounge & Restaurant","648-2040 11am-2am, from 3pm Sat, lunch served","6 E Grace St","Richmond","VA","(M),(K),(V)",NA,1998,"Bars & Nightclubs","","6 E Grace St, Richmond, VA",-77.4423689,37.5448132,"6 e grace st, richmond, va 23219, usa"
"Elliot House","487-4029 full brkfst","6 Gosnold St","Provincetown","MA","(MW)",NA,1998,"Accommodations","","6 Gosnold St, Provincetown, MA",-70.1881017,42.0508689,"historic district, 6 gosnold st, provincetown, ma 02657, usa"
"Maple Leaf Inn","253-6876/(800)372-6542 full brkfst, hot tub, restored Victorian","6 Kings Hwy","Eureka Springs","AR","(GF)",NA,1998,"Accommodations","","6 Kings Hwy, Eureka Springs, AR",-93.7392889,36.4006499,"eureka springs, ar, usa"
"The Blackstones","775-2885 4pm-1am","6 Pine St","Portland","ME","(M),(NH),(WC)",NA,1998,"Bars & Nightclubs","","6 Pine St, Portland, ME",-70.266826,43.6526354,"6 pine st, portland, me 04101, usa"
"Inn Exile","582-4144 3pm-2am, til midnight Sun","6 S J St","Lake Worth","FL","(M),(K),(V)",NA,1998,"Bars & Nightclubs","","6 S J St, Lake Worth, FL",-80.05612,26.6155883,"6 s j st, lake worth beach, fl 33460, usa"
"Leisure Inn","646-2737 seasonal","6 School St","Ogunquit","ME","(MW)",NA,1998,"Accommodations","","6 School St, Ogunquit, ME",-70.598347,43.2475683,"6 school st, ogunquit, me 03907, usa"
"Swain Travel Services","896-9595/(800) 227-9246","6 W Lancaster Ave","Ardmore","PA","(TA)",NA,1998,"Travel Agents","","6 W Lancaster Ave, Ardmore, PA",-75.2913083,40.007868,"6 w lancaster ave, ardmore, pa 19003, usa"
"Six Webster Place","487-2266/(800) 693-2783 B&B &apts","6 Webster PI","Provincetown","MA","(*),(MW),(TA)",NA,1998,"Accommodations","","6 Webster PI, Provincetown, MA",-70.1890806,42.0510858,"6 webster pl, provincetown, ma 02657, usa"
"Chicago House","487-0537/(800) 733-7869","6 Winslow St","Provincetown","MA","(M)",NA,1998,"Accommodations","","6 Winslow St, Provincetown, MA",-70.1887449,42.051285,"historic district, 6 winslow st, provincetown, ma 02657, usa"
"Woolverton Inn","397-0802 full brkfst, jacuzzi","6 Wollverton Rd","Stockton","NJ","(GF)",NA,1998,"Accommodations","","6 Wollverton Rd, Stockton, NJ",-74.9801727,40.4092882,"6 woolverton rd, stockton, nj 08559, usa"
"Benchmark Inn & Annex","487-7440/(888) 487-7440 harbor views","6-8 Dyer St","Provincetown","MA","(MW),(SW),(TA)",NA,1998,"Accommodations","unsure about address","6-8 Dyer St, Provincetown, MA",-70.18261,42.0551538,"historic district, 6 dyer st, provincetown, ma 02657, usa"
"Dignity Detroit","(Most Holy Trinity) 961-4818 6pm Sun","6th & Porter St","Detroit","MI","",NA,1998,"Spiritual Groups","","6th & Porter St, Detroit, MI",NA,NA,NA
"Heritage House","487-3692","7 Center St","Provincetown","MA","(*),(MW)",NA,1998,"Accommodations","","7 Center St, Provincetown, MA",-70.1847552,42.0536962,"historic district, 7 center st, provincetown, ma 02657, usa"
"New Paltz Travel Center","255-7706","7 Cherry Hill Center","New Paltz","NY","(TA)",NA,1998,"Travel Agents","","7 Cherry Hill Center, New Paltz, NY",-74.0713889,41.7427405,"246 main st, new paltz, ny 12561, usa"
"Cafe Claude","392-3505, 10am-9pm, clsd Sun, live jazz, as close to Paris as you can get in SF","7 Claude","San Francisco","CA","(E),(BW)",NA,1998,"Cafes","Listed under ""S.F.-Downtown & North Beach""","7 Claude, San Francisco, CA",-122.4038345,37.7735342,"7th st, san francisco, ca, usa"
"The Inn at Cook Street","487-3894/(888) 266-5655 intimate & quiet","7 Cook St","Provincetown","MA","(GF),(NS)",NA,1998,"Accommodations","","7 Cook St, Provincetown, MA",-70.1787553,42.0575126,"7 cook st, provincetown, ma 02657, usa"
"Gershwin Hotel","(at 5th Ave.) 545-8000","7 E 27th St","New York City","NY","",NA,1998,"Accommodations","Listed under ""N.Y.C. -- Midtown""","7 E 27th St, New York City, NY",-73.986983,40.7439642,"7 e 27th st, new york, ny 10016, usa"
"Napi's","487-1145 int'l/seafood","7 Freeman St","Provincetown","MA","(WC)",NA,1998,"Restaurants","","7 Freeman St, Provincetown, MA",-70.1859761,42.0528826,"historic district, 7 freeman st, provincetown, ma 02657, usa"
"Coat of Arms","487-0816 seasonal","7 Johnson St","Provincetown","MA","(M)",NA,1998,"Accommodations","","7 Johnson St, Provincetown, MA",-70.1842676,42.0542184,"historic district, 7 johnson st, provincetown, ma 02657, usa"
"The Ogunquit House","646-2967","7 Kings Hwy","Ogunquit","ME","(*),(MW)",NA,1998,"Accommodations","","7 Kings Hwy, Ogunquit, ME",-70.6021924,43.2647986,"7 kings hwy, ogunquit, me 03907, usa"
"Heaven","421-9595 10pm-2am Wed","7 Lansdowne St","Boston","MA","(MW),(D)",NA,1998,"Bars & Nightclubs","","7 Lansdowne St, Boston, MA",-71.0950605,42.3473283,"7 lansdowne st, boston, ma 02215, usa"
"Arbour Glen Victorian Inn B&B","253-9010/(800)515-4536 full brkfst, historic Victorian home w/ guesthouse, jacuzzis, fireplaces","7 Lema","Eureka Springs","AR","(GF)",NA,1998,"Accommodations","","7 Lema, Eureka Springs, AR",-93.7450878,36.4019547,"7 lema st, eureka springs, ar 72632, usa"
"Trinity Episcopal Church","(Rte. 9), Ossining 941-0806, 7.30am & 10am Sun","7 S Highland","Ossining","NY","",NA,1998,"Spiritual Groups","Listed under ""Hudson Valley, NY""","7 S Highland, Ossining, NY",-73.8611173,41.1619977,"7 s highland ave, ossining, ny 10562, usa"
"Shore House","646-0627","7 Shore Rd","Ogunquit","ME","(GF)",NA,1998,"Accommodations","","7 Shore Rd, Ogunquit, ME",-70.5994468,43.2487794,"7 shore rd, ogunquit, me 03907, usa"
"Watership Inn","487-0094/(800) 330-9413","7 Winthrop","Provincetown","MA","(*),(MW)",NA,1998,"Accommodations","","7 Winthrop, Provincetown, MA",-70.1907975,42.0484317,"historic district, 7 winthrop st, provincetown, ma 02657, usa"
"Journeys","232-0800/(800) 256-8235","8 Biltmore Ave","Asheville","NC","(TA)",NA,1998,"Travel Agents","","8 Biltmore Ave, Asheville, NC",-82.551345,35.594432,"8 biltmore ave, asheville, nc 28801, usa"
"Villa Ricomar","Carretera 459, Bario Jobos  from 9pm Fri-Sat, from 6pm Sun, clsd Mon-Fri","8 Calle Paz","Isabela","PR","(MW),(D),(S)",NA,1998,"Bars & Nightclubs","","8 Calle Paz, Isabela, PR",-66.9912459,18.4743517,"8 cll coronel, isabela, 00662, puerto rico"
"Roomers","487-3532 seasonal","8 Carver St","Provincetown","MA","(M)",NA,1998,"Accommodations","","8 Carver St, Provincetown, MA",-70.189965,42.0490682,"historic district, 8 carver st, provincetown, ma 02657, usa"
"Pieces","(at 6th Ave.) 929-9291 2pm-4am","8 Christopher St","New York City","NY","(M),(NH)",NA,1998,"Bars & Nightclubs","Listed under ""N.Y.C. -- Soho, Greenwich & Chelsea""","8 Christopher St, New York City, NY",-74.0000963,40.7338693,"8 christopher st, new york, ny 10014, usa"
"Queen Bean Cafe","792-5995 lunch & dinner, hrs vary","8 Commonwealth Ave","Claymont","DE","",NA,1998,"Restaurants","","8 Commonwealth Ave, Claymont, DE",-75.463019,39.7993553,"8 commonwealth ave, claymont, de 19703, usa"
"Jefferson Rose Cafe","226-9303","8 Jefferson St","Dayton","OH","",NA,1998,"Cafes","","8 Jefferson St, Dayton, OH",-84.1896091,39.7592457,"8 s jefferson st, dayton, oh 45402, usa"
"Swanberry Inn","487-4242/(800) 847-7926","8 Johnson St","Provincetown","MA","(MW)",NA,1998,"Accommodations","","8 Johnson St, Provincetown, MA",-70.1844412,42.0539469,"8 johnson st, provincetown, ma 02657, usa"
"The Castle","235-9949 9:30pm-4am, clsd Mon-Wed","8 Le Grand Blvd","Greenville","SC","(D),(S),(V),(YC),(PC),(*),(MW)",NA,1998,"Bars & Nightclubs","","8 Le Grand Blvd, Greenville, SC",-82.3681104,34.8361438,"8 legrand blvd, greenville, sc 29607, usa"
"Beth Ahavah","923-2003 8pm 1st, 3rd & 5th Fri","8 Letitia St","Philadelphia","PA","(*),(NS)",NA,1998,"Spiritual Groups","","8 Letitia St, Philadelphia, PA",-75.1432853,39.9493704,"8 letitia st, philadelphia, pa 19106, usa"
"William Page Inn","626-1506/(800) 364-4160 renovated 1908 home, full brkfst, jacuzzi","8 Martin St","Annapolis","MD","(GF),(NS)",NA,1998,"Accommodations","","8 Martin St, Annapolis, MD",-76.4866074,38.9793266,"8 martin st, annapolis, md 21401, usa"
"Northland Gay Men's Center","#309 722-8585","8 N 2nd Ave E","Duluth","MN","",NA,1998,"Info Lines & Services","","8 N 2nd Ave E, Duluth, MN",-92.095848,46.78933,"8 n 2nd ave e, duluth, mn 55802, usa"
"Choices","949-9380 8pm-1am Th-Sat, WO Fri","8 North Turnpike Rd","Wallingford","CT","(M),(D),(E)",NA,1998,"Bars & Nightclubs","","8 North Turnpike Rd, Wallingford, CT",-72.8316985,41.4678232,"mallgate plaza shopping center, 8 n turnpike rd, wallingford, ct 06492, usa"
"Edwards Travel Service","924-4443/(800) 669-9692","8 S Tulane St","Princeton","NJ","",NA,1998,"Travel Agents","","8 S Tulane St, Princeton, NJ",-74.6587911,40.350382,"8 s tulane st, princeton, nj 08542, usa"
"Ogunquit Beach Inn","646-1112/(888) 976-2463 cottage suites","8 School St","Ogunquit","ME","(MW)",NA,1998,"Accommodations","","8 School St, Ogunquit, ME",-70.5984292,43.2475275,"8 school st, ogunquit, me 03907, usa"
"Wildflowers","862-2241 seasonal, noon-10pm, til 11pm Fri-Sat","8 W Mechanic St","New Hope","PA","(*),(NS)",NA,1998,"Restaurants","","8 W Mechanic St, New Hope, PA",-74.9509494,40.3621006,"8 w mechanic st, new hope, pa 18938, usa"
"Pork Chop John’s","10:30am-7:45pm, clsd Sun","8 W Mercury","Butte","MT","",NA,1998,"Restaurants","","8 W Mercury, Butte, MT",-112.5357297,46.0111159,"8 w mercury st, butte, mt 59701, usa"
"Triangles","351-0620 8:30pm-2am, clsd Mon","8-1/2 NW 2nd St","Lawton","OK","(MW),(NH),(D),(S),(WC)",NA,1998,"Bars & Nightclubs","","8-1/2 NW 2nd St, Lawton, OK",-98.3907725,34.6098045,"8 nw 2nd st, lawton, ok 73507, usa"
"Sunshine Inn","","8-1/2 S Euclid Ave","St. Louis","MO","",NA,1998,"Restaurants","","8-1/2 S Euclid Ave, St. Louis, MO",-90.262089,38.6399766,"8 1/2 s euclid ave, st. louis, mo 63108, usa"
"Prime Timers--Charlotte","(First United Methodist Church) 561-2257 5pm 2nd Sun, social group for mature gay & bisexual men 40+","8th & Tryon","Charlotte","NC","",NA,1998,"Info Lines & Services","","8th & Tryon, Charlotte, NC",NA,NA,NA
"Pensacola Pride","435-7272, 11am-7pm, lesbigay","9 E Gregory","Pensacola","FL","",NA,1998,"Bookstores & Retail Shops","","9 E Gregory, Pensacola, FL",-87.2152695,30.4154637,"9 e gregory st, pensacola, fl 32502, usa"
"Elm Guest House","487-0793 seasonal","9 Johnson St","Provincetown","MA","(M)",NA,1998,"Accommodations","","9 Johnson St, Provincetown, MA",-70.1844024,42.0543384,"historic district, 9 johnson st, provincetown, ma 02657, usa"
"The Travel Company","652-6263","9 S Cleveland Ave","Wilmington","DE","(TA)",NA,1998,"Travel Agents","","9 S Cleveland Ave, Wilmington, DE",-75.5856349,39.7503972,"9 s cleveland ave, wilmington, de 19805, usa"
"Sea Gate B&B","331-2206 full brkfst","9 Tazewell Ave","Cape Charles","VA","(GF)",NA,1998,"Accommodations","","9 Tazewell Ave, Cape Charles, VA",-76.021171,37.2691835,"9 tazewell ave, cape charles, va 23310, usa"
"Frank's Place","443-8883 4pm-1am, til 2am Fri-Sat, patio","9 Tilley St","New London","CT","(MW),(D),(E),(WC)",NA,1998,"Bars & Nightclubs","","9 Tilley St, New London, CT",-72.0972273,41.3517465,"9 tilley st, new london, ct 06320, usa"
"Gifford House Inn & Dance Club","487-0688/(800) 434-0130 seasonal","9-11 Carver St","Provincetown","MA","(M)",NA,1998,"Accommodations","","9-11 Carver St, Provincetown, MA",-70.1900224,42.0496268,"9 carver st, provincetown, ma 02657, usa"
"Club 9-11","884-9533,5pm-1am","9-11 Williams St","Chelsea","MA","(MW),(NH),(D),(WC)",NA,1998,"Bars & Nightclubs","","9-11 Williams St, Chelsea, MA",-71.039096,42.3881356,"9 williams st, chelsea, ma 02150, usa"
"Center Street Bar & Grille","253-8102 6pm-2am, kitchen open til 10pm Th-Mon, clsd Sun, Mexican, plenty veggie","10 Center St","Eureka Springs","AR","(GF),(D),(F),(E)",NA,1998,"Bars & Nightclubs","","10 Center St, Eureka Springs, AR",-93.7366351,36.4027674,"10 center st, eureka springs, ar 72632, usa"
"Samson & Delilah","585-2221 lunch & dinner, cont'l","10 E 5th St","Tulsa","OK","(*),(NS)",NA,1998,"Restaurants","","10 E 5th St, Tulsa, OK",-95.9895642,36.1514466,"10 e 5th st, tulsa, ok 74103, usa"
"Phil's Place","782-6991 4pm-2:30am, patio","10 E Laclede","Youngstown","OH","(W),(NH),(WC)",NA,1998,"Bars & Nightclubs","","10 E Laclede, Youngstown, OH",-80.655633,41.075082,"10 e laclede ave, youngstown, oh 44507, usa"
"Rock Cottage Gardens","253-8659/(800)624-6646 full brkfst, hot tub","10 Eugenia St","Eureka Springs","AR","(MW)",NA,1998,"Accommodations","","10 Eugenia St, Eureka Springs, AR",-93.7456216,36.4001201,"10 eugenia st, eureka springs, ar 72632, usa"
"Diversions","451-3800 11am-2am, from 8pm wknds","10 Fountain St NW","Grand Rapids","MI","(MW),(D),(F),(V),(WC)",NA,1998,"Bars & Nightclubs","","10 Fountain St NW, Grand Rapids, MI",-85.6683991,42.9653823,"10 fountain st nw, grand rapids, mi 49503, usa"
"Grim’s Manor B&B","683-7089 full brkfst","10 Kern Rd","Kutztown","PA","(MW)",NA,1998,"Accommodations","","10 Kern Rd, Kutztown, PA",-75.7161288,40.5601835,"10 kern rd, kutztown, pa 19530, usa"
"Chelsea's Corner Cafe","253-6723 11am-2am, clsd Sun, patio","10 Mountain St","Eureka Springs","AR","(GF)",NA,1998,"Bars & Nightclubs","","10 Mountain St, Eureka Springs, AR",-93.7370427,36.403904,"10 mountain st, eureka springs, ar 72632, usa"
"Plumb Loco","227-6870 3pm-1am American/Southwestern, full bar","10 N !st St","Rehoboth Beach","DE","(*),(W)",NA,1998,"Cafes","","10 N !st St, Rehoboth Beach, DE",-75.1224448,38.6960389,"n st, delaware 19971, usa"
"Pages, Video & More","","10 N Euclid Ave","St. Louis","MO","",NA,1998,"Bookstores & Retail Shops","","10 N Euclid Ave, St. Louis, MO",-90.2621122,38.6398983,"10 n euclid ave, st. louis, mo 63108, usa"
"Rainbow's End","285-0005 10am-8pm, lesbigay","10 N Spruce St","Asheville","NC","",NA,1998,"Bookstores & Retail Shops","","10 N Spruce St, Asheville, NC",-82.5504062,35.5964815,"10 n spruce st, asheville, nc 28801, usa"
"Gull Cottage","Yarmouth Port 362-8747","10 Old Church St","Yarmouth Port","MA","(MW),(WC)",NA,1998,"Accommodations","Listed under ""Hyannis, MA""","10 Old Church St, Yarmouth Port, MA",-70.2284654,41.7062109,"10 old church st, yarmouth port, ma 02675, usa"
"Pearl Street Cafe","584-7810 9pm-1am Wed & Sat only","10 Pearl St","Northampton","MA","(MW),(D)",NA,1998,"Bars & Nightclubs","","10 Pearl St, Northampton, MA",-72.6274533,42.3188918,"10 pearl st, northampton, ma 01060, usa"
"Mano's Resturant & Bar","227-6707 5pm-10pm","10 Wilmington Ave","Rehoboth Beach","DE","",NA,1998,"Cafes","","10 Wilmington Ave, Rehoboth Beach, DE",-75.0770388,38.7154086,"10 wilmington ave, rehoboth beach, de 19971, usa"
"Atlantis","423-9748, call for events","10-12 S Washington St","Rochester","NY","(M),(D)",NA,1998,"Bars & Nightclubs","","10-12 S Washington St, Rochester, NY",-77.616468,43.154376,"10 s washington st, rochester, ny 14614, usa"
"Everybody's","(upstairs) opens 10pm Wed-Sat","11 E 4th St","Wilmington","DE","(MW),(D),(MR-AF),(AYOR)",NA,1998,"Bars & Nightclubs","","11 E 4th St, Wilmington, DE",-75.5507707,39.7403974,"11 e 4th st, wilmington, de 19801, usa"
"Colonel Issac","355-4629","11 Exchange St","Barre","MA","",NA,1998,"Restaurants","","11 Exchange St, Barre, MA",-72.104277,42.4226155,"11 exchange st, barre, ma 01005, usa"
"Scandals","252-2838 10pm-3am, clsd Sun-Wed, 18+ Th; also 'Getaways' Lounge (V)","11 Grove St","Asheville","NC","(MW),(D),(A),(S),(WC)",NA,1998,"Bars & Nightclubs","","11 Grove St, Asheville, NC",-82.5578621,35.593362,"11 grove st, asheville, nc 28801, usa"
"Grove Street Cafe","255-0010 6pm-1am Wed-Sat, full bar, outside deck; summer T-dance & BBQ, 2pm-8pm Sun","11 Grove St","Asheville","NC","",NA,1998,"Restaurants","","11 Grove St, Asheville, NC",-82.5578621,35.593362,"11 grove st, asheville, nc 28801, usa"
"House of a Thousand Flowers","Cazadero 632-5571 full brkfst, country B&B","11 Mosswood Cir","Cazadero","CA","(GF)",NA,1998,"Accommodations","Listed under ""Russian River""","11 Mosswood Cir, Cazadero, CA",-123.0557652,38.4769465,"11 mosswood cir, cazadero, ca 95421, usa"
"Red Star","375-4116 5pm-2am, clsd Mon-Tue","11 S 10th St","Reading","PA","(D),(L),(F),(S),(OC),(*),(M)",NA,1998,"Bars & Nightclubs","","11 S 10th St, Reading, PA",-75.9179484,40.3347165,"11 s 10th st, reading, pa 19602, usa"
"Singleton House B&B","253-9111/(800)833-3394 full brkfst, restored 1890s Victorian","11 Singleton","Eureka Springs","AR","(GF)",NA,1998,"Accommodations","","11 Singleton, Eureka Springs, AR",-93.7388132,36.4056787,"11 singleton st, eureka springs, ar 72632, usa"
"Ripcord","243-3412 1pm-2:30pm, from 5:30 Fri-Sat, patio","11 Superior St","Toledo","OH","(M),(L),(S)",NA,1998,"Bars & Nightclubs","","11 Superior St, Toledo, OH",-83.5488026,41.6171345,"11 superior st, rossford, oh 43460, usa"
"11th Street Diner","534-6373 til midnight, 24hrs on wknds, full bar","11th & Washington","Miami Beach","FL","",NA,1998,"Restaurants","Listed under ""Miami Beach/South Beach""","11th & Washington, Miami Beach, FL",NA,NA,NA
"Free at Last AA","(united Church) 352-7344 7pm Th","11th & Washington","Olympia","WA","(*),(NS)",NA,1998,"Info Lines & Services","","11th & Washington, Olympia, WA",NA,NA,NA
"The Brass Key Guesthouse","487-9005/(800) 842-9858 heated spa","12 Carver St","Provincetown","MA","(*),(M),(SW),(WC),(TA)",NA,1998,"Accommodations","","12 Carver St, Provincetown, MA",-70.1902973,42.0495474,"12 carver st, provincetown, ma 02657, usa"
"Tucker Inn","487-0381/(800) 477-1867 seasonal","12 Center St","Provincetown","MA","(GF)",NA,1998,"Accommodations","","12 Center St, Provincetown, MA",-70.1852323,42.0537309,"historic district, 12 center st, provincetown, ma 02657, usa"
"The Quay","294-4446 gourmet, some veggie","12 Duval St","Key West","FL","",NA,1998,"Restaurants","","12 Duval St, Key West, FL",-81.806402,24.560337,"12 duval st, key west, fl 33040, usa"
"Tradewinds Inn","487-0138/(800) 487-0132 also condo","12 Johnson St","Provincetown","MA","(MW)",NA,1998,"Accommodations","","12 Johnson St, Provincetown, MA",-70.1847406,42.054197,"historic district, 12 johnson st, provincetown, ma 02657, usa"
"Ms. Kitty’s Adult Store","","12 N Wilson","Bozeman","MT","",NA,1998,"Erotica","","12 N Wilson, Bozeman, MT",-111.0385518,45.6796432,"12 n willson ave, bozeman, mt 59715, usa"
"12 Washington","Venice 822-5566 dinner from 6pm continental dinner","12 Washington Blvd","Venice","CA","",NA,1998,"Restaurants","Listed under ""L.A-West L.A. & Santa Monica""","12 Washington Blvd, Venice, CA",-118.4663396,33.9790832,"12 washington blvd, marina del rey, ca 90292, usa"
"Beaconlite Inn","487-9603/(800) 696-9603","12 Winthrop St","Provincetown","MA","(*),(MW),(TA)",NA,1998,"Accommodations","","12 Winthrop St, Provincetown, MA",-70.190993,42.0481898,"12 winthrop st, provincetown, ma 02657, usa"
"The Gay Beach","","12th St & Ocean","Miami Beach","FL","",NA,1998,"Entertainment & Recreation","Listed under ""Miami Beach/South Beach""","12th St & Ocean, Miami Beach, FL",NA,NA,NA
"Abington B&B","(at W. 12th) 243-5384","13 8th Ave","New York City","NY","(MW),(NS)",NA,1998,"Accommodations","Listed under ""N.Y.C. -- Soho, Greenwich & Chelsea""","13 8th Ave, New York City, NY",-74.004876,40.7376808,"13 8th ave, new york, ny 10014, usa"
"The Club New Orleans","646-6655 seasonal, 9pm-1am, from 4pm Sun, clsd Wed","13 Main St","Ogunquit","ME","(*),(M),(D),(F),(V)",NA,1998,"Bars & Nightclubs","","13 Main St, Ogunquit, ME",-70.6013032,43.2387622,"13 main st, ogunquit, me 03907, usa"
"Centennial House","324-9414 full brkfst","13 Woods Ln","Long Island","NY","(GF),(SW),(NS)",NA,1998,"Accommodations","","13 Woods Ln, Long Island, NY",-72.2730163,40.9554373,"13 woods ln, southampton, ny 11968, usa"
"The Volcano Ranch Inn & Hostel","965-8800","13-3775 Kalapana Hwy","Pahoa, Hawaii","HI","(GF)",NA,1998,"Accommodations","Listed under ""Hawaii (Big Island)""","13-3775 Kalapana Hwy, Pahoa, Hawaii, HI",-154.877858,19.430423,"13 kalapana - kapoho rd, pāhoa, hi 96778, usa"
"Rainbow Dreams Cottage","936-9883 oceanfront cottage","13-6412 Kalapana Beach Rd","Hilo, Hawaii","HI","(GF),(NS)",NA,1998,"Accommodations","Listed under ""Hawaii (Big Island)""","13-6412 Kalapana Beach Rd, Hilo, Hawaii, HI",-155.084887,19.7216023,"hilo, hi 96720, usa"
"Integrity/Western MA","(chapel) 532-5060 7pm last Sun","14 Boltwood Ave","Amherst","MA","",NA,1998,"Spiritual Groups","","14 Boltwood Ave, Amherst, MA",-72.5184039,42.374996,"14 boltwood ave, amherst, ma 01002, usa"
"Revere Guesthouse","487-2292","14 Court St","Provincetown","MA","(MW),(TA)",NA,1998,"Accommodations","","14 Court St, Provincetown, MA",-70.1906476,42.0488451,"historic district, 14 court st, provincetown, ma 02657, usa"
"Steven Travels","321-6100/(800) 500-6921","14 Dartmouth St","Malden","MA","(TA)",NA,1998,"Travel Agents","","14 Dartmouth St, Malden, MA",-71.0683389,42.4269475,"14 dartmouth st, malden, ma 02148, usa"
"The Taylor House Inn","763-7581/(800) 382-9982 full brkst, romantic 1905 house","14 N 7th St","Wilmington","NC","",NA,1998,"Accommodations","","14 N 7th St, Wilmington, NC",-77.9404226,34.2366886,"14 n 7th st, wilmington, nc 28401, usa"
"Madrid Lodging","471-3450, suite, hot tub","14 Opera House Rd","Madrid","NM","(GF),(NS)",NA,1998,"Accommodations","","14 Opera House Rd, Madrid, NM",-106.1537058,35.4074862,"14 opera house rd, los cerrillos, nm 87010, usa"
"The United","#103 255-8582 9am-9pm, clsd wknds, drop-in center, library, newsletter; AA group meets 6pm Sat","14 West Mifflin St","Madison","WI","(*),(NS)",NA,1998,"Info Lines & Services","","14 West Mifflin St, Madison, WI",-89.3861348,43.0753076,"14 w mifflin st, madison, wi 53703, usa"
"Haymarket Cafe","586-9969 9am-midnight, clsd Mon","15 Amber Ln","Northampton","MA","",NA,1998,"Restaurants","","15 Amber Ln, Northampton, MA",-72.6412013,42.3250896,"northampton, ma, usa"
"Travelstar","227-7233/(800) 338-1414","15 Apple Tree Trl","Westport","CT","(TA)",NA,1998,"Travel Agents","","15 Apple Tree Trl, Westport, CT",-73.3532395,41.108744,"15 appletree trail, westport, ct 06880, usa"
"Vickery's of Beaufain Street","577-5300 11am-3am, Cuban influence","15 Beaufain St","Charleston","SC","(*)",NA,1998,"Restaurants","","15 Beaufain St, Charleston, SC",-79.9344427,32.7808639,"15 beaufain st, charleston, sc 29401, usa"
"Airborne for Men","(Rte 9) 366-3807","15 Belmont St","Northborough","MA","",NA,1998,"Erotica","","15 Belmont St, Northborough, MA",-71.6620717,42.2835019,"15 belmont st, northborough, ma 01532, usa"
"Daily Planet","862-9647 11:30am-10:30pm, full bar til 1 am","15 Center St","Burlington","VT","(*),(NS)",NA,1998,"Restaurants","","15 Center St, Burlington, VT",-73.2117683,44.4777915,"15 center st, burlington, vt 05401, usa"
"Oscar Wilde Memorial Bookshop","(at 7th Ave.) 255-8097 II 30am-9pm, lesbigay","15 Christopher St","New York City","NY","",NA,1998,"Bookstores & Retail Shops","Listed under ""N.Y.C. -- Soho, Greenwich & Chelsea""","15 Christopher St, New York City, NY",-74.0005796,40.7342225,"15 christopher st, new york, ny 10014, usa"
"Red Inn","487-0050 elegant waterfront lodging & dining","15 Commercial St","Provincetown","MA","(MW)",NA,1998,"Accommodations","","15 Commercial St, Provincetown, MA",-70.1950994,42.0392002,"historic district, 15 commercial st, provincetown, ma 02657, usa"
"Windsor Court","487-2620 hot tub, kitchens","15 Cottage St","Provincetown","MA","(MW),(SW)",NA,1998,"Accommodations","","15 Cottage St, Provincetown, MA",-70.1940107,42.0448067,"historic district, 15 cottage st, provincetown, ma 02657, usa"
"Walter's Cafe","871-9258 11am-9pm, from 5pm Sun","15 Exchange St","Portland","ME","",NA,1998,"Restaurants","","15 Exchange St, Portland, ME",-70.2534878,43.6569016,"15 exchange st, portland, me 04101, usa"
"Beach House B&B","227-7074/(800) 283-4667","15 Hickman St","Rehoboth Beach","DE","(GF),(SW)",NA,1998,"Accommodations","","15 Hickman St, Rehoboth Beach, DE",-75.0775206,38.7125594,"15 hickman st, rehoboth beach, de 19971, usa"
"The Avalon","262-2424 9pm-2am Sun only","15 Lansdowne St","Boston","MA","(M),(D),(YC),(*)",NA,1998,"Bars & Nightclubs","","15 Lansdowne St, Boston, MA",-71.0957386,42.3473623,"15 lansdowne st, boston, ma 02215, usa"
"Mini Cinema","955-9756","15 N 5th St","Fort Dodge","IA","",NA,1998,"Erotica","","15 N 5th St, Fort Dodge, IA",-94.1906912,42.505078,"15 n 5th st, fort dodge, ia 50501, usa"
"Ground Zero/The Front","Minneapolis 378-5115 9pm-1am, clsd Sun-Tue, 'The Front' from 7pm, clsd Sun-Mon, more gay Th w/ 'Bondage-A-Go-Go'","15 NE 4th St","Minneapolis","MN","(GF),(D),(WC)",NA,1998,"Bars & Nightclubs","Listed under ""Minneapolis/St Paul, MN""","15 NE 4th St, Minneapolis, MN",-93.261569,45.0030715,"4th st ne & ne 15th ave, minneapolis, mn 55413, usa"
"Prairie Lights Bookstore","337-2681 9am-10pm, til 6pm wknds","15 S Dubuque St","Iowa City","IA","(WC)",NA,1998,"Bookstores & Retail Shops","","15 S Dubuque St, Iowa City, IA",-91.5334029,41.6607161,"15 s dubuque st, iowa city, ia 52240, usa"
"Our Hide-away","534-6426 6pm-2am, clsd Mon","16 Bolduc Ln","Chicopee","MA","(W),(D),(WC)",NA,1998,"Bars & Nightclubs","","16 Bolduc Ln, Chicopee, MA",-72.601917,42.1901091,"16 bolduc ln, chicopee, ma 01013, usa"
"Integrity/Waterbury Area","(St John's) 754-3116 call for mtg times","16 Church St","Waterbury","CT","",NA,1998,"Spiritual Groups","","16 Church St, Waterbury, CT",-73.044138,41.5568236,"16 church st, waterbury, ct 06702, usa"
"Raspberry Cafe","988-0833 brkfst & lunch","16 Main Ave","Asbury Park","NJ","",NA,1998,"Restaurants","","16 Main Ave, Asbury Park, NJ",-74.0048153,40.2114366,"16 main ave, ocean grove, nj 07756, usa"
"Loading Zone","361-4119 2pm-1:30am, clsd Sun","16 S Euclid","St. Louis","MO","(*),(MW),(V),(WC)",NA,1998,"Bars & Nightclubs","","16 S Euclid, St. Louis, MO",-90.2620226,38.6397264,"16 s euclid ave, st. louis, mo 63108, usa"
"Earth Spirits","842-3855 10am-6pm, til 8pm Fri, noon-5pm Sun, New Age bookstore & center","16 W Front St","Red Bank","NJ","",NA,1998,"Bookstores & Retail Shops","","16 W Front St, Red Bank, NJ",-74.0660615,40.3522508,"16 w front st, red bank, nj 07701, usa"
"Philadelphia Visitors Bureau","636-4400/(800) 225-5745 publishes 'Philadelphia Gay & Lesbian Travel News'","16th St & JFK Blvd","Philadelphia","PA","(TA)",NA,1998,"Info Lines & Services","","16th St & JFK Blvd, Philadelphia, PA",-104.9904227,39.7438685,"16th st mall, denver, co 80202, usa"
"Chancellor Inn","487-9423","17 Center St","Provincetown","MA","(M)",NA,1998,"Accommodations","","17 Center St, Provincetown, MA",-70.1853714,42.0542624,"17 center st, provincetown, ma 02657, usa"
"MCC of the Living Spring","(Unitarian Church) 253-9337 7pm Sun","17 Elk St","Eureka Springs","AR","",NA,1998,"Spiritual Groups","","17 Elk St, Eureka Springs, AR",-93.7399562,36.4045386,"17 elk st, eureka springs, ar 72632, usa"
"Faces II","233-3520 noon-3am, patio","17 Lincoln St","Savannah","GA","(M),(NH),(F)",NA,1998,"Bars & Nightclubs","","17 Lincoln St, Savannah, GA",-81.0881591,32.0794775,"17 lincoln st, savannah, ga 31401, usa"
"Hollowbrook Travel at Allsport","Fishkill (914) 896-0227","17 Old Main St","Fishkill","NY","(TA)",NA,1998,"Travel Agents","Listed under ""Catskill Mtns., NY""","17 Old Main St, Fishkill, NY",-73.8957056,41.5346766,"17 old main st, fishkill, ny 12524, usa"
"Dignity/Integrity","(Church of St. Luke & St. Simon Cyrene) 262-2170 5pm Sun","17 S Fitzhugh","Rochester","NY","",NA,1998,"Spiritual Groups","","17 S Fitzhugh, Rochester, NY",-77.6141871,43.1545412,"17 s fitzhugh st, rochester, ny 14614, usa"
"Outpost","535-4100 5pm-1:30am, clsd Sun","17 S Vandeventer","St. Louis","MO","(M),(NH)",NA,1998,"Bars & Nightclubs","","17 S Vandeventer, St. Louis, MO",-90.2421961,38.6356179,"17 s vandeventer ave, st. louis, mo 63108, usa"
"Tapas","454-8797 7am-3pm Mon-Wed, til 1pm Th, til 4am Fri-Sat, til 9pm Sun","17 W 9th St","Erie","PA","(*),(NS)",NA,1998,"Restaurants","","17 W 9th St, Erie, PA",-80.0837617,42.1260129,"17 w 9th st, erie, pa 16501, usa"
"Champs","(at 5th & 6th Aves.) 4pm-4am","17 W 19th St","New York City","NY","(*),(M),(D),(S)",NA,1998,"Bars & Nightclubs","Listed under ""N.Y.C. -- Soho, Greenwich & Chelsea""","17 W 19th St, New York City, NY",-73.9924795,40.7396687,"17 w 19th st, new york, ny 10011, usa"
"Chez Claire B&B","685-4666 4-story townhouse","17 W Chase St","Baltimore","MD","(GF)",NA,1998,"Accommodations","","17 W Chase St, Baltimore, MD",-76.6172197,39.3021825,"17 w chase st, baltimore, md 21201, usa"
"MCC Holy Covenant","(Unitarian Church) 325-8488 6pm Sun","17 W Maple","Hinsdale","IL","(WC)",NA,1998,"Spiritual Groups","","17 W Maple, Hinsdale, IL",-87.930467,41.8049428,"17 w maple st, hinsdale, il 60521, usa"
"North Street Bookshop","Endicott 785-1588","17 Washington Ave","Endicott","NY","",NA,1998,"Erotica","Listed under ""Binghamton, NY""","17 Washington Ave, Endicott, NY",-76.0480104,42.1041193,"17 washington ave, endicott, ny 13760, usa"
"The Berghoff","427-3170 11am-9pm, til 10pm Sat, clsd Sun, great mashed potatoes","17 West Adams St","Chicago","IL","",NA,1998,"Restaurants","Listed under ""Chicago - Near North""","17 West Adams St, Chicago, IL",-87.6283942,41.879232,"17 w adams st, chicago, il 60604, usa"
"Cobalt","232-6969 4pm-2am, til 3am Fri-Sat also 'La Fonda' resturants","17th & R St NW","Washington","DC","(MW),(D),(V)",NA,1998,"Bars & Nightclubs","","17th & R St NW, Washington, DC",NA,NA,NA
"The Clarendon House 1","487-1645","18 Bradford St","Provincetown","MA","(GF)",NA,1998,"Accommodations","","18 Bradford St, Provincetown, MA",-70.1628568,42.0616654,"historic district, 18 bradford st, provincetown, ma 02657, usa"
"Custom House Saloon","use Le Salon entrance 783-8813","18 Custom House Ave","Baltimore","MD","(M),(S)",NA,1998,"Bars & Nightclubs","","18 Custom House Ave, Baltimore, MD",-76.6099442,39.2893111,"18 custom house ave, baltimore, md 21202, usa"
"Mousse Odile","962-5393 brkfst, lunch & dinner, French, patio","18 E Cota St","Santa Barbara","CA","",NA,1998,"Restaurants","","18 E Cota St, Santa Barbara, CA",-119.6961427,34.418204,"18 e cota st, santa barbara, ca 93101, usa"
"The University Club","(enter rear) 378-6814 5pm-2am, til 4am Fri-Sat, til 11pm Sun, patio","18 E University Ave","Gainesville","FL","(MW),(D),(S),(WC)",NA,1998,"Bars & Nightclubs","","18 E University Ave, Gainesville, FL",-82.3243636,29.6521745,"18 e university ave, gainesville, fl 32601, usa"
"Duluth Sauna","726-1388","18 N 1st Ave E","Duluth","MN","(*),(GF)",NA,1998,"Gyms & Health Clubs","","18 N 1st Ave E, Duluth, MN",-92.0973855,46.7884552,"18 n 1st ave e, duluth, mn 55802, usa"
"Cup-A-Ccinos Coffeehouse","456-1151 7:30am-9pm til midnight Th-Sat, from 9am Sat, clsd Sun","18 N Park Row","Erie","PA","(E),(WC)",NA,1998,"Cafes","","18 N Park Row, Erie, PA",-80.0860327,42.1299015,"18 n park row, erie, pa 16501, usa"
"La Cage","554-3615 7:30pm-2am, til 3am Fri-Sat, nude go-go boys","18 O St SE","Washington","DC","(V),(YC),(*),(S)",NA,1998,"Bars & Nightclubs","","18 O St SE, Washington, DC",-76.9689832,38.8729477,"o st se, washington, dc, usa"
"Ireland House","487-7132","18 Pearl St","Provincetown","MA","(MW)",NA,1998,"Accommodations","","18 Pearl St, Provincetown, MA",-70.1840449,42.0549727,"historic district, 18 pearl st, provincetown, ma 02657, usa"
"Just Right Reservations","2nd flr. 423-3550 covers Boston, NYC & Provincetown","18 Piedmont St","Boston","MA","(TA)",NA,1998,"Travel Agents","","18 Piedmont St, Boston, MA",-71.0679273,42.3499338,"18 piedmont st, boston, ma 02116, usa"
"Yakima Magazine Center","248-8598","18 S 1st St","Yakima","WA","(*),(NS)",NA,1998,"Erotica","","18 S 1st St, Yakima, WA",-120.5062034,46.6014474,"18 s 1st st, yakima, wa 98901, usa"
"Surfside Resort Hotel","347-0808/(888) 277-7873 sundeck, restaurant in summer","18 S Mt Vernon Ave","Atlantic City","NJ","(MW)",NA,1998,"Accommodations","","18 S Mt Vernon Ave, Atlantic City, NJ",-74.4309765,39.360121,"18 s mt vernon ave, atlantic city, nj 08401, usa"
"Priscilla's Book Store","873-2774 clsd Sun","18 Water St","Waterville","ME","",NA,1998,"Erotica","","18 Water St, Waterville, ME",-69.6322375,44.5450381,"18 water st, waterville, me 04901, usa"
"More Light","Hanouver Presb. Church 764-1594 1st & 3rd Sun, dinner 5:30pm & worship 6:45pm","18th & Baynard","Wilmington","DE","",NA,1998,"Spiritual Groups","","18th & Baynard, Wilmington, DE",NA,NA,NA
"Phoenix Rising","355-7939/(800) 719-1690 11am-7pm, lesbigay","19 N Belmont Ave","Richmond","VA","(WC)",NA,1998,"Bookstores & Retail Shops","","19 N Belmont Ave, Richmond, VA",-77.4790325,37.5545177,"19 n belmont ave, richmond, va 23221, usa"
"Winterwood","Petersham  724-8885 Greek Revival mansion w/ fireplaces","19 N Main St","Petersham","MA","(GF)",NA,1998,"Accommodations","Listed under ""Worcester, MA""","19 N Main St, Petersham, MA",-72.1858998,42.4910067,"19 n main st, petersham, ma 01366, usa"
"19 Bar","Minneapolis 871-5553 3pm-1am, from 1pm wknds","19 W 15th St","Minneapolis","MN","(M),(NH),(BW),(WC)",NA,1998,"Bars & Nightclubs","Listed under ""Minneapolis/St Paul, MN""","19 W 15th St, Minneapolis, MN",-93.2788049,44.9675268,"19 w 15th st, minneapolis, mn 55403, usa"
"Roberta Sonnlno Travel","(at 7th Ave ) 714-2540","19 W 34th St","New York City","NY","(TA)",NA,1998,"Travel Agents","Listed under ""N.Y.C. -- Midtown""","19 W 34th St, New York City, NY",-73.9859014,40.7492988,"19 w 34th st., new york, ny 10001, usa"
"Stagedoor","886-9323, 5pm-4am, piano bar, patio","20 Allen St","Buffalo","NY","(M),(NH),(E),(K),(OC)",NA,1998,"Bars & Nightclubs","","20 Allen St, Buffalo, NY",-78.8708571,42.8992069,"20 allen st, buffalo, ny 14202, usa"
"The Iron Horse","584-0610 8:30pm-?","20 Center St","Northampton","MA","(GF),(F),(E)",NA,1998,"Bars & Nightclubs","","20 Center St, Northampton, MA",-72.6317297,42.3189849,"20 center st, northampton, ma 01060, usa"
"Chesterfield Inn","987-3682 seasonal, Cornish/American, some veggie, full bar","20 Commerce St","Mineral Point","WI","(*),(NS)",NA,1998,"Restaurants","","20 Commerce St, Mineral Point, WI",-90.177197,42.8579209,"20 commerce st, mineral point, wi 53565, usa"
"Pride & Joy","585-0683 11am-6pm, til 8pm Th, noon-5pm Sun","20 Crafts Ave","Northampton","MA","(WC)",NA,1998,"Bookstores & Retail Shops","","20 Crafts Ave, Northampton, MA",-72.631598,42.3172901,"20 crafts ave, northampton, ma 01060, usa"
"The Lighthouse Inn","226-0407/600-9092, B&B, also apt w/ full kitchen & private deck (weekly rental)","20 Delaware Ave","Rehoboth Beach","DE","(MW),(NS)",NA,1998,"Accommodations","","20 Delaware Ave, Rehoboth Beach, DE",-75.0778387,38.7145936,"20 delaware ave, rehoboth beach, de 19971, usa"
"Club 20","261-9111 11am-2:30am, patio","20 E Duncan","Columbus","OH","(M),(NH),(S)",NA,1998,"Bars & Nightclubs","","20 E Duncan, Columbus, OH",-83.0110662,40.0158274,"20 e duncan st, columbus, oh 43202, usa"
"Le Place","992-8156 2pm-2am, from noon wknds","20 Kenyon St","New Bedford","MA","(*),(MW),(D)",NA,1998,"Bars & Nightclubs","","20 Kenyon St, New Bedford, MA",-70.9240522,41.6541812,"20 kenyon st, new bedford, ma 02740, usa"
"Cabana Gardens B&B","227-5429, roof-top deck","20 Lake Ave","Rehoboth Beach","DE","(MW),(NS)",NA,1998,"Accommodations","","20 Lake Ave, Rehoboth Beach, DE",-75.0835666,38.7172941,"20 lake ave, rehoboth beach, de 19971, usa"
"Club Washington","upstairs 488-7317 24hrs","20 O St SE","Washington","DC","(MO),(PC)",NA,1998,"Men's Clubs","","20 O St SE, Washington, DC",-77.0084185,38.8731042,"20 o st se, washington, dc 20003, usa"
"AA Gay/Lesbian","(church) 222-2211 8pm Sat","20 W 1st St","Dayton","OH","",NA,1998,"Info Lines & Services","","20 W 1st St, Dayton, OH",-84.19379,39.7618961,"20 w first st, dayton, oh 45402, usa"
"Waldorf Cafe","985-1836 dinner, full bar","20th & Lombard St","Philadelphia","PA","(WC)",NA,1998,"Restaurants","","20th & Lombard St, Philadelphia, PA",NA,NA,NA
"Congregation Tikvah Chadashah","329-2590 8:15pm 2nd & 4th Fri lesbigay Shabbat services","20th Ave E & E Prospect","Seattle","WA","(*),(NS)",NA,1998,"Spiritual Groups","","20th Ave E & E Prospect, Seattle, WA",NA,NA,NA
"Ann St. Entertainment Center","267-9760","21 Ann St","New York City","NY","",NA,1998,"Erotica","Listed under ""N.Y.C. -- Soho, Greenwich & Chelsea""","21 Ann St, New York City, NY",-74.0075009,40.7109117,"21 ann st, new york, ny 10038, usa"
"Man-Ray","Cambridge 864-0400 9pm-1am, clsd Mon-Tue, gay night Th","21 Brookline St","Boston","MA","(GF),(D),(A),(YC)",NA,1998,"Bars & Nightclubs","","21 Brookline St, Boston, MA",-71.0715865,42.3388577,"21 e brookline st, boston, ma 02118, usa"
"Shaw's Crab House","527-2722 lunch & dinner, full bar","21 E Hubbard","Chicago","IL","",NA,1998,"Restaurants","Listed under ""Chicago - Near North""","21 E Hubbard, Chicago, IL",-87.6271084,41.8899505,"21 e hubbard st, chicago, il 60611, usa"
"Playland","338-7254 8pm-2am, from noon Sun, cruisy, hustlers","21 Essex","Boston","MA","(M)",NA,1998,"Bars & Nightclubs","","21 Essex, Boston, MA",-71.0619906,42.3522752,"19-21 essex st, boston, ma 02111, usa"
"Admiral's Court","462-5072/(800) 248-6669 motel","21 Hendricks Isle","Fort Lauderdale","FL","(MW),(SW),(TA)",NA,1998,"Accommodations","","21 Hendricks Isle, Fort Lauderdale, FL",-80.1221605,26.1212127,"21 hendricks isle, fort lauderdale, fl 33301, usa"
"Video Exchange","244-7004 clsd Sun","21 Stowe St","Waterbury","VT","(*),(NS)",NA,1998,"Erotica","","21 Stowe St, Waterbury, VT",-72.7553075,44.3382397,"21 stowe st, waterbury village historic district, vt 05676, usa"
"A-MEN","754-7742 9pm-2am, clsd Mon-Tue","21-23 Foster St","Worcester","MA","(M),(D),(A),(WC)",NA,1998,"Bars & Nightclubs","","21-23 Foster St, Worcester, MA",-71.8001608,42.2643286,"21 foster st, worcester, ma 01608, usa"
"Gloria Hole@Nowbar","(at Leroy St.) 802-9502 10pm Th & Sun, trannies & friends","22 7th Ave S","New York City","NY","(TG)",NA,1998,"Bars & Nightclubs","Listed under ""N.Y.C. -- Soho, Greenwich & Chelsea""","22 7th Ave S, New York City, NY",-74.0045658,40.7301848,"22 7th ave s, new york, ny 10014, usa"
"Land's End Inn","487-0706/(800) 276-7088","22 Commercial St","Provincetown","MA","(GF)",NA,1998,"Accommodations","","22 Commercial St, Provincetown, MA",-70.1956201,42.0400513,"historic district, 22 commercial st, provincetown, ma 02657, usa"
"Oasis Guest House","267-2262 Back Bay location","22 Edgerly Rd","Boston","MA","(M),(TA),(*)",NA,1998,"Accommodations","","22 Edgerly Rd, Boston, MA",-71.0877653,42.3458633,"22 edgerly rd, boston, ma 02115, usa"
"Front Runner/Manchester Civic Club","623-6477 3pm-1:30am","22 Fir St","Manchester","NH","(*),(MW),(D),(TG),(E),(PC)",NA,1998,"Bars & Nightclubs","","22 Fir St, Manchester, NH",-71.4643285,42.9968311,"22 fir st, manchester, nh 03101, usa"
"Midtown Athletic Club","798-9703 8am-8pm","22 Front St 2nd flr","Worcester","MA","",NA,1998,"Gyms & Health Clubs","","22 Front St 2nd flr, Worcester, MA",-71.8013082,42.2633127,"22 front st 2nd floor, worcester, ma 01608, usa"
"Hawthorne Lane","777-9779","22 Hawthrone St","San Francisco","CA","",NA,1998,"Restaurants","Listed under ""S.F.-South of Market""","22 Hawthrone St, San Francisco, CA",-122.3992069,37.7854381,"22 hawthorne st, san francisco, ca 94105, usa"
"Patrik Travel","","22 N Euclid Av","St. Louis","MO","(TA)",NA,1998,"Travel Agents","","22 N Euclid Av, St. Louis, MO",-90.2617842,38.6408126,"22 n euclid ave, st. louis, mo 63108, usa"
"Cairo","422-3595 clsd Sun-Tue, more gay Th, rooftop patio","22 S Magnolia","Orlando","FL","(*),(GF),(D),(WC)",NA,1998,"Bars & Nightclubs","","22 S Magnolia, Orlando, FL",-81.3777693,28.5417305,"22 s magnolia ave, orlando, fl 32801, usa"
"Club Twenty-Two","792-5068 4pm-2am","22 South St","Glens Falls","NY","(M),(D),(S)",NA,1998,"Bars & Nightclubs","","22 South St, Glens Falls, NY",-73.6465586,43.3101143,"22 south st, glens falls, ny 12801, usa"
"Metro Club & Cafe","549-2083 4pm-1am, til 2am Fri-Sat, from 3 pm Sun, clsd Mon, patio","22 Union Pl","Hartford","CT","(*),(MW),(D),(F),(S)",NA,1998,"Bars & Nightclubs","","22 Union Pl, Hartford, CT",-72.6811965,41.7682886,"22 union pl, hartford, ct 06103, usa"
"Health & Fitness","929-6789, day passes avail","22 W 19th St","New York City","NY","(MW)",NA,1998,"Gyms & Health Clubs","Listed under ""N.Y.C. -- Soho, Greenwich & Chelsea""","22 W 19th St, New York City, NY",-73.9928746,40.7396109,"22 w 19th st, new york, ny 10011, usa"
"La La Land","227-3887 6pm-1am (seasonal), full bar, patio","22 Wilmington Ave","Rehoboth Beach","DE","",NA,1998,"Cafes","","22 Wilmington Ave, Rehoboth Beach, DE",-75.0780654,38.715362,"22 wilmington ave, rehoboth beach, de 19971, usa"
"Brinley Victorian Inn","849-7645","23 Brinley St","Newport","RI","(GF),(NS)",NA,1998,"Accommodations","","23 Brinley St, Newport, RI",-71.3081004,41.4880562,"23 brinley st, newport, ri 02840, usa"
"Everyone's Books","254-8160 10am-6pm, til 8pm Fri, 11am-4pm Sun","23 Elliott St","Brattleboro","VT","(WC)",NA,1998,"Bookstores & Retail Shops","","23 Elliott St, Brattleboro, VT",-72.558749,42.852141,"23 elliot st, brattleboro, vt 05301, usa"
"Friends/Cellblock","781-5878 11am-2am 'Cellblock' from 10pm","23 Hampden St","Springfield","MA","(MW),(D),(V),(WC)",NA,1998,"Bars & Nightclubs","","23 Hampden St, Springfield, MA",-72.5094303,42.1580174,"23 hampden st, springfield, ma 01151, usa"
"The Ardmore Inn","457-9652/(800) 497-9652","23 Pleasant St","Woodstock","VT","(GF)",NA,1998,"Accommodations","","23 Pleasant St, Woodstock, VT",-72.5137888,43.6265974,"23 pleasant st, woodstock, vt 05091, usa"
"The Secret Cafe","444-9020, call for hours, coffeehouse & gallery","23 S Palafox Pl","Pensacola","FL","(E)",NA,1998,"Cafes","","23 S Palafox Pl, Pensacola, FL",-87.2153596,30.4119912,"23 s palafox st, pensacola, fl 32502, usa"
"The Amazon","(Bay St.), Stapleton 816-0713, 9pm-4am, unconfirmed","23 Sands St","Stapleton","NY","(MW),(D)",NA,1998,"Bars & Nightclubs","Listed under ""N.Y.C. -- Staten Island""","23 Sands St, Stapleton, NY",-74.0755084,40.6292636,"23 sands st, staten island, ny 10304, usa"
"Graduate","622-9233 11am-1am, cruisy, game room","23 W University Ave","Tuscon","AZ","(M),(D),(S),(WC)",NA,1998,"Bars & Nightclubs","","23 W University Ave, Tuscon, AZ",-110.9724985,32.231604,"23 w university blvd, tucson, az 85705, usa"
"MCC","(1st Congregational Church) 345-5963 4pm Sun","23rd & Harris","Eugene","OR","(*),(NS)",NA,1998,"Spiritual Groups","","23rd & Harris, Eugene, OR",NA,NA,NA
"Lambda AA","(ACCT office) 684-2140 8pm Tue & Th & 7pm Sun","23rd & Ursula","Galveston","TX","(*),(NS)",NA,1998,"Info Lines & Services","","23rd & Ursula, Galveston, TX",NA,NA,NA
"AA Gay/Lesbian","(First Cong. Church) 344-6611 8pm Sun & Tue","23rd & Woodlawn","Boise","ID","",NA,1998,"Info Lines & Services","","23rd & Woodlawn, Boise, ID",NA,NA,NA
"Lucky Cheng's","(at 2nd St.) 473-0516, 6pm-midnight, Chinese, full bar, live shows","24 1st Ave","New York City","NY","(*)",NA,1998,"Restaurants","Listed under ""N.Y.C. -- Soho, Greenwich & Chelsea""","24 1st Ave, New York City, NY",-73.9879743,40.7236675,"24 1st ave., new york, ny 10009, usa"
"Weber's Travel Services","229-4846","24 Cedar St","New Britain","CT","",NA,1998,"Travel Agents","","24 Cedar St, New Britain, CT",-72.7874368,41.6672501,"24 cedar st, new britain, ct 06052, usa"
"24 Henry","864-5686/(800) 900-5686 also 1-bdrm apt. avail., 1 blkfrom guesthouse","24 Henry St","San Francisco","CA","(M),(NS),(TA)",NA,1998,"Accommodations","Listed under ""S.F.-Castro & Noe Valley""","24 Henry St, San Francisco, CA",-122.4321037,37.7669153,"24 henry st, san francisco, ca 94114, usa"
"Follies","upstairs 484-0323 24hrs","24 O St SE","Washington","DC","",NA,1998,"Erotica","","24 O St SE, Washington, DC",-77.0080681,38.8731895,"24 o st se, washington, dc 20003, usa"
"Idle Isle","Brigham City  734-2468 11am-8pm, til 9pm Fri-Sat, clsd Sun","24 S Main St","Brigham City","UT","(*),(NS)",NA,1998,"Restaurants","Listed under ""Salt Lake City, UT""","24 S Main St, Brigham City, UT",-112.0161752,41.5099079,"24 s main st, brigham city, ut 84302, usa"
"Obelisk the Bookstore","#A 266-2665 10am-10pm, noon-8pm Sun, lesbigay","24 W Camelback Rd","Phoenix","AZ","(WC)",NA,1998,"Bookstores & Retail Shops","","24 W Camelback Rd, Phoenix, AZ",-112.0758149,33.5097773,"24 w camelback rd, phoenix, az 85013, usa"
"JK Dwellings","#B 248-4959","24 W Camelback Rd","Phoenix","AZ","",NA,1998,"Bookstores & Retail Shops","","24 W Camelback Rd, Phoenix, AZ",-112.0758149,33.5097773,"24 w camelback rd, phoenix, az 85013, usa"
"GHC (The Gloryhole)","863-2770 24hrs","24O St SE","Washington","DC","",NA,1998,"Men's Clubs","","24O St SE, Washington, DC",-77.0368707,38.9071923,"washington, dc, usa"
"Bob's Livery & Tour","773-5135 transportation to Portland, Ogunquit, Boston, Logan Airport & other New England areas","25 Alton St","Portland","ME","",NA,1998,"Info Lines & Services","","25 Alton St, Portland, ME",-70.2651509,43.6830667,"25 alton st, portland, me 04103, usa"
"Skin Deep","349-1300 body care products","25 Bank Street Sq","Wellfleet","MA","",NA,1998,"Bookstores & Retail Shops","","25 Bank Street Sq, Wellfleet, MA",-70.0311557,41.937618,"25 bank st, wellfleet, ma 02667, usa"
"Park Ave. Travel","256-3080","25 Buckingham St","Rochester","NY","(TA)",NA,1998,"Travel Agents","","25 Buckingham St, Rochester, NY",-77.5767557,43.148294,"25 buckingham st, rochester, ny 14607, usa"
"Sydney’s Side Street Restaurant & Blues Place","227-1339 5pm-1am, from 11am Sun, clsd Mon-Tues, full bar, patio","25 Christian St","Rehoboth Beach","DE","(E)",NA,1998,"Cafes","","25 Christian St, Rehoboth Beach, DE",-75.0841103,38.7153612,"25 christian st, rehoboth beach, de 19971, usa"
"Acropolis","Frostburg 689-8277 4pm-10pm","25 E Main St","Cumberland","MD","",NA,1998,"Restaurants","","25 E Main St, Cumberland, MD",-78.7625185,39.6528654,"cumberland, md 21502, usa"
"Common Ground","257-0855 lunch & dinner, clsd Tue, vegetarian/local fish","25 Elliott St","Brattleboro","VT","(BW)",NA,1998,"Restaurants","","25 Elliott St, Brattleboro, VT",-72.5588858,42.8521308,"25 elliot st, brattleboro, vt 05301, usa"
"Citywide Reservation Service","#500 267-7424/(800) 468-3593 covers most of New England","25 Huntington Ave","Boston","MA","",NA,1998,"Accommodations","","25 Huntington Ave, Boston, MA",-71.0782171,42.3487068,"25 huntington ave, boston, ma 02116, usa"
"The Virginia Hotel","884-5700/(800) 732-4236 also 'The Ebbitt Room' restaurant, seafood/cont'I","25 Jackson St","Cape May","NJ","(GF),(TA)",NA,1998,"Accommodations","","25 Jackson St, Cape May, NJ",-74.9223843,38.9315175,"25 jackson st, cape may, nj 08204, usa"
"Chadwick Inn B&B","743-2771","25 N 8th Ave","Sturgeon Bay","WI","(GF)",NA,1998,"Accommodations","","25 N 8th Ave, Sturgeon Bay, WI",-87.3712683,44.835906,"25 n 8th ave, sturgeon bay, wi 54235, usa"
"House of Orange","228-9287 seasonal, old captain's home","25 Orange St","Nantucket","MA","(GF)",NA,1998,"Accommodations","","25 Orange St, Nantucket, MA",-70.0988096,41.2817234,"25 orange st, nantucket, ma 02554, usa"
"St. Peter's & Andrew’s Episcopal Church","272-9649 8am & 10am Sun, 7pm Wed (healing service)","25 Pomona Ave","Providence","RI","(*),(NS)",NA,1998,"Spiritual Groups","","25 Pomona Ave, Providence, RI",-71.444991,41.8286352,"25 pomona ave, providence, ri 02908, usa"
"Aquarius Travel","#603 682-5663","25 Rockledge Ave","White Plains","NY","(TA)",NA,1998,"Travel Agents","","25 Rockledge Ave, White Plains, NY",-73.7716165,41.035436,"25 rockledge ave, white plains, ny 10601, usa"
"Safe Harbors Travel","547-6565/(800) 344-5656","25 South St","Baltimore","MD","",NA,1998,"Travel Agents","","25 South St, Baltimore, MD",-76.6105914,39.2886672,"25 south st, baltimore, md 21202, usa"
"Acorn Cottage B&B","253-0609/(800) 699-0609 full brkfst","25 St Dunstans Cir","Asheville","NC","(GF),(NS)",NA,1998,"Accommodations","","25 St Dunstans Cir, Asheville, NC",-82.5489806,35.5700137,"25 st dunstans cir, asheville, nc 28803, usa"
"New Conservatory Theatre Center","Lower Lobby 861- 8972 gay theater in historic Masonic bldg.","25 Van Ness Ave","San Francisco","CA","",NA,1998,"Entertainment & Recreation","Listed under ""S.F.-Overview""","25 Van Ness Ave, San Francisco, CA",-122.4196224,37.7756517,"25 van ness ave, san francisco, ca 94102, usa"
"Triangle Community Center","#7-C, E Norwalk 853-0600 7:30pm-9:30pm Mon-Fri","25 Van Zant St","Norwalk","CT","",NA,1998,"Info Lines & Services","","25 Van Zant St, Norwalk, CT",-73.4082227,41.1014246,"25 van zant st, norwalk, ct 06855, usa"
"The Grotto","586-6900 5pm-1am","25 West St","Northampton","MA","(MW),(D),(F),(E)",NA,1998,"Bars & Nightclubs","","25 West St, Northampton, MA",-72.6366592,42.3166404,"25 west st, northampton, ma 01060, usa"
"United Video Adult World","965-1110","25 White Horse Park","Egg Harbor City","NJ","",NA,1998,"Erotica","","25 White Horse Park, Egg Harbor City, NJ",-74.6479364,39.5287282,"egg harbor city, nj 08215, usa"
"Cathode Ray","884-3615, lpm-4am","26 Allen St","Buffalo","NY","(M),(NH),(V),(WC)",NA,1998,"Bars & Nightclubs","","26 Allen St, Buffalo, NY",-78.8709869,42.8991903,"26 allen st, buffalo, ny 14202, usa"
"Dream Cafe","226-2233 espresso bar & gourmet deli, full brkfst menu","26 Baltimore Ave","Rehoboth Beach","DE","",NA,1998,"Cafes","","26 Baltimore Ave, Rehoboth Beach, DE",-75.0787042,38.7171262,"26 baltimore ave, rehoboth beach, de 19971, usa"
"Lamplighter Inn","487-2529/(800) 263-6574","26 Bradford St","Provincetown","MA","(MW)",NA,1998,"Accommodations","","26 Bradford St, Provincetown, MA",-70.1938814,42.0463272,"historic district, 26 bradford st, provincetown, ma 02657, usa"
"Chandler Inn","482-3450/(800) 842-3450","26 Chandler St","Boston","MA","(GF),(TA)",NA,1998,"Accommodations","","26 Chandler St, Boston, MA",-71.0705036,42.3469933,"26 chandler st, boston, ma 02116, usa"
"Waterstones Booksellers","859-7300 9am-11pm","26 Exeter","Boston","MA","(WC)",NA,1998,"Bookstores & Retail Shops","","26 Exeter, Boston, MA",-71.0797686,42.3505785,"26 exeter st, boston, ma 02116, usa"
"Silky's Restaurant & Bar","267-1309 11am-9pm, til 2am Th-Sat, til 6pm Sun, food til 10pm, DJ Sat, karaoke Th","26 N Mosley","Wichita","KS","(GF),(D),(F)",NA,1998,"Bars & Nightclubs","","26 N Mosley, Wichita, KS",-97.3275288,37.6860639,"26 n mosley st, wichita, ks 67202, usa"
"Murray's","Minneapolis 339-0909 meat & potatoes","26 S 6th S","Minneapolis","MN","",NA,1998,"Restaurants","Listed under ""Minneapolis/St Paul, MN""","26 S 6th S, Minneapolis, MN",-93.2724464,44.9785724,"26 south 6th st, minneapolis, mn 55402, usa"
"Ermilio's","253-8806 5pm-8:30pm, clsd Th, Italian, plenty veggie","26 White","Eureka Springs","AR","",NA,1998,"Restaurants","","26 White, Eureka Springs, AR",-93.7418818,36.4054002,"26 white st, eureka springs, ar 72632, usa"
"Chaps","266-7778 noon-2am, Wed Latino night","27 Huntington Ave","Boston","MA","(M),(D),(V),(WC),(*)",NA,1998,"Bars & Nightclubs","","27 Huntington Ave, Boston, MA",-71.0778603,42.3490043,"27 huntington ave, boston, ma 02116, usa"
"Maxwell's Pub","646-2345 seasonal, noon-1am, patio","27 Main St","Ogunquit","ME","(GF),(F)",NA,1998,"Bars & Nightclubs","","27 Main St, Ogunquit, ME",-70.6020569,43.2394507,"27 main st, ogunquit, me 03907, usa"
"Mirage","954-1919 4pm02am, live shows","27 N Walnut","Mount Clemens","MI","(MW),(D)",NA,1998,"Bars & Nightclubs","","27 N Walnut, Mount Clemens, MI",-82.879011,42.597737,"27 n walnut st, mt clemens, mi 48043, usa"
"Nova Travel","#230  697-4460","27 S State St","Lake Oswego","OR","(TA)",NA,1998,"Travel Agents","","27 S State St, Lake Oswego, OR",-122.6628172,45.4150878,"27 s state st, lake oswego, or 97034, usa"
"Hawley Cooke Books","Plaza, 893-0133","27 Shelbyville Rd","Louisville","KY","",NA,1998,"Bookstores & Retail Shops","","27 Shelbyville Rd, Louisville, KY",-85.4571443,38.2339737,"shelbyville rd, kentucky, usa"
"West Side Club","2nd fir 691-2700, 24hrs","27 W 20th St","New York City","NY","(M),(PC)",NA,1998,"Men's Clubs","Listed under ""N.Y.C. -- Soho, Greenwich & Chelsea""","27 W 20th St, New York City, NY",-73.9927218,40.7406158,"27 w 20th st, new york, ny 10011, usa"
"Ember’glo Gifts","862-2929 11am-6pm, wknds only (winters)","27 W Mechanic St","New Hope","PA","(*),(NS)",NA,1998,"Bookstores & Retail Shops","","27 W Mechanic St, New Hope, PA",-74.9517817,40.3619965,"27 w mechanic st, new hope, pa 18938, usa"
"Chuck's II","265-5405 6pm-1am, til 3am Fri-Sat, patio","27-1/2 W Main","Chattanooga","TN","(MW),(NH),(D),(CW),(OC)",NA,1998,"Bars & Nightclubs","","27-1/2 W Main, Chattanooga, TN",-85.3081951,35.0367512,"27 w main st, chattanooga, tn 37402, usa"
"The Vault","(at 13th St.) 255-6758, safer sex club, call for events","28 10th Ave","New York City","NY","(L)",NA,1998,"Sex Clubs","Listed under ""N.Y.C. -- Soho, Greenwich & Chelsea""","28 10th Ave, New York City, NY",-74.0086012,40.7411759,"28 10th ave, new york, ny 10011, usa"
"Westwinds","487-1841 seasonal, apts & cottages","28 Commercial St","Provincetown","MA","(MW),(SW)",NA,1998,"Accommodations","","28 Commercial St, Provincetown, MA",-70.1950455,42.0404802,"historic district, 28 commercial st, provincetown, ma 02657, usa"
"Rocking Duck Inn","968-3335, full brkfst; also Aunt Minnie's Tavern'","28 Genesee Pkwy","Cuba","NY","(GF)",NA,1998,"Accommodations","","28 Genesee Pkwy, Cuba, NY",-78.275874,42.219581,"28 genesee pkwy, cuba, ny 14727, usa"
"David’s","847-9698 5pm-1am, from 2pm wknds, Sun T-dance, patio, see ad page 586","28 Prospect Hill St","Newport","RI","(NH),(D),(*),(MW)",NA,1998,"Bars & Nightclubs","","28 Prospect Hill St, Newport, RI",-71.3140596,41.4854104,"28 prospect hill st, newport, ri 02840, usa"
"Moose Lounge/Stonewall","432-0706 4pm-2am","28-30 N 10th St","Allentown","PA","(D),(F),(E),(K),(S),(V),(*),(MW)",NA,1998,"Bars & Nightclubs","","28-30 N 10th St, Allentown, PA",-75.478609,40.6013499,"28-30 n 10th st, allentown, pa 18101, usa"
"Bar d'O","(at Downing St.) 627-1580 7:30pm-3am","29 Bedford St","New York City","NY","(GF),(S)",NA,1998,"Bars & Nightclubs","Listed under ""N.Y.C. -- Soho, Greenwich & Chelsea""","29 Bedford St, New York City, NY",-74.0037987,40.7292195,"29 bedford st, new york, ny 10014, usa"
"The Frog and the Peach","846-3216 11:30am-11pm, til 1am Th-Sat","29 Dennis St","New Brunswick","NJ","(WC)",NA,1998,"Restaurants","","29 Dennis St, New Brunswick, NJ",-74.4408843,40.4949803,"29 dennis st, new brunswick, nj 08901, usa"
"Brandt House","774-3329/(800) 235-3329 full brkfst","29 Highland Ave","Greenfield","MA","(GF)",NA,1998,"Accommodations","","29 Highland Ave, Greenfield, MA",-72.5922447,42.5845209,"29 highland ave, greenfield, ma 01301, usa"
"Hateful Missy & Granny Butch's Boudoir & Manure Emporium","Vequita 243-7063/(800) 397-2482 full brkfst, hot tub, 30 mi. from Albuquerque","29 lara Millo Loop","Vequita","NM","(MW)",NA,1998,"Accommodations","Listed under ""Albuquerque, NM""","29 lara Millo Loop, Vequita, NM",-106.7672484,34.516174,"veguita, nm 87062, usa"
"The Brownstone","597-1838 5pm-1am, til 2am Fri-Sat, clsd Mon; also restaurant","29 Leavenworth St","Waterbury","CT","(MW),(S),(WC)",NA,1998,"Bars & Nightclubs","","29 Leavenworth St, Waterbury, CT",-73.0421936,41.5553085,"29 leavenworth st, waterbury, ct 06702, usa"
"Homebase Abroad, Ltd.","545-5112","29 Mary s Ln","Scituate","MA","(TA)",NA,1998,"Travel Agents","","29 Mary s Ln, Scituate, MA",-70.7564557,42.221004,"29 marys ln, scituate, ma 02066, usa"
"K & E's","533-6020 4pm-2am, from 2pm wknds","29 S Dixie Hwy","Lake Worth","FL","(MW),(F)",NA,1998,"Bars & Nightclubs","","29 S Dixie Hwy, Lake Worth, FL",-80.057586,26.6148716,"29 s dixie hwy, lake worth beach, fl 33460, usa"
"Bisexual Resource Center","424-9595","29 Stanhope St 3rd flr","Boston","MA","",NA,1998,"Info Lines & Services","","29 Stanhope St 3rd flr, Boston, MA",-71.0734562,42.3484645,"29 stanhope st 3rd floor, boston, ma 02116, usa"
"Golden Notebook","679-8000 10:30am-7pm, til 9pm (summers), lesbigay section","29 Tinker St","Woodstock","NY","(WC)",NA,1998,"Bookstores & Retail Shops","","29 Tinker St, Woodstock, NY",-74.1192184,42.0404538,"29 tinker st, woodstock, ny 12498, usa"
"Wordsworth","354-5201 9am-11pm, 10am-10pm Sun","30 Brattle St","Cambridge","MA","",NA,1998,"Bookstores & Retail Shops","","30 Brattle St, Cambridge, MA",-71.1206141,42.3731274,"30 brattle st, cambridge, ma 02138, usa"
"Outer Cape Travel Agency","349-3794","30 Briar Ln","Wellfleet","MA","(TA)",NA,1998,"Travel Agents","","30 Briar Ln, Wellfleet, MA",-70.0331731,41.9399695,"30 briar ln, wellfleet, ma 02667, usa"
"Casa Romero","536-4341 5pm-10pm, til 11pm wknds","30 Gloucester St","Boston","MA","",NA,1998,"Restaurants","","30 Gloucester St, Boston, MA",-71.0844868,42.349449,"30 gloucester st, boston, ma 02115, usa"
"Old Village Inn","646-7088","30 Main St","Ogunquit","ME","(GF),(F)",NA,1998,"Accommodations","","30 Main St, Ogunquit, ME",-70.6007998,43.2398856,"30 main st, ogunquit, me 03907, usa"
