"description","streetaddress","city","state","amenityfeatures","type","Year","notes","full.address","lon","lat","geoAddress","status","title","unclear_address"
"(Disco) (3-1-79: Biz must be off as they have't paid me?)","369 Central Ave.","Albany","NY","(YC),(D)","Baths",1980,"","369 Central Ave., Albany, NY","-73.7739629","42.6664037","369 central ave, albany, ny 12206, usa","Geocoded",NA,NA
"(Baths)","351 Central Ave.","Albany","NY","(P)","Baths",1980,"","351 Central Ave., Albany, NY","-73.773385","42.666071","351 central ave, albany, ny 12206, usa","Geocoded",NA,NA
"('Mixed bag'- looking up) (Some YC)","76 Central Ave.","Albany","NY","(YC),(*)","Bars/Clubs",1980,"","76 Central Ave., Albany, NY","-73.7664709","42.6590586","76 central ave, albany, ny 12206, usa","Geocoded",NA,NA
"(Snacks & C)","332 Hudson Ave.","Albany","NY","","Organizations",1980,"","332 Hudson Ave., Albany, NY","-73.7655537","42.653269","332 hudson ave, albany, ny 12210, usa","Geocoded",NA,NA
"(Disco)","439 N. Pearl St.","Albany","NY","(D)","Bars/Clubs",1980,"","439 N. Pearl St., Albany, NY","-73.7435072","42.6649585","439 n pearl st, menands, ny 12204, usa","Geocoded",NA,NA
"(Cruisy)","519 Central Ave.","Albany","NY","(D),(*)","Bars/Clubs,Cruising Areas",1980,"","519 Central Ave., Albany, NY","-73.778183","42.670101","519 central ave, albany, ny 12206, usa","Geocoded",NA,NA
"(Good days- Some midnight cowboys')","90 Central Ave.","Albany","NY","(PT),(D),(*)","Bars/Clubs",1980,"","90 Central Ave., Albany, NY","-73.7667352","42.659367","90 central ave, albany, ny 12206, usa","Geocoded",NA,NA
"(Disco)","425 Central Ave.","Albany","NY","(YC),(D)","Bars/Clubs",1980,"","425 Central Ave., Albany, NY","-73.7757017","42.6678869","425 central ave, albany, ny 12206, usa","Geocoded",NA,NA
"","2520 Merrick Rd.","Bellmore","NY","(OC),(*)","Bars/Clubs",1980,"Listed as Long Island","2520 Merrick Rd., Bellmore, NY","-73.5324719","40.6620889","2520 merrick rd, bellmore, ny 11710, usa","Geocoded",NA,NA
"","2475 Jerusalem Ave.","Bellmore","NY","(YC),(*)","Bars/Clubs",1980,"Listed as Long Island","2475 Jerusalem Ave., Bellmore, NY","-73.5406124","40.6911924","2475 jerusalem ave, north bellmore, ny 11710, usa","Geocoded",NA,NA
"(Some YC, L) (Disco) (WE*)","201 State St.","Binghamton","NY","(YC),(L),(D),(WE),(*)","Bars/Clubs",1980,"","201 State St., Binghamton, NY","-75.9118006","42.1018782","201 state st, binghamton, ny 13901, usa","Geocoded",NA,NA
"(Closed- May or may not be reopening?)","9 Main St.","Binghamton","NY","","Bars/Clubs",1980,"","9 Main St., Binghamton, NY","-75.9172638","42.098597","9 main st, binghamton, ny 13905, usa","Geocoded",NA,NA
"(Books)","4 E. Chippewa","Buffalo","NY","","Book Store",1980,"","4 E. Chippewa, Buffalo, NY","-78.872644","42.8900424","4 e chippewa st, buffalo, ny 14203, usa","Geocoded",NA,NA
"","43 Allen","Buffalo","NY","(R)","Restaurant",1980,"","43 Allen, Buffalo, NY","-78.8716972","42.8995772","43 allen st, buffalo, ny 14202, usa","Geocoded",NA,NA
"(Active T-Room, lobby, back rows)","3165 Bailey Ave.","Buffalo","NY","(M)","Theatre",1980,"","3165 Bailey Ave., Buffalo, NY","-78.813359","42.940922","3165 bailey ave, buffalo, ny 14215, usa","Geocoded",NA,NA
"","44 Alameda","Amherst","NY","(P),(*)","Baths",1980,"","44 Alameda, Amherst, NY","-78.792272","42.9790067","amherst, ny, usa","Geocoded",NA,NA
"","1104 Elmwood Ave.","Buffalo","NY","(M),(PE),(WE)","Restaurant",1980,"","1104 Elmwood Ave., Buffalo, NY","-78.8772268","42.9273391","1104 elmwood ave, buffalo, ny 14222, usa","Geocoded",NA,NA
"","610 Main St.","Buffalo","NY","","Book Store",1980,"","610 Main St., Buffalo, NY","-78.8730744","42.8906129","610 main st, buffalo, ny 14202, usa","Geocoded",NA,NA
"","20 Allen St.","Buffalo","NY","(OC),(D),(*)","Bars/Clubs",1980,"","20 Allen St., Buffalo, NY","-78.8708764","42.8991982","20 allen st, buffalo, ny 14202, usa","Geocoded",NA,NA
"","2295 Main","Buffalo","NY","(R)","Restaurant",1980,"","2295 Main, Buffalo, NY","-78.846621","42.931814","2295 main st, buffalo, ny 14214, usa","Geocoded",NA,NA
"","66 Oxford St.","Buffalo","NY","","Organizations",1980,"","66 Oxford St., Buffalo, NY","-78.8651802","42.9172213","66 oxford ave, buffalo, ny 14209, usa","Geocoded",NA,NA
"","655 Main St.","Buffalo","NY","(RT),(M)","Baths",1980,"","655 Main St., Buffalo, NY","-78.8720148","42.8916599","655 main st, buffalo, ny 14203, usa","Geocoded",NA,NA
"","33 Virginia Pl.","Buffalo","NY","(M),(R)","Restaurant",1980,"","33 Virginia Pl., Buffalo, NY","-78.8734282","42.8977156","33 virginia pl, buffalo, ny 14202, usa","Geocoded",NA,NA
"(Very M) (Disco) (Best around bar)","1110 Elmwood Ave.","Buffalo","NY","(M),(D),(AYOR)","Bars/Clubs",1980,"","1110 Elmwood Ave., Buffalo, NY","-78.8772313","42.9274779","1110 elmwood ave, buffalo, ny 14222, usa","Geocoded",NA,NA
"(Disco) (2 bars- go go boys)","729 Main St.","Buffalo","NY","(YC),(D),(R),(*)","Bars/Clubs,Restaurant",1980,"","729 Main St., Buffalo, NY","-78.8715761","42.8938285","729 main st, buffalo, ny 14203, usa","Geocoded",NA,NA
"","369 Pearl St.","Buffalo","NY","(R),(M)","Restaurant",1980,"","369 Pearl St., Buffalo, NY","-78.8743707","42.8893973","369 pearl st, buffalo, ny 14202, usa","Geocoded",NA,NA
"(Disco) (Should be a winner)","621 Main St.","Buffalo","NY","(D)","Bars/Clubs",1980,"","621 Main St., Buffalo, NY","-78.872225","42.8910766","621 main st, buffalo, ny 14203, usa","Geocoded",NA,NA
"(Open 24 hours)","516 Delaware","Buffalo","NY","(M),(R)","Restaurant",1980,"","516 Delaware, Buffalo, NY","-78.8742955","42.8983646","516 delaware ave, buffalo, ny 14202, usa","Geocoded",NA,NA
"","486 Elmwood Ave.","Buffalo","NY","(R),(PT),(L)","Bars/Clubs,Restaurant",1980,"","486 Elmwood Ave., Buffalo, NY","-78.8773861","42.9103012","486 elmwood ave, buffalo, ny 14222, usa","Geocoded",NA,NA
"(Some W, SM) (New & larger location) nr. Allen","926 Main St.","Buffalo","NY","(W),(SM),(D),(*)","Bars/Clubs",1980,"","926 Main St., Buffalo, NY","-78.8702032","42.8991479","926 main st, buffalo, ny 14202, usa","Geocoded",NA,NA
"(Also C- AH*)","1335 Jefferson","Buffalo","NY","(R),(C),(AH),(*)","Restaurant",1980,"","1335 Jefferson, Buffalo, NY","-78.8538674","42.9115369","1335 jefferson ave, buffalo, ny 14208, usa","Geocoded",NA,NA
"('Back room"")","1600 Genesee","Buffalo","NY","Cruisy Area","Theatre,Cruising Areas",1980,"","1600 Genesee, Buffalo, NY","-78.8216293","42.9097789","1600 genesee st, buffalo, ny 14211, usa","Geocoded",NA,NA
"(Some L) (Sleazy)","112 Lake St.","Elmira","NY","(L),(RT)","Bars/Clubs",1980,"","112 Lake St., Elmira, NY","-76.8009555","42.0888943","112 lake st, elmira, ny 14901, usa","Geocoded",NA,NA
"(Disco) L.I.","825 Merrick Rd.","Copiaque","NY","(YC),(D),(S),(PT),(*)","Bars/Clubs",1980,"Long Island","825 Merrick Rd., Copiaque, NY","-73.6116699","40.650966","825 merrick rd, baldwin, ny 11510, usa","Geocoded",NA,NA
"(Disco) (Looks promising)","836 Grand Blvd.","Deer Park","NY","(S),(D)","Bars/Clubs",1980,"Long Island","836 Grand Blvd., Deer Park, NY","-73.3075429","40.7616183","836 grand blvd, deer park, ny 11729, usa","Geocoded",NA,NA
"","511 Railroad Ave.","Elmira","NY","(YC),(D),(*)","Bars/Clubs",1980,"","511 Railroad Ave., Elmira, NY","-76.80888","42.093553","511 railroad ave, elmira, ny 14901, usa","Geocoded",NA,NA
"(Disco) (Some L) (WE*)","175 Cherry Land","Floral Park","NY","(D),(S),(L),(WE),(*)","Bars/Clubs",1980,"Long Island","175 Cherry Land, Floral Park, NY","-73.6974672","40.7356932","175 cherry ln, floral park, ny 11001, usa","Geocoded",NA,NA
"","215 N. Aurora","Ithaca","NY","(M)","Bars/Clubs",1980,"","215 N. Aurora, Ithaca, NY","-76.4954416","42.4409855","215 n aurora st, ithaca, ny 14850, usa","Geocoded",NA,NA
"(Some L) (Disco) at Hancock","213 5th. St.","Ithaca","NY","(L),(D)","Bars/Clubs",1980,"","213 5th. St., Ithaca, NY","-76.5070607","42.4457178","213 5th st, ithaca, ny 14850, usa","Geocoded",NA,NA
"(Disco)","134 W. State St.","Ithaca","NY","(YC),(D),(E),(*)","Bars/Clubs",1980,"","134 W. State St., Ithaca, NY","-76.5003839","42.4397002","134 w state st, ithaca, ny 14850, usa","Geocoded",NA,NA
"","265 Main St.","Johnson City","NY","","Book Store",1980,"","265 Main St., Johnson City, NY","-75.9562169","42.1157014","265 main st, johnson city, ny 13790, usa","Geocoded",NA,NA
"(Cruisy)","237 Main St.","Lake Placid","NY","(M),(R),(*)","Cruising Areas,Bars/Clubs",1980,"","237 Main St., Lake Placid, NY","-73.9840428","44.2854201","main st, lake placid, ny 12946, usa","Geocoded",NA,NA
"(Disco) (Best around bar)","3 School St.","Lake Placid","NY","(M),(YC),(D)","Bars/Clubs",1980,"","3 School St., Lake Placid, NY","-73.9826094","44.2816611","3 school st, lake placid, ny 12946, usa","Geocoded",NA,NA
"(Disco)","235 Lake Shore Rd.","Lake Ronkonkoma","NY","(S),(D)","Bars/Clubs",1980,"Long Island","235 Lake Shore Rd., Lake Ronkonkoma, NY","-73.1164159","40.8280299","235 lake shore rd, lake ronkonkoma, ny 11779, usa","Geocoded",NA,NA
"","771 S. 9th St.","Lindenhurst","NY","(L)","Bars/Clubs",1980,"Long Island","771 S. 9th St., Lindenhurst, NY","-73.3741162","40.6696257","771 s 9th st, lindenhurst, ny 11757, usa","Geocoded",NA,NA
"(Disco)","262 Portion Rd.","Lake Ronkonkoma","NY","(L),(R),(D)","Restaurant,Bars/Clubs",1980,"Long Island","262 Portion Rd., Lake Ronkonkoma, NY","-73.1018739","40.8273361","262 portion rd, lake ronkonkoma, ny 11779, usa","Geocoded",NA,NA
"(Shades of S.F.'s Castro St.- looks promising)  at 14th St.","64 7th Ave.","Greenwich Village","NY","","Bars/Clubs",1980,"","64 7th Ave., Greenwich Village, NY","-73.9997225","40.7388673","64 7th ave, new york, ny 10011, usa","Geocoded",NA,NA
"(Disco) 1mi. S. of town","165 Rte. 208","New Paltz","NY","(PT),(D),(SM),(L)","Bars/Clubs",1980,"","165 Rte. 208, New Paltz, NY","-74.098279","41.7312145","165 ny-208, new paltz, ny 12561, usa","Geocoded",NA,NA
"","383 W. 12th St.","Greenwich Village","NY","(M),(R)","Restaurant",1980,"","383 W. 12th St., Greenwich Village, NY","-74.008756","40.737755","383 w 12th st, new york, ny 10014, usa","Geocoded",NA,NA
"at 20th St.","239 3rd Ave.","Greenwich Village","NY","(R)","Restaurant",1980,"","239 3rd Ave., Greenwich Village, NY","-73.9843661","40.736684","239 3rd ave, new york, ny 10003, usa","Geocoded",NA,NA
"(Chinese R)","753 Washington St.","Greenwich Village","NY","(*),(M),(R)","Restaurant",1980,"","753 Washington St., Greenwich Village, NY","-74.0080946","40.7368806","753 washington st, new york, ny 10014, usa","Geocoded",NA,NA
"(Disco) (Cruisy) (also Bonnie's (R) Upstairs)","82 W. 3rd St.","Greenwich Village","NY","(YC),(L),(D),(PT),(R)","Cruising Areas,Bars/Clubs,Restaurant",1980,"","82 W. 3rd St., Greenwich Village, NY","-73.9989571","40.7297021","82 w 3rd st, new york, ny 10012, usa","Geocoded",NA,NA
"(No booze- take your own wine)","342 W. 11th St.","Greenwich Village","NY","(R)","Restaurant",1980,"","342 W. 11th St., Greenwich Village, NY","-74.0080807","40.7354605","342 w 11th st, new york, ny 10014, usa","Geocoded",NA,NA
"(Seafood R) at Perry","551 Hudson at Perry","Greenwich Village","NY","(R)","Restaurant",1980,"","551 Hudson at Perry, Greenwich Village, NY","-74.0063025","40.7352609","551 hudson st, new york, ny 10014, usa","Geocoded",NA,NA
"","183 W. 10th St.","Greenwich Village","NY","(R),(*)","Restaurant",1980,"","183 W. 10th St., Greenwich Village, NY","-74.0028479","40.7343755","183 w 10th st, new york, ny 10014, usa","Geocoded",NA,NA
"(Some W,SM) (Cruisy)","76 Christopher St.","Greenwich Village","NY","(W),(SM),(*)","Cruising Areas,Bars/Clubs",1980,"","76 Christopher St., Greenwich Village, NY","-74.0034034","40.7334603","76 christopher st, new york, ny 10014, usa","Geocoded",NA,NA
"(Mexican R)","330 Bleecker St.","Greenwich Village","NY","(M),(R)","Restaurant",1980,"","330 Bleecker St., Greenwich Village, NY","-74.004603","40.7334848","330 bleecker st, new york, ny 10014, usa","Geocoded",NA,NA
"","204 W. 10th St.","Greenwich Village","NY","(OC)","Bars/Clubs",1980,"","204 W. 10th St., Greenwich Village, NY","-74.0039708","40.7338736","204 w 10th st, new york, ny 10014, usa","Geocoded",NA,NA
"(Closed Sundays) at Perry","259 W. 4th St.","Greenwich Village","NY","(M),(R)","Restaurant",1980,"","259 W. 4th St., Greenwich Village, NY","-74.003141","40.7354258","259 west 4th street, new york, ny 10014, usa","Geocoded",NA,NA
"(Disco)","24 E. 22nd St.","Greenwich Village","NY","(AH),(D)","Bars/Clubs",1980,"","24 E. 22nd St., Greenwich Village, NY","-73.9883564","40.739904","24 e 22nd st, new york, ny 10010, usa","Geocoded",NA,NA
"","372 W. 11th St.","Greenwich Village","NY","(SM),(P)","Bars/Clubs",1980,"","372 W. 11th St., Greenwich Village, NY","-74.0095653","40.735189","372 w 11th st, new york, ny 10014, usa","Geocoded",NA,NA
"at Christopher","500 Hudson St.","Greenwich Village","NY","(*)","Book Store",1980,"","500 Hudson St., Greenwich Village, NY","-74.006136","40.73299","500 hudson st, new york, ny 10014, usa","Geocoded",NA,NA
"('Tops' in N.Y.C.) (Some W,SM, YC) at 2nd St.","24 1st Ave.","Greenwich Village","NY","(W),(SM),(YC),(*)","Baths",1980,"","24 1st Ave., Greenwich Village, NY","-73.9879491","40.7236446","24 1st avenue, new york, ny 10009, usa","Geocoded",NA,NA
"","348 W. 14th St.","Greenwich Village","NY","","Church",1980,"","348 W. 14th St., Greenwich Village, NY","-74.0047474","40.7404517","348 w 14th st, new york, ny 10014, usa","Geocoded",NA,NA
"","56 Greenwich Ave.","Greenwich Village","NY","(R)","Restaurant",1980,"","56 Greenwich Ave., Greenwich Village, NY","-74.0004721","40.7359015","56 greenwich ave, new york, ny 10011, usa","Geocoded",NA,NA
"","340 Bleecker St.","Greenwich Village","NY","(R)","Restaurant",1980,"","340 Bleecker St., Greenwich Village, NY","-74.0046953","40.7337333","340 bleecker st, new york, ny 10014, usa","Geocoded",NA,NA
"at Greenwhich","139 Christopher St.","Greenwich Village","NY","(PT),(*)","Bars/Clubs",1980,"","139 Christopher St., Greenwich Village, NY","-74.0071685","40.733018","139 christopher st, new york, ny 10014, usa","Geocoded",NA,NA
"(Disco) (Some YC) at West St.","189 Christopher St.","Greenwich Village","NY","(D),(YC),(*)","Bars/Clubs",1980,"","189 Christopher St., Greenwich Village, NY","-74.0100576","40.7325749","189 christopher st, new york, ny 10014, usa","Geocoded",NA,NA
"(Late)","98 Chirstopher St.","Greenwich Village","NY","(M),(R)","Restaurant",1980,"","98 Chirstopher St., Greenwich Village, NY","-74.004656","40.7331669","98 christopher st, new york, ny 10014, usa","Geocoded",NA,NA
"","154 W. 19th St.","Greenwich Village","NY","(L)","Book Store",1980,"","154 W. 19th St., Greenwich Village, NY","-73.9969418","40.7412538","154 w 19th st, new york, ny 10011, usa","Geocoded",NA,NA
"(L only)","70 Grove St.","Greenwich Village","NY","(D),(L)","Bars/Clubs",1980,"","70 Grove St., Greenwich Village, NY","-74.002802","40.7331527","70 grove st, new york, ny 10014, usa","Geocoded",NA,NA
"(Italian R)","115 Christopher St.","Greenwich Village","NY","(M),(R)","Restaurant",1980,"","115 Christopher St., Greenwich Village, NY","-74.0054357","40.7334062","115 christopher st, new york, ny 10014, usa","Geocoded",NA,NA
"(Expensive Cabaret) (Disco)","55 Grove St.","Greenwich Village","NY","(D)","Bars/Clubs",1980,"","55 Grove St., Greenwich Village, NY","-74.0035415","40.733207","55 grove st, new york, ny 10014, usa","Geocoded",NA,NA
"at Bleecker","49 Grove St.","Greenwich Village","NY","(M),(R),(E)","Restaurant",1980,"","49 Grove St., Greenwich Village, NY","-74.0037967","40.7331585","49 grove st, new york, ny 10014, usa","Geocoded",NA,NA
"","239 W. 4th St.","Greenwich Village","NY","(M),(R)","Restaurant",1980,"","239 W. 4th St., Greenwich Village, NY","-74.0029004","40.734537","239 west 4th street, new york, ny 10014, usa","Geocoded",NA,NA
"","411 Bleecker St.","Greenwich Village","NY","(M),(R)","Restaurant",1980,"","411 Bleecker St., Greenwich Village, NY","-74.0050709","40.736316","411 bleecker st, new york, ny 10014, usa","Geocoded",NA,NA
"(No booze- 'jocks' & juice bar Thur. - Fri. Sat. only) at Houston","599 Broadway","Greenwich Village","NY","(P),(YC),(*)","Bars/Clubs",1980,"","599 Broadway, Greenwich Village, NY","-73.9971632","40.7253375","ayer building, 599 broadway, new york, ny 10012, usa","Geocoded",NA,NA
"(Patio) at Bleecker","91 Charles St.","Greenwich Village","NY","(PE),(M),(R)","Restaurant",1980,"","91 Charles St., Greenwich Village, NY","-74.0052007","40.7347572","91 charles st, new york, ny 10014, usa","Geocoded",NA,NA
"","130 11th Ave.","Greenwich Village","NY","(P),(SM),(FFA),(*)","Bars/Clubs",1980,"","130 11th Ave., Greenwich Village, NY","-73.9996802","40.7357603","130 w 11th st, new york, ny 10011, usa","Geocoded",NA,NA
"(TheStud) ('wild back room') at Perry","733 Greenwhich","Greenwich Village","NY","(D),(*)","Bars/Clubs",1980,"","733 Greenwhich, Greenwich Village, NY","-74.006679","40.735173","733 greenwich st, new york, ny 10014, usa","Geocoded",NA,NA
"(Disco)","5 W. 19th St.","Greenwich Village","NY","(YC),(D)","Bars/Clubs",1980,"","5 W. 19th St., Greenwich Village, NY","-73.991888","40.739494","5 w 19th st, new york, ny 10011, usa","Geocoded",NA,NA
"(Very M) (Unisex) (Disco) at 3rd Ave.","653 Broadway","Greenwich Village","NY","(D),(M)","Bars/Clubs",1980,"","653 Broadway, Greenwich Village, NY","-73.9957494","40.7270095","653 broadway, new york, ny 10012, usa","Geocoded",NA,NA
"at 12th St.","100 3rd Ave.","Greenwich Village","NY","","Theatre",1980,"","100 3rd Ave., Greenwich Village, NY","-73.9882183","40.7325484","100 3rd ave, new york, ny 10003, usa","Geocoded",NA,NA
"","28 Cornelia St.","New York City","NY","(R),(E)","Restaurant",1980,"","28 Cornelia St., New York City, NY","-74.0023544","40.7311877","28 cornelia st, new york, ny 10014, usa","Geocoded",NA,NA
"(Cabaret E) (2 floors) betw. Bleecker & Hudson","228 W. 10th St.","Greenwich Village","NY","(R),(E)","Restaurant",1980,"","228 W. 10th St., Greenwich Village, NY","-74.0051144","40.7337081","228 w 10th st, new york, ny 10014, usa","Geocoded",NA,NA
"(Snacks, cruisy days)","159 W. 10th St.","Greenwich Village","NY","(*)","Cruising Areas,Bars/Clubs",1980,"","159 W. 10th St., Greenwich Village, NY","-74.0017116","40.7345329","159 w 10th st, new york, ny 10014, usa","Geocoded",NA,NA
"(Some W. SM Everything) (Good Sun.) nr. Barrow","384 West St.","Greenwich Village","NY","(*),(W),(SM)","Bars/Clubs",1980,"","384 West St., Greenwich Village, NY","-74.0102763","40.732003","384 west st, new york, ny 10014, usa","Geocoded",NA,NA
"(Gift Shop)","39 Christopher St.","Greenwich Village","NY","","Business",1980,"","39 Christopher St., Greenwich Village, NY","-74.0015554","40.7339022","39 christopher st, new york, ny 10014, usa","Geocoded",NA,NA
"(Some L) (Cabaret) at 7th","46 Bedford St.","Greenwich Village","NY","(L)","Bars/Clubs",1980,"","46 Bedford St., Greenwich Village, NY","-74.0041563","40.730584","46 bedford st, new york, ny 10014, usa","Geocoded",NA,NA
"(Adult Boutique)","152 7th Ave. S.","Greenwich Village","NY","","Business",1980,"","152 7th Ave. S., Greenwich Village, NY","-74.0021248","40.7352865","152 7th ave s, new york, ny 10014, usa","Geocoded",NA,NA
"(Clothes, books, leather, 'toys', etc.)","85 Christopher St.","Greenwich Village","NY","(*)","Business,Book Store",1980,"","85 Christopher St., Greenwich Village, NY","-74.0038693","40.7336419","85 christopher st, new york, ny 10014, usa","Geocoded",NA,NA
"(Disco) (M- WE) at 26th St.","260 W. 11th Ave.","Greenwich Village","NY","(P),(YC),(D),(E),(*),(WE)","Bars/Clubs",1980,"","260 W. 11th Ave., Greenwich Village, NY","-74.0038119","40.7360179","260 w 11th st, new york, ny 10014, usa","Geocoded",NA,NA
"","26 9th Ave.","Greenwich Village","NY","(MCC)","Church",1980,"","26 9th Ave., Greenwich Village, NY","-74.0054841","40.7404474","26 9th ave, new york, ny 10014, usa","Geocoded",NA,NA
"","1 Sheridan Square","Greenwich Village","NY","(R)","Restaurant",1980,"","1 Sheridan Square, Greenwich Village, NY","-74.0019021","40.7328605","1 sheridan square, new york, ny 10014, usa","Geocoded",NA,NA
"(Downstairs) (Bingo) at Sheridan Sq.","59 Grove St.","Greenwich Village","NY","","Bars/Clubs",1980,"","59 Grove St., Greenwich Village, NY","-74.0033971","40.7332382","59 grove st, new york, ny 10014, usa","Geocoded",NA,NA
"(Baths) (Gym & Fantasy rooms)","28 W. 15th St.","Greenwich Village","NY","(*)","Baths",1980,"","28 W. 15th St., Greenwich Village, NY","-73.9947793","40.7371782","28 w 15th st, new york, ny 10011, usa","Geocoded",NA,NA
"(Upstairs) ('wild back room')","835 Washington St.","Greenwich Village","NY","(P),(SM),(W),(*)","Bars/Clubs",1980,"","835 Washington St., Greenwich Village, NY","-74.0076797","40.7403979","835 washington st, new york, ny 10014, usa","Geocoded",NA,NA
"(Cruisy) (2 floors)","139 W. 10th St.","Greenwich Village","NY","(HIP),(YC),(*)","Cruising Areas,Bars/Clubs",1980,"","139 W. 10th St., Greenwich Village, NY","-74.0007993","40.7347958","139 w 10th st, new york, ny 10014, usa","Geocoded",NA,NA
"(Extensive renovations) at 3rd Ave.","6 St. Marks Place","Greenwich Village","NY","(*)","Baths",1980,"","6 St. Marks Place, Greenwich Village, NY","-73.989568","40.72909","6 st marks pl, new york, ny 10003, usa","Geocoded",NA,NA
"(Disco)","85 Washington Pl.","Greenwich Village","NY","(L),(D),(*)","Bars/Clubs",1980,"","85 Washington Pl., Greenwich Village, NY","-74.0000245","40.7322184","85 washington pl, new york, ny 10011, usa","Geocoded",NA,NA
"(Sun. Brunch) at 10th St.","518 Hudson St.","Greenwich Village","NY","(R),(*)","Restaurant",1980,"","518 Hudson St., Greenwich Village, NY","-74.0060784","40.7336903","518 hudson st, new york, ny 10014, usa","Geocoded",NA,NA
"(Very M)","17 Barrow St.","Greenwich Village","NY","(M),(PE),(R)","Restaurant",1980,"","17 Barrow St., Greenwich Village, NY","-74.0025839","40.7324944","17 barrow st, new york, ny 10014, usa","Geocoded",NA,NA
"","15 Christopher St.","Greenwich Village","NY","(*)","Book Store",1980,"","15 Christopher St., Greenwich Village, NY","-74.0005639","40.7340613","15 christopher st, new york, ny 10014, usa","Geocoded",NA,NA
"9WE*) (Unisex) (Disco) (Hugh place- No booze- juice bar)","84 King St.","Greenwich Village","NY","(P),(YC),(WE),(*),(D)","Bars/Clubs",1980,"","84 King St., Greenwich Village, NY","-74.0064349","40.7279381","84 king st, new york, ny 10014, usa","Geocoded",NA,NA
"(Many L)","64 Greenwhich Ave.","Greenwich Village","NY","(M),(PT)","Bars/Clubs",1980,"","64 Greenwhich Ave., Greenwich Village, NY","-74.0006213","40.7361254","64 greenwich ave, new york, ny 10011, usa","Geocoded",NA,NA
"(Leather, clothes, 'toys', etc.)","152 7th Ave. S.","Greenwich Village","NY","(*)","Book Store,Business",1980,"","152 7th Ave. S., Greenwich Village, NY","-74.0021248","40.7352865","152 7th ave s, new york, ny 10014, usa","Geocoded",NA,NA
"(Cruisy-late) at Sheridan Sq.","89 7th Ave.","Greenwich Village","NY","(M),(R)","Cruising Areas,Restaurant",1980,"","89 7th Ave., Greenwich Village, NY","-73.9988707","40.7394174","89 7th ave, new york, ny 10011, usa","Geocoded",NA,NA
"(Disco)","305 W. 10th St.","Greenwich Village","NY","(B),(D),(*)","Bars/Clubs",1980,"","305 W. 10th St., Greenwich Village, NY","-74.0098061","40.7332889","305 w 10th st, new york, ny 10014, usa","Geocoded",NA,NA
"(Some W, SM, FFA) (Best cruise bar on Dock Strip) betw. Christopher & W. 10th St.","394 West St.","Greenwich Village","NY","(*),(W),(SM),(FFA)","Bars/Clubs,Cruising Areas",1980,"","394 West St., Greenwich Village, NY","-74.0101582","40.7331559","394 west st, new york, ny 10014, usa","Geocoded",NA,NA
"(Gym) ","4th & Christopher Sts.","Greenwich Village","NY","(M)","Baths",1980,"labeled gym- type as bath?","4th & Christopher Sts., Greenwich Village, NY","-94.5305556","37.0883333","1419 w 4th st, joplin, mo 64801, usa","Geocoded",NA,NA
"(Flicks)","158 Perry St.","Greenwich Village","NY","","Bars/Clubs",1980,"flicks- means theatre? or a store that offers them?","158 Perry St., Greenwich Village, NY","-74.008974","40.7345241","158 perry st, new york, ny 10014, usa","Geocoded",NA,NA
"(Cabaret)","126 W. 13th St.","Greenwich Village","NY","(M),(R)","Restaurant",1980,"","126 W. 13th St., Greenwich Village, NY","-73.9986702","40.7370456","126 w 13th st, new york, ny 10011, usa","Geocoded",NA,NA
"('Mixed bag') betw. 10th & Christopher","392 West St.","Greenwich Village","NY","","Bars/Clubs",1980,"","392 West St., Greenwich Village, NY","-74.010073","40.7329072","392 west st, new york, ny 10014, usa","Geocoded",NA,NA
"","53 W. 19th St.","Greenwich Village","NY","(L)","Bars/Clubs",1980,"","53 W. 19th St., Greenwich Village, NY","-73.9937306","40.740279","53 w 19th st, new york, ny 10011, usa","Geocoded",NA,NA
"(Flicks') (WE*) at 20th St.","120 11th Ave.","Greenwich Village","NY","(W),(SM),(PT),(WE),(*)","Bars/Clubs",1980,"","120 11th Ave., Greenwich Village, NY","-74.007586","40.7469281","120 11th ave, new york, ny 10011, usa","Geocoded",NA,NA
"(Some SM) (Cruisy- 'wild back room') (3-1-70: Wish they would pay me) at 18th St.","130 10th Ave.","Greenwich Village","NY","(*),(W),(SM)","Cruising Areas,Bars/Clubs",1980,"","130 10th Ave., Greenwich Village, NY","-74.0061188","40.7446548","130 10th ave, new york, ny 10011, usa","Geocoded",NA,NA
"(Cruisy) nr. 7th Ave.","277 Bleecker St.","Greenwich Village","NY","(W),(SM),(*)","Cruising Areas,Bars/Clubs",1980,"","277 Bleecker St., Greenwich Village, NY","-74.0031405","40.7316603","277 bleecker st, new york, ny 10014, usa","Geocoded",NA,NA
"at 4th St.","68 2nd Ave.","East Village","NY","(PT)","Bars/Clubs",1980,"","68 2nd Ave., East Village, NY","-73.9892179","40.72594","68 2nd ave, new york, ny 10003, usa","Geocoded",NA,NA
"","178 Christopher St.","Greenwich Village","NY","(*)","Book Store",1980,"","178 Christopher St., Greenwich Village, NY","-74.0097018","40.732275","178 christopher st, new york, ny 10014, usa","Geocoded",NA,NA
"","135 Christopher St.","Greenwich Village","NY","(R)","Restaurant",1980,"","135 Christopher St., Greenwich Village, NY","-74.0069452","40.7331512","135 christopher st, new york, ny 10014, usa","Geocoded",NA,NA
"(No booze- 'juice bar'- 'Twinkies'( (Unisex) (Disco)","461 West St.","Greenwich Village","NY","(P),(D)","Bars/Clubs",1980,"","461 West St., Greenwich Village, NY","-74.0096868","40.7366531","461 west st, new york, ny 10014, usa","Geocoded",NA,NA
"(Cruisy) nr. Gay Street","8 Christopher St.","Greenwich Village","NY","(PT),(*)","Bars/Clubs,Cruising Areas",1980,"","8 Christopher St., Greenwich Village, NY","-74.0001048","40.7338418","8 christopher st, new york, ny 10014, usa","Geocoded",NA,NA
"(Cruisy) nr. Bedford","114 Christopher St.","Greenwich Village","NY","(W)","Cruising Areas,Bars/Clubs",1980,"","114 Christopher St., Greenwich Village, NY","-74.0052985","40.7330387","114 christopher st, new york, ny 10014, usa","Geocoded",NA,NA
"","220 W. Houston","Greenwich Village","NY","(M),(C),(AH),(P)","Bars/Clubs",1980,"","220 W. Houston, Greenwich Village, NY","-74.004558","40.7287585","220 w houston st, new york, ny 10014, usa","Geocoded",NA,NA
"(Baths) (11th floor) (Best days) at Broadway","1 Madien Lane","Greenwich Village","NY","(*)","Baths",1980,"","1 Madien Lane, Greenwich Village, NY","-74.0097251","40.7097821","1 maiden ln, new york, ny 10038, usa","Geocoded",NA,NA
"(An erotic emporium- books, 'toys', etc.) (Dock Strip)","390 West St.","Greenwich Village","NY","","Business,Book Store",1980,"","390 West St., Greenwich Village, NY","-74.010184","40.7328852","390 west st, new york, ny 10014, usa","Geocoded",NA,NA
"","235 E. 14th St.","Greenwich Village","NY","Cruisy Area","Theatre,Cruising Areas",1980,"","235 E. 14th St., Greenwich Village, NY","-73.9855083","40.732925","235 e 14th st, new york, ny 10003, usa","Geocoded",NA,NA
"(Some Latins) (Disco)","304 E. 39th St.","Midtown","NY","(*),(YC),(D)","Bars/Clubs",1980,"","304 E. 39th St., Midtown, NY","-73.9732617","40.7476504","304 e 39th st, new york, ny 10016, usa","Geocoded",NA,NA
"","318 W. 45th St.","Midtown","NY","(M),(R),(E)","Restaurant",1980,"","318 W. 45th St., Midtown, NY","-73.9894282","40.7594733","318 w 45th st, new york, ny 10036, usa","Geocoded",NA,NA
"","227 E. 45th St.","Midtown","NY","(OC)","Baths",1980,"","227 E. 45th St., Midtown, NY","-73.97177","40.752406","227 e 45th st, new york, ny 10017, usa","Geocoded",NA,NA
"(Many B) (Disco) ","316 W. 49th St.","Midtown","NY","(B),(D),(*)","Bars/Clubs",1980,"","316 W. 49th St., Midtown, NY","-73.9876634","40.7620327","316 w 49th st, new york, ny 10019, usa","Geocoded",NA,NA
"(Disco)","128 E. 45th St.","Midtown","NY","(YC),(D),(*)","Bars/Clubs",1980,"","128 E. 45th St., Midtown, NY","-73.9745089","40.7531642","128 e 45th st, new york, ny 10017, usa","Geocoded",NA,NA
"(Disco) (Lockers & showers) at 49th St.","1604 Broadway","Midtown","NY","(S),(E),(D)","Bars/Clubs,Baths",1980,"","1604 Broadway, Midtown, NY","-73.9842507","40.7604668","1604 broadway, new york, ny 10019, usa","Geocoded",NA,NA
"nr. 28th St.","381 3rd Ave.","Midtown","NY","","Bars/Clubs",1980,"","381 3rd Ave., Midtown, NY","-73.9809254","40.741496","381 3rd ave, new york, ny 10016, usa","Geocoded",NA,NA
"betw. 54th & 55th Sts.","1032 2nd Ave.","Midtown","NY","","Bars/Clubs",1980,"","1032 2nd Ave., Midtown, NY","-73.9662389","40.7575747","1032 2nd ave, new york, ny 10022, usa","Geocoded",NA,NA
"(Baths)","218 W. 49th St.","Midtown","NY","(D)","Baths,Bars/Clubs",1980,"","218 W. 49th St., Midtown, NY","-73.9852225","40.7608533","218 w 49th st, new york, ny 10019, usa","Geocoded",NA,NA
"at 27th St.","365 3rd Ave.","Midtown","NY","(R),(*)","Restaurant",1980,"","365 3rd Ave., Midtown, NY","-73.9811951","40.7408562","365 3rd ave, new york, ny 10016, usa","Geocoded",NA,NA
" nr. 55th St.","858 9th Ave.","Midtown","NY","","Bars/Clubs",1980,"","858 9th Ave., Midtown, NY","-73.986102","40.7669022","858 9th ave, new york, ny 10019, usa","Geocoded",NA,NA
"9'Top' in upper-midtown East side cruise bar) ('Humpy jocks') (Dome high priced hustlers)","244 E. 53rd St.","Midtown","NY","(*),(PT)","Bars/Clubs",1980,"","244 E. 53rd St., Midtown, NY","-73.967893","40.75682","244 e 53rd st, new york, ny 10022, usa","Geocoded",NA,NA
"('Mixed bag') at 36th St.","550 3rd Ave.","Midtown","NY","(PT)","Bars/Clubs",1980,"","550 3rd Ave., Midtown, NY","-73.9772754","40.7474383","550 3rd ave, new york, ny 10016, usa","Geocoded",NA,NA
"","264 W 43rd St.","Midtown","NY","","Bars/Clubs",1980,"","264 W 43rd St., Midtown, NY","-73.9887885","40.7576985","264 w 43rd st, new york, ny 10036, usa","Geocoded",NA,NA
"","732 8th Ave.","Midtown","NY","(RT)","Theatre",1980,"","732 8th Ave., Midtown, NY","-73.9879427","40.7593364","732 8th ave, new york, ny 10036, usa","Geocoded",NA,NA
"(Hotel-like baths) (Moving to 34th St.)","226 W. 42nd St.","Midtown","NY","","Baths",1980,"","226 W. 42nd St., Midtown, NY","-73.988174","40.75638","226 w 42nd st, new york, ny 10036, usa","Geocoded",NA,NA
"","232 W. 48th St.","Midtown","NY","","Bars/Clubs",1980,"","232 W. 48th St., Midtown, NY","-73.9861288","40.7605335","232 w 48th st, new york, ny 10036, usa","Geocoded",NA,NA
"(Baths)","227 E. 56th St.","Midtown","NY","(*)","Baths",1980,"","227 E. 56th St., Midtown, NY","-73.9668231","40.7593466","227 e 56th st, new york, ny 10022, usa","Geocoded",NA,NA
"(Snacks) at 47th St.","772 8th Ave.","Midtown","NY","(E),(PT)","Bars/Clubs",1980,"","772 8th Ave., Midtown, NY","-73.9871578","40.7605135","772 8th ave, new york, ny 10036, usa","Geocoded",NA,NA
"(A few high-class midnight cowboys)","353 E. 53rd St.","Midtown","NY","(PE)","Bars/Clubs",1980,"","353 E. 53rd St., Midtown, NY","-73.9651293","40.7560503","353 e 53rd st, new york, ny 10022, usa","Geocoded",NA,NA
"","201 W. 46th St.","Midtown","NY","","Bars/Clubs",1980,"","201 W. 46th St., Midtown, NY","-73.9857027","40.7589105","201 w 46th st, new york, ny 10036, usa","Geocoded",NA,NA
"('Drags', hustlers, transsexuals, go go boys) ","128 W. 45th St.","Midtown","NY","(D),(*)","Bars/Clubs",1980,"","128 W. 45th St., Midtown, NY","-73.9840168","40.7572579","128 w 45th st, new york, ny 10036, usa","Geocoded",NA,NA
"(Disco)","57 W. 57th St.","Midtown","NY","(YC),(D),(*)","Bars/Clubs",1980,"","57 W. 57th St., Midtown, NY","-73.9768174","40.7643578","57 w 57th st, new york, ny 10019, usa","Geocoded",NA,NA
"(Many Latins)","253 W. 46th St.","Midtown","NY","(PT)","Bars/Clubs",1980,"","253 W. 46th St., Midtown, NY","-73.9874749","40.7598108","253 w 46th st, new york, ny 10036, usa","Geocoded",NA,NA
"","123 E. 47th St.","Midtown","NY","(R),(OC),(*)","Restaurant",1980,"","123 E. 47th St., Midtown, NY","-73.973309","40.754663","123 e 47th st, new york, ny 10017, usa","Geocoded",NA,NA
"nr. 51st St.","975 2nd Ave.","Midtown","NY","(D),(PT),(*)","Bars/Clubs",1980,"","975 2nd Ave., Midtown, NY","-73.9680596","40.756013","975 2nd ave, new york, ny 10022, usa","Geocoded",NA,NA
"(Leather, books, arcade, etc.)","247 W. 42nd St.","Midtown","NY","","Book Store,Business",1980,"","247 W. 42nd St., Midtown, NY","-73.9888568","40.7573371","247 w 42nd st, new york, ny 10036, usa","Geocoded",NA,NA
"Hotel Allerton","132 E. 57th St.","Midtown","NY","(OC)","Bars/Clubs,Hotels",1980,"","132 E. 57th St., Midtown, NY","-73.9692306","40.7606471","132 e 57th st, new york, ny 10022, usa","Geocoded",NA,NA
"(Italian R)","953 1st Ave.","Midtown","NY","(R)","Restaurant",1980,"","953 1st Ave., Midtown, NY","-73.9652909","40.7555229","953 1st avenue, new york, ny 10022, usa","Geocoded",NA,NA
"","123 E. 57th St.","Midtown","NY","","Book Store",1980,"","123 E. 57th St., Midtown, NY","-73.9698401","40.7613431","123 e 57th st, new york, ny 10022, usa","Geocoded",NA,NA
"(Unisex) (Disco)","33 E. 52nd St.","Midtown","NY","(P),(YC),(M),(D)","Bars/Clubs",1980,"","33 E. 52nd St., Midtown, NY","-73.9747026","40.7593641","33 e 52nd st, new york, ny 10022, usa","Geocoded",NA,NA
"betw. 45th & 46th Sts.","730 8th Ave.","Midtown","NY","(PT)","Bars/Clubs",1980,"","730 8th Ave., Midtown, NY","-73.9879772","40.7592931","730 8th ave, new york, ny 10036, usa","Geocoded",NA,NA
"","358 W. 30th St.","Midtown","NY","(H)","Hotels",1980,"","358 W. 30th St., Midtown, NY","-73.9975377","40.7504311","358 w 30th st, new york, ny 10001, usa","Geocoded",NA,NA
"","236 W. 54th St.","Midtown","NY","","Theatre",1980,"","236 W. 54th St., Midtown, NY","-73.9832325","40.7641217","236 w 54th st, new york, ny 10019, usa","Geocoded",NA,NA
"(Books, 'toys', peep shows) (Cruisy)","210 W. 42nd St.","Midtown","NY","(*)","Cruising Areas,Book Store,Theatre",1980,"","210 W. 42nd St., Midtown, NY","-73.9874294","40.7560623","210 w 42nd st, new york, ny 10036, usa","Geocoded",NA,NA
"(Disco) (3rd Floor)","35 W. 43rd St.","Midtown","NY","(P),(M),(D),(PT),(AH)","Bars/Clubs",1980,"","35 W. 43rd St., Midtown, NY","-73.9819838","40.7550912","35 w 43rd st, new york, ny 10036, usa","Geocoded",NA,NA
"(French R)","1047 2nd Ave.","Midtown","NY","(R)","Restaurant",1980,"","1047 2nd Ave., Midtown, NY","-73.9664086","40.7582459","draught 55, 1047 2nd ave, new york, ny 10022, usa","Geocoded",NA,NA
"(Leather, 'toys' jewelry, etc.)","939 2nd Ave.","Midtown","NY","(*)","Business",1980,"","939 2nd Ave., Midtown, NY","-73.9688863","40.7548515","939 2nd ave, new york, ny 10022, usa","Geocoded",NA,NA
"","56 W. 46th St. ","Midtown","NY","(R)","Restaurant",1980,"","56 W. 46th St. , Midtown, NY","-73.9794569","40.7562187","56 w 46th st, new york, ny 10036, usa","Geocoded",NA,NA
"","210 W. 49th St.","Midtown","NY","(S),(E)","Theatre",1980,"","210 W. 49th St., Midtown, NY","-73.9847837","40.7606687","210 w 49th st, new york, ny 10019, usa","Geocoded",NA,NA
"","300 W. 58th St.","Midtown","NY","","Baths",1980,"","300 W. 58th St., Midtown, NY","-73.9828371","40.7675174","300 w 58th st, new york, ny 10019, usa","Geocoded",NA,NA
"nr. 53rd St.","951 1st Ave.","Midtown","NY","(R),(*)","Restaurant",1980,"","951 1st Ave., Midtown, NY","-73.9652613","40.7554583","951 1st avenue, new york, ny 10022, usa","Geocoded",NA,NA
"","38 W. 28th St.","Midtown","NY","(*)","Book Store",1980,"","38 W. 28th St., Midtown, NY","-73.9896373","40.7454828","38 w 28th st, new york, ny 10001, usa","Geocoded",NA,NA
"","204 E. 58th St.","Midtown","NY","","Bars/Clubs",1980,"","204 E. 58th St., Midtown, NY","-73.9666977","40.7605726","204 e 58th st, new york, ny 10022, usa","Geocoded",NA,NA
"","248 E. 52nd St.","Midtown","NY","(PE),(M),(R),(E)","Restaurant",1980,"","248 E. 52nd St., Midtown, NY","-73.9682501","40.7560715","248 e 52nd st, new york, ny 10022, usa","Geocoded",NA,NA
"at 36th St.","542 3rd Ave.","Midtown","NY","(R),(*)","Restaurant",1980,"","542 3rd Ave., Midtown, NY","-73.9773925","40.7472189","542 3rd ave, new york, ny 10016, usa","Geocoded",NA,NA
"","350 W. 46th St.","Midtown","NY","(R),(E)","Restaurant",1980,"","350 W. 46th St., Midtown, NY","-73.9898821","40.7603521","350 w 46th st, new york, ny 10036, usa","Geocoded",NA,NA
"(Very M) (Disco) (Best late)","254 W. 54th St.","Midtown","NY","(P),(M),(D),(*)","Bars/Clubs",1980,"","254 W. 54th St., Midtown, NY","-73.9837835","40.7643543","254 w 54th st, new york, ny 10019, usa","Geocoded",NA,NA
"","38 W. 28th St.","Midtown","NY","(*)","Book Store",1980,"","38 W. 28th St., Midtown, NY","-73.9896373","40.7454828","38 w 28th st, new york, ny 10001, usa","Geocoded",NA,NA
"('Top' lower midtown East Side cruise bar) at 38th St.","581 3rd Ave.","Midtown","NY","(*)","Bars/Clubs,Cruising Areas",1980,"","581 3rd Ave., Midtown, NY","-73.9759813","40.7482465","581 3rd ave, new york, ny 10016, usa","Geocoded",NA,NA
"","710 2nd Ave.","Midtown","NY","(R),(*)","Restaurant",1980,"","710 2nd Ave., Midtown, NY","-73.9735275","40.7472917","710 2nd ave, new york, ny 10016, usa","Geocoded",NA,NA
"(Very mixed bag) (WE*)","230 W. 75th St.","Uptown","NY","(WE),(*)","Bars/Clubs",1980,"","230 W. 75th St., Uptown, NY","-73.9831155","40.7651008","230 w 55th st, new york, ny 10019, usa","Geocoded",NA,NA
"(Some W, YC, SM) (Cruisy) nr. 75th","317 Amsterdam Ave.","Uptown","NY","(W),(YC),(SM),Cruisy Area,(*)","Bars/Clubs,Cruising Areas",1980,"","317 Amsterdam Ave., Uptown, NY","-73.9800426","40.7804473","317 amsterdam ave, new york, ny 10023, usa","Geocoded",NA,NA
"(Continental R) at 80th St.","1406 3rd Ave.","Uptown","NY","(M),(R)","Restaurant",1980,"","1406 3rd Ave., Uptown, NY","-73.9571173","40.7749717","1406 3rd ave, new york, ny 10075, usa","Geocoded",NA,NA
"(Cabaret) Park Royal Hotel ","23 W. 73rd St.","Uptown","NY","(R)","Restaurant,Hotels",1980,"","23 W. 73rd St., Uptown, NY","-73.9767658","40.7776725","23 w 73rd st, new york, ny 10023, usa","Geocoded",NA,NA
"(Disco)","350 E. 81st St.","Uptown","NY","(PE),(L),(D)","Bars/Clubs",1980,"","350 E. 81st St., Uptown, NY","-73.952156","40.7740889","345e e 81st st, new york, ny 10028, usa","Geocoded",NA,NA
"(Top uptown East Side cruise bar) at 87th St.","1558 3rd Ave.","Uptown","NY","(PT),(*)","Cruising Areas,Bars/Clubs",1980,"","1558 3rd Ave., Uptown, NY","-73.9535015","40.7799392","1558 3rd ave, new york, ny 10128, usa","Geocoded",NA,NA
"at 71st St.","2061 Broadway","Uptown","NY","(R)","Restaurant",1980,"","2061 Broadway, Uptown, NY","-73.9823372","40.7782124","2061 broadway, new york, ny 10023, usa","Geocoded",NA,NA
"(Cabaret) (On again- off again)","210 W. 70th St.","Uptown","NY","(M),(R)","Restaurant",1980,"","210 W. 70th St., Uptown, NY","-73.9835311","40.7774537","210 w 70th st, new york, ny 10023, usa","Geocoded",NA,NA
"at 72nd St.","1007 Lexington Ave.","Uptown","NY","(*)","Bars/Clubs",1980,"","1007 Lexington Ave., Uptown, NY","-73.9617393","40.7707301","1007 lexington ave, new york, ny 10021, usa","Geocoded",NA,NA
"(Some W, SM)","168 Amsterdam Ave.","Uptown","NY","(W),(SM)","Bars/Clubs",1980,"","168 Amsterdam Ave., Uptown, NY","-73.9369682","40.8398924","amsterdam ave & w 168th st, new york, ny 10032, usa","Geocoded",NA,NA
"(Disco) (Cruisy) at 80th St.","1422 3rd Ave.","Uptown","NY","(D),(*)","Cruising Areas,Bars/Clubs",1980,"","1422 3rd Ave., Uptown, NY","-73.956809","40.775491","1422 3rd ave, new york, ny 10028, usa","Geocoded",NA,NA
"(Gay dept. store- jewelry, clothes, etc,)","313 Amsterdam Ave.","Uptown","NY","(*)","Business",1980,"","313 Amsterdam Ave., Uptown, NY","-73.9801333","40.7802717","313 amsterdam ave, new york, ny 10023, usa","Geocoded",NA,NA
"at Broadway","217 W. 80th St.","Uptown","NY","(*)","Book Store",1980,"","217 W. 80th St., Uptown, NY","-73.9787674","40.7843296","217 w 80th st, new york, ny 10024, usa","Geocoded",NA,NA
"(Books, etc.)","287 Amsterdam Ave.","Uptown","NY","(*)","Book Store",1980,"","287 Amsterdam Ave., Uptown, NY","-73.9805874","40.7795883","287 amsterdam ave, new york, ny 10023, usa","Geocoded",NA,NA
"(Disco)","36 W. 62nd St.","Uptown","NY","(D),(M)","Bars/Clubs",1980,"","36 W. 62nd St., Uptown, NY","-73.9821699","40.7705853","36 w 62nd st, new york, ny 10023, usa","Geocoded",NA,NA
"(Cruisy)","305 Columbus Ave.","Uptown","NY","(*)","Cruising Areas,Bars/Clubs",1980,"","305 Columbus Ave., Uptown, NY","-73.9773326","40.7788905","305 columbus ave, new york, ny 10023, usa","Geocoded",NA,NA
"at 70th","2057 Broadway","Uptown","NY","","Bars/Clubs",1980,"","2057 Broadway, Uptown, NY","-73.9823865","40.7781778","2057 broadway, new york, ny 10023, usa","Geocoded",NA,NA
"at 84th St.","1485 3rd Ave.","Uptown","NY","(S),(E)","Bars/Clubs",1980,"","1485 3rd Ave., Uptown, NY","-73.9547949","40.7773182","1485 3rd ave, new york, ny 10028, usa","Geocoded",NA,NA
"","127 W. 72nd St.","Uptown","NY","(B),(YC),(D),(*)","Bars/Clubs",1980,"","127 W. 72nd St., Uptown, NY","-73.9797078","40.7779625","127 w 72nd st, new york, ny 10023, usa","Geocoded",NA,NA
"(Many L) at 81st ave.","1200 Lexington Ave.","Uptown","NY","(L),(D)","Bars/Clubs",1980,"","1200 Lexington Ave., Uptown, NY","-73.9579528","40.7766333","1200 lexington ave, new york, ny 10028, usa","Geocoded",NA,NA
"at 125th St.","1944 Madison Ave.","Uptown","NY","(B)","Baths",1980,"","1944 Madison Ave., Uptown, NY","-73.9409733","40.8055437","1944 madison ave, new york, ny 10035, usa","Geocoded",NA,NA
"(Hamburgers)","234 Columbus Ave.","Uptown","NY","(R),(*)","Restaurant",1980,"","234 Columbus Ave., Uptown, NY","-73.9796286","40.7766645","234 columbus ave, new york, ny 10023, usa","Geocoded",NA,NA
"(Cruisy) at 75th St.","1049 Lexington Ave.","Uptown","NY","(YC),(*)","Cruising Areas,Bars/Clubs",1980,"","1049 Lexington Ave., Uptown, NY","-73.9607547","40.7720799","1049 lexington ave, new york, ny 10021, usa","Geocoded",NA,NA
"(Some Orientals) nr. 82nd St.","1463 3rd Ave.","Uptown","NY","","Bars/Clubs",1980,"","1463 3rd Ave., Uptown, NY","-73.9553038","40.776502","1463 3rd ave, new york, ny 10028, usa","Geocoded",NA,NA
"at 82nd St.","1574 2nd Ave.","Uptown","NY","(R),(E)","Restaurant",1980,"","1574 2nd Ave., Uptown, NY","-73.9535392","40.7750381","1574 2nd ave, new york, ny 10028, usa","Geocoded",NA,NA
"(Adm. charge) (Disco-D- upstairs)","1234 2nd Ave.","Uptown","NY","(OC),(L),(E),(D),(*)","Bars/Clubs",1980,"","1234 2nd Ave., Uptown, NY","-73.9615108","40.764087","1234 2nd ave, new york, ny 10065, usa","Geocoded",NA,NA
"(Mixed bag- small disco) at 75th","324 Amsterdam Ave.","Uptown","NY","(YC)","Bars/Clubs",1980,"","324 Amsterdam Ave., Uptown, NY","-73.9802884","40.7809375","324 amsterdam ave, new york, ny 10023, usa","Geocoded",NA,NA
"(Cruisy) nr. 74th St.","308 Columbus Ave.","Uptown","NY","(*)","Cruising Areas,Bars/Clubs",1980,"","308 Columbus Ave., Uptown, NY","-73.977616","40.7790129","308 columbus ave, new york, ny 10023, usa","Geocoded",NA,NA
"","201 W. 92nd St.","Uptown","NY","(L)","Book Store",1980,"","201 W. 92nd St., Uptown, NY","-73.9725548","40.7917966","201 w 92nd st, new york, ny 10025, usa","Geocoded",NA,NA
"","71 Pineapple St.","Brooklyn","NY","","Bars/Clubs",1980,"","71 Pineapple St., Brooklyn, NY","-73.993038","40.6983742","71 pineapple st, brooklyn, ny 11201, usa","Geocoded",NA,NA
"","162 Montague St.","Brooklyn Heights","NY","(M)","Book Store",1980,"","162 Montague St., Brooklyn Heights, NY","-73.9928049","40.6941905","162 montague st, brooklyn, ny 11201, usa","Geocoded",NA,NA
"","143 7th Ave.","Brooklyn","NY","(M)","Book Store",1980,"","143 7th Ave., Brooklyn, NY","-73.9764258","40.6726651","143 7th ave, brooklyn, ny 11215, usa","Geocoded",NA,NA
"(Disco)","6826 New Utrecht","Brooklyn","NY","(D)","Bars/Clubs",1980,"","6826 New Utrecht, Brooklyn, NY","-73.9986942","40.620657","6826 new utrecht ave, brooklyn, ny 11219, usa","Geocoded",NA,NA
"","408 Jay St.","Brooklyn","NY","","Book Store",1980,"","408 Jay St., Brooklyn, NY","-73.9875377","40.6918992","408 jay st, brooklyn, ny 11201, usa","Geocoded",NA,NA
"(Disco) (Sun. brunch)","108 Montague St.","Brooklyn Heights","NY","(D)","Bars/Clubs",1980,"","108 Montague St., Brooklyn Heights, NY","-73.9951941","40.6948774","108 montague st, brooklyn, ny 11201, usa","Geocoded",NA,NA
"","88 Court St.","Brooklyn","NY","","Book Store",1980,"","88 Court St., Brooklyn, NY","-73.9918428","40.6912319","88 court st, brooklyn, ny 11201, usa","Geocoded",NA,NA
"(Residential H) (Men only)","357 Dean St.","Boerum Hill","NY","(H)","Hotels",1980,"","357 Dean St., Boerum Hill, NY","-73.9797236","40.6834873","357 dean st, brooklyn, ny 11217, usa","Geocoded",NA,NA
"","113-24 Queens Blvd.","Forrest Hill","NY","(R)","Restaurant",1980,"","113-24 Queens Blvd., Forrest Hill, NY","-73.8357179","40.7175658","113-24 queens blvd, forest hills, ny 11375, usa","Geocoded",NA,NA
"(Disco)","79 Pineapple St.","Brooklyn Heights","NY","(YC),(D),(*)","Bars/Clubs",1980,"","79 Pineapple St., Brooklyn Heights, NY","-73.9927931","40.6982936","79 pineapple st, brooklyn, ny 11201, usa","Geocoded",NA,NA
"(L- 8pm to 2:30 am- Guys 4am-??)","130-02 Atlantic Ave.","Richmond Hill","NY","(AH),(L)","Bars/Clubs",1980,"","130-02 Atlantic Ave., Richmond Hill, NY","-73.8186991","40.695726","130-02 atlantic ave, jamaica, ny 11419, usa","Geocoded",NA,NA
"(Disco)","9203 Astoria Blvd.","Jackson Heights","NY","(D)","Bars/Clubs",1980,"","9203 Astoria Blvd., Jackson Heights, NY","-73.8771211","40.7635308","92-03 astoria blvd, flushing, ny 11369, usa","Geocoded",NA,NA
"(Some L) ","205 Cypress Ave.","Ridgewood","NY","(L),(R)","Restaurant",1980,"","205 Cypress Ave., Ridgewood, NY","-73.9196209","40.7082781","205 cypress ave, ridgewood, ny 11385, usa","Geocoded",NA,NA
"(Some YC, W, SM)","76-07 Roosevelt Ave.","Jackson Heights","NY","(YC),(W),(SM),(PT),(*)","Bars/Clubs",1980,"","76-07 Roosevelt Ave., Jackson Heights, NY","-73.8892961","40.7473326","76-07 roosevelt ave, jackson heights, ny 11372, usa","Geocoded",NA,NA
"(Cruisy)","73-13 37th Ave.","Jackson Heights","NY","(D)","Cruising Areas,Bars/Clubs",1980,"","73-13 37th Ave., Jackson Heights, NY","-73.8923292","40.7490865","73-13 37th ave, jackson heights, ny 11372, usa","Geocoded",NA,NA
"(Wed.- Sun.)","81-36 Baxter Ave.","Elmhurst","NY","","Bars/Clubs",1980,"","81-36 Baxter Ave., Elmhurst, NY","-73.8834605","40.7459951","81-36 baxter ave, queens, ny 11373, usa","Geocoded",NA,NA
"(Disco) ","120-31 83rd Ave.","Kew Gardens","NY","(D),(YC),(*)","Bars/Clubs",1980,"","120-31 83rd Ave., Kew Gardens, NY","-73.8313598","40.708745","120-31 83rd ave, kew gardens, ny 11415, usa","Geocoded",NA,NA
"(Disco)","63-12 Broadway","Queens","NY","(YC),(D),(*)","Bars/Clubs",1980,"","63-12 Broadway, Queens, NY","-73.8988583","40.7496289","63-12 broadway, woodside, ny 11377, usa","Geocoded",NA,NA
"(Baths) ","137-08 Northern Blvd.","Flushing","NY","","Baths",1980,"","137-08 Northern Blvd., Flushing, NY","-73.8307935","40.7631033","137-8 northern blvd, flushing, ny 11354, usa","Geocoded",NA,NA
"(Disco) (Some B) Hillside Ave at Parsons","","Jamaica","NY","(D),(B)","Bars/Clubs",1980,"",", Jamaica, NY","-73.7889689","40.702677","jamaica, queens, ny, usa","Geocoded",NA,NA
"","130-04 Atlantic Ave.","Richmond Hill","NY","(W)","Bars/Clubs",1980,"","130-04 Atlantic Ave., Richmond Hill, NY","-73.8186485","40.6957404","130-4 atlantic ave, south richmond hill, ny 11419, usa","Geocoded",NA,NA
"","79-24 Cypress Ave.","Ridgewood","NY","(L)","Bars/Clubs",1980,"","79-24 Cypress Ave., Ridgewood, NY","-73.8977356","40.6941867","79-24 cypress ave, flushing, ny 11385, usa","Geocoded",NA,NA
"","77-02 Broadway","Jackson Heights","NY","","Bars/Clubs",1980,"","77-02 Broadway, Jackson Heights, NY","-73.8881686","40.7451386","7702 broadway, queens, ny 11373, usa","Geocoded",NA,NA
"","172-22 Hillsdale Ave.","Jamaica","NY","","Bars/Clubs",1980,"","172-22 Hillsdale Ave., Jamaica, NY","-73.7893951","40.7117738","172-22 hillside avenue, jamaica, ny 11432, usa","Geocoded",NA,NA
"(Disco)","492 Bay St.","Staten Island","NY","(M),(D),(S)","Bars/Clubs",1980,"","492 Bay St., Staten Island, NY","-74.0768153","40.6298996","492 bay st, staten island, ny 10304, usa","Geocoded",NA,NA
"(Latins) (Disco) (Sat. only- 4rd floor)","508 Willis Ave.","Bronx","NY","(D)","Bars/Clubs",1980,"","508 Willis Ave., Bronx, NY","-73.9182468","40.8151171","508 willis ave, the bronx, ny 10455, usa","Geocoded",NA,NA
"","901 Father Cappando Blvd.","Staten Island","NY","(L),(D),(PT)","Bars/Clubs",1980,"","901 Father Cappando Blvd., Staten Island, NY","-74.0855282","40.5746154","901 father capodanno blvd, staten island, ny 10305, usa","Geocoded",NA,NA
"(Many L) ","381 Van Duzer St.","Staten Island","NY","(R),(L)","Restaurant",1980,"","381 Van Duzer St., Staten Island, NY","-74.0796945","40.6287204","381 van duzer st, staten island, ny 10304, usa","Geocoded",NA,NA
"(Disco) (Some Latins)","1969 Jerome Ave.","Bronx","NY","(D)","Bars/Clubs",1980,"","1969 Jerome Ave., Bronx, NY","-73.9092348","40.8521423","1969 jerome ave, the bronx, ny 10453, usa","Geocoded",NA,NA
"(Disco) (Cruisy)","1149 Michigan Ave.","Niagara Falls","NY","(D),(PT),(*)","Cruising Areas,Bars/Clubs",1980,"","1149 Michigan Ave., Niagara Falls, NY","-79.0470041","43.1044225","1149 michigan ave, niagara falls, ny 14305, usa","Geocoded",NA,NA
"(Many L) (Disco) ($2.50 min.) (South Beach)","86 Mills Ave.","Staten Island","NY","(*),(L),(D),(S)","Bars/Clubs",1980,"","86 Mills Ave., Staten Island, NY","-74.0677591","40.5950954","86 mills ave, staten island, ny 10305, usa","Geocoded",NA,NA
"(Many L) nr. Jerome","56 E. Mt. Eden Ave.","Bronx","NY","(L)","Bars/Clubs",1980,"","56 E. Mt. Eden Ave., Bronx, NY","-73.9136784","40.8437173","56 e mt eden ave, the bronx, ny 10452, usa","Geocoded",NA,NA
"(Many L)","2228 E. Falls Rd.","Niagara Falls","NY","(L)","Bars/Clubs",1980,"","2228 E. Falls Rd., Niagara Falls, NY","-79.03448","43.087082","2228 falls st, niagara falls, ny 14303, usa","Geocoded",NA,NA
"(Some L) (Disco) ","201 Rte. 9W","Congers","NY","(L),(*),(D)","Bars/Clubs",1980,"","201 Rte. 9W, Congers, NY","-73.9295067","41.161059","201 rte 9w, congers, ny 10920, usa","Geocoded",NA,NA
"","659 E. State St.","Olean","NY","(M),(R)","Restaurant",1980,"","659 E. State St., Olean, NY","-78.4174803","42.0774451","659 e state st, olean, ny 14760, usa","Geocoded",NA,NA
"","30 Marion St.","Plattsburg","NY","(M)","Bars/Clubs",1980,"","30 Marion St., Plattsburg, NY","-73.4542879","44.6979705","30 marion st, plattsburgh, ny 12901, usa","Geocoded",NA,NA
"(Disco)","68 Westchester Ave.","Port Chester","NY","(M),(D),(PT)","Bars/Clubs",1980,"couldn't tell if it was 68 or 88 Westchester","68 Westchester Ave., Port Chester, NY","-73.6638724","40.999993","68 westchester ave, port chester, ny 10573, usa","Geocoded",NA,NA
"","618 Lake St.","Rochester","NY","(M),(OC),(E)","Bars/Clubs",1980,"","618 Lake St., Rochester, NY","-77.6303107","43.1762572","618 lake ave, rochester, ny 14613, usa","Geocoded",NA,NA
"","522 Monroe Ave.","Rochester","NY","","Bars/Clubs",1980,"","522 Monroe Ave., Rochester, NY","-77.5930368","43.1464217","522 monroe ave, rochester, ny 14607, usa","Geocoded",NA,NA
"Main & Hamilton","","Poughkeepsie","NY","(M),(R),(C),(AH)","Restaurant",1980,"",", Poughkeepsie, NY","-73.9209701","41.7003713","poughkeepsie, ny, usa","Geocoded",NA,NA
"(Some SM, W, OC, RT) (WE*) nr. goodman","1065 E. Main","Rochester","NY","(SM),(W),(OC),(RT),(WE),(*)","Bars/Clubs",1980,"","1065 E. Main, Rochester, NY","-77.5836277","43.1620398","1065 e main st, rochester, ny 14609, usa","Geocoded",NA,NA
"(Closes 1am)","415 Main","Poughkeepsie","NY","(D),(*)","Bars/Clubs",1980,"","415 Main, Poughkeepsie, NY","-73.9228428","41.7019802","415 main st, poughkeepsie, ny 12601, usa","Geocoded",NA,NA
"(Disco)","248 Monroe Ave.","Rochester","NY","(R),(YC),(D),(S),(*)","Restaurant,Bars/Clubs",1980,"","248 Monroe Ave., Rochester, NY","-77.5990939","43.149873","248 monroe ave, rochester, ny 14607, usa","Geocoded",NA,NA
"","115 N. Clinton","Rochester","NY","","Book Store",1980,"","115 N. Clinton, Rochester, NY","-77.6075606","43.1595915","115 n clinton ave, rochester, ny 14604, usa","Geocoded",NA,NA
"(Baths)","92 North St.","Rochester","NY","(*)","Baths",1980,"","92 North St., Rochester, NY","-77.602818","43.1615854","92 north st, rochester, ny 14604, usa","Geocoded",NA,NA
"(Disco) (2 bars) (go go boys)","123 North St.","Rochester","NY","(YC),(*),(D),(PT)","Bars/Clubs",1980,"","123 North St., Rochester, NY","-77.6027798","43.1616621","123 north st, rochester, ny 14604, usa","Geocoded",NA,NA
"","109 North St.","Rochester","NY","(*)","Baths",1980,"","109 North St., Rochester, NY","-77.602798","43.1616258","109 north st, rochester, ny 14604, usa","Geocoded",NA,NA
"","89 Elm St.","Rochester","NY","(YC),(RT),(D),(S),(*)","Bars/Clubs",1980,"","89 Elm St., Rochester, NY","-77.603482","43.155833","89 elm st, rochester, ny 14604, usa","Geocoded",NA,NA
"","109 State St.","Rochester","NY","","Book Store",1980,"","109 State St., Rochester, NY","-77.6145676","43.1573614","109 state st, rochester, ny 14614, usa","Geocoded",NA,NA
"","242 South Ave.","Rochester","NY","(L),(D),(*)","Bars/Clubs",1980,"","242 South Ave., Rochester, NY","-77.6067364","43.1515822","242 south ave, rochester, ny 14604, usa","Geocoded",NA,NA
"(Piano bar)","395 Andrews St.","Rochester","NY","(OC),(E)","Bars/Clubs",1980,"","395 Andrews St., Rochester, NY","-77.6039312","43.1607615","395 andrews st, rochester, ny 14604, usa","Geocoded",NA,NA
"","212 Colvin St.","Rochester","NY","(L)","Bars/Clubs",1980,"","212 Colvin St., Rochester, NY","-77.6408985","43.1546705","212 colvin st, rochester, ny 14611, usa","Geocoded",NA,NA
"","225 E. Domenick","Rome","NY","(M)","Bars/Clubs",1980,"","225 E. Domenick, Rome, NY","-75.4535674","43.2091194","225 e dominick st, rome, ny 13440, usa","Geocoded",NA,NA
"","1053 Northern Blvd.","Roslyn","NY","","Bars/Clubs",1980,"Long Island","1053 Northern Blvd., Roslyn, NY","-73.664223","40.798552","1053 northern blvd, roslyn, ny 11576, usa","Geocoded",NA,NA
"(Pub downstairs best- M- E- upstairs- Use rear entrance)","1442 Old Northern Blvd.","Roslyn","NY","(M),(E)","Bars/Clubs",1980,"","1442 Old Northern Blvd., Roslyn, NY","-73.6467121","40.8022752","1442 old northern blvd, roslyn, ny 11576, usa","Geocoded",NA,NA
"(Cruisy) (Disco) (Montauk Hwy.)","192 N. Main St.","Sayville","NY","(*),(W),(D)","Bars/Clubs,Cruising Areas",1980,"Long Island","192 N. Main St., Sayville, NY","-73.07914","40.738155","192 n main st, sayville, ny 11782, usa","Geocoded",NA,NA
"(Some OC)","239 N. Main St.","Sayville","NY","(OC)","Bars/Clubs",1980,"Long Island","239 N. Main St., Sayville, NY","-73.0796796","40.7399393","239 n main st, sayville, ny 11782, usa","Geocoded",NA,NA
"","50 N. Jay St.","Schenectady","NY","(PT),(OC)","Bars/Clubs",1980,"","50 N. Jay St., Schenectady, NY","-73.937614","42.817723","50 n jay st, schenectady, ny 12305, usa","Geocoded",NA,NA
"(Disco) (Some L) (Closed Monday)","1925 Curry Rd.","Schenectady","NY","(*),(YC),(D),(L),(PT)","Bars/Clubs",1980,"","1925 Curry Rd., Schenectady, NY","-73.9553612","42.7798972","1925 curry rd, schenectady, ny 12303, usa","Geocoded",NA,NA
"","1 Mill Land","Schenectady","NY","","Bars/Clubs",1980,"","1 Mill Land, Schenectady, NY","-73.9466566","42.8146591","1 mill ln, schenectady, ny 12305, usa","Geocoded",NA,NA
"(Disco) (Cruisy) opp. Seaford R.R. Station","3882 Sunrise Hwy.","Seaford","NY","(*),(YC),(D)","Cruising Areas,Bars/Clubs",1980,"Long Island","3882 Sunrise Hwy., Seaford, NY","-73.4888668","40.6742909","3882 sunrise hwy, seaford, ny 11783, usa","Geocoded",NA,NA
"(Head shop, books)","237 E. Genesee","Syracuse","NY","(M)","Business,Book Store",1980,"","237 E. Genesee, Syracuse, NY","-76.1495","43.049839","237 e genesee st, syracuse, ny 13202, usa","Geocoded",NA,NA
"","574 S. Salina","Syracuse","NY","","Book Store",1980,"","574 S. Salina, Syracuse, NY","-76.1522364","43.0431226","574 s salina st, syracuse, ny 13202, usa","Geocoded",NA,NA
"","365 Boyle Rd.","Seldon","NY","","Bars/Clubs",1980,"","365 Boyle Rd., Seldon, NY","-73.0520918","40.8884901","365 boyle rd, selden, ny 11784, usa","Geocoded",NA,NA
"(Some L)","210 Hawley","Syracuse","NY","(M),(L)","Bars/Clubs",1980,"","210 Hawley, Syracuse, NY","-76.1431159","43.0531179","210 hawley ave, syracuse, ny 13203, usa","Geocoded",NA,NA
"(Books)","306 S. Franklin","Syracuse","NY","","Book Store",1980,"","306 S. Franklin, Syracuse, NY","-76.1556798","43.0484762","306 s franklin st, syracuse, ny 13202, usa","Geocoded",NA,NA
"(Disco) (Looks promising)","253 E. Water","Syracuse","NY","(R),(D)","Restaurant",1980,"","253 E. Water, Syracuse, NY","-76.1496383","43.0507183","253 e water st, syracuse, ny 13202, usa","Geocoded",NA,NA
"","307 W. Fayette","Syracuse","NY","","Book Store",1980,"","307 W. Fayette, Syracuse, NY","-76.155843","43.0484791","307 w fayette st, syracuse, ny 13202, usa","Geocoded",NA,NA
"","218 N. Franklin St.","Syracuse","NY","(L),(D),(*)","Bars/Clubs",1980,"","218 N. Franklin St., Syracuse, NY","-76.1546919","43.053146","218 n franklin st, syracuse, ny 13202, usa","Geocoded",NA,NA
"","819 Madison Ave.","Syracuse","NY","(MCC)","Church",1980,"","819 Madison Ave., Syracuse, NY","-76.1349397","43.0455771","819 madison st, syracuse, ny 13210, usa","Geocoded",NA,NA
"(North) (3 Rooms) (Disco) (Cruisy)","138 E. Genesee","Syracuse","NY","(*),(D)","Bars/Clubs,Cruising Areas",1980,"","138 E. Genesee, Syracuse, NY","-76.0916481","43.0423138","138 e genesee pkwy, syracuse, ny 13214, usa","Geocoded",NA,NA
"(Many L)","1203 Butternut St.","Syracuse","NY","(PT),(L)","Bars/Clubs",1980,"","1203 Butternut St., Syracuse, NY","-76.1436563","43.0666448","1203 butternut st, syracuse, ny 13208, usa","Geocoded",NA,NA
"","252 W. Genesee","Syracuse","NY","(M),(R)","Restaurant",1980,"","252 W. Genesee, Syracuse, NY","-76.1545978","43.0521659","252 w genesee st, syracuse, ny 13202, usa","Geocoded",NA,NA
"(Disco) (Some B, RT, Hustlers)","308 S. Warren","Syracuse","NY","(D),(B),(RT)","Bars/Clubs",1980,"","308 S. Warren, Syracuse, NY","-76.1510876","43.0484391","308 s warren st, syracuse, ny 13202, usa","Geocoded",NA,NA
"(2nd floor)","309 S. Warren","Syracuse","NY","(*)","Baths",1980,"","309 S. Warren, Syracuse, NY","-76.1505569","43.0483724","309 s warren st, syracuse, ny 13202, usa","Geocoded",NA,NA
"(Summer guest house) ","123 N. Main","East Hampton","NY","(P)","Hotels",1980,"","123 N. Main, East Hampton, NY","-72.1825987","40.9708519","123 n main st, east hampton, ny 11937, usa","Geocoded",NA,NA
"(Disco) at Broadway","308 Columbia","Utica","NY","(YC),(D),(PT),(*)","Bars/Clubs",1980,"","308 Columbia, Utica, NY","-75.2339363","43.1025316","308 columbia st, utica, ny 13502, usa","Geocoded",NA,NA
"(Many L)","121 Woodfield","West Hempstead","NY","(*),(YC),(D),(PT)","Bars/Clubs",1980,"Long Island","121 Woodfield, West Hempstead, NY","-73.644155","40.7009024","121 woodfield rd, west hempstead, ny 11552, usa","Geocoded",NA,NA
"","81 Public Square","Watertown","NY","(M),(OC)","Bars/Clubs",1980,"","81 Public Square, Watertown, NY","-75.9091298","43.9748652","81 public square, watertown, ny 13601, usa","Geocoded",NA,NA
"(Disco) (Some L)","590 Nepperham Ave.","Yonkers","NY","(D),(L),(S),(E),(*)","Bars/Clubs",1980,"","590 Nepperham Ave., Yonkers, NY","-73.8823925","40.9458318","590 nepperhan ave, yonkers, ny 10703, usa","Geocoded",NA,NA
"(Disco) ('Back room') at 11th Ave.","500 W. 14th","Greenwich Village","NY","(P),(D),(RT),(AYOR)","Bars/Clubs",1980,"","500 W. 14th, Greenwich Village, NY","-74.0084683","40.7421672","500 w 14th st, new york, ny 10014, usa","Geocoded",NA,NA
"(Baths)","351 Central Ave.","Albany","NY","(P)","Baths",1979,"","351 Central Ave., Albany, NY","-73.773385","42.666071","351 central ave, albany, ny 12206, usa","Geocoded",NA,NA
"(Noon- 4 a.m.)","62 N. Lake Ave.","Albany","NY","(M),(R),(C)","Restaurant",1979,"","62 N. Lake Ave., Albany, NY","-73.772375","42.662581","62 n lake ave, albany, ny 12206, usa","Geocoded",NA,NA
"('Mixed bag'- looking up)","76 Central Ave.","Albany","NY","","Bars/Clubs",1979,"","76 Central Ave., Albany, NY","-73.7664709","42.6590586","76 central ave, albany, ny 12206, usa","Geocoded",NA,NA
"(Disco)","369 Central Ave.","Albany","NY","(YC),(D),(*)","Bars/Clubs",1979,"","369 Central Ave., Albany, NY","-73.7739629","42.6664037","369 central ave, albany, ny 12206, usa","Geocoded",NA,NA
"(Social)","152 Central ave.","Albany","NY","","Organizations",1979,"","152 Central ave., Albany, NY","-73.7685048","42.6608904","152 central ave, albany, ny 12206, usa","Geocoded",NA,NA
"(Disco)","425 Central Ave.","Albany","NY","(YC),(D),(*)","Bars/Clubs",1979,"","425 Central Ave., Albany, NY","-73.7757017","42.6678869","425 central ave, albany, ny 12206, usa","Geocoded",NA,NA
"(Cruisy)","519 Central Ave.","Albany","NY","(S),(D),(*)","Cruising Areas,Bars/Clubs",1979,"","519 Central Ave., Albany, NY","-73.778183","42.670101","519 central ave, albany, ny 12206, usa","Geocoded",NA,NA
"","222 Central Ave.","Albany","NY","(G),(PT)","Bars/Clubs",1979,"","222 Central Ave., Albany, NY","-73.770406","42.662517","222 central ave, albany, ny 12206, usa","Geocoded",NA,NA
"(Some B, RT)","90 Central Ave.","Albany","NY","(B),(RT)","Bars/Clubs",1979,"","90 Central Ave., Albany, NY","-73.7667352","42.659367","90 central ave, albany, ny 12206, usa","Geocoded",NA,NA
"","46 Shore Lane","Bayshore","NY","(H)","Hotels",1979,"Long Island","46 Shore Lane, Bayshore, NY","-73.243293","40.7205446","46 shore ln, bay shore, ny 11706, usa","Geocoded",NA,NA
"","2520 Merrick Rd.","Bellmore","NY","(OC),(*)","Bars/Clubs",1979,"Long Island","2520 Merrick Rd., Bellmore, NY","-73.5324719","40.6620889","2520 merrick rd, bellmore, ny 11710, usa","Geocoded",NA,NA
"","2475 Jerusalem Ave.","Bellmore","NY","(YC),(*)","Bars/Clubs",1979,"Long Island","2475 Jerusalem Ave., Bellmore, NY","-73.5406124","40.6911924","2475 jerusalem ave, north bellmore, ny 11710, usa","Geocoded",NA,NA
"","935 S. Country Rd.","Bellport","NY","(H)","Hotels",1979,"Long Island","935 S. Country Rd., Bellport, NY","-72.9526311","40.7550908","935 s country rd, bellport, ny 11713, usa","Geocoded",NA,NA
"(Opens 9 p.m.) (Some OC) (Cruisy)","9 Main St.","Binghamton","NY","(*),(D),(OC)","Cruising Areas,Bars/Clubs",1979,"","9 Main St., Binghamton, NY","-75.9172638","42.098597","9 main st, binghamton, ny 13905, usa","Geocoded",NA,NA
"(Some YC, G) (Disco) (WE*) ","201 State St.","Binghamton","NY","(*),(YC),(G),(D),(WE),(R)","Bars/Clubs",1979,"","201 State St., Binghamton, NY","-75.9118006","42.1018782","201 state st, binghamton, ny 13901, usa","Geocoded",NA,NA
"","1104 Elmwood Ave.","Buffalo","NY","(M),(PE),(WE)","Restaurant",1979,"","1104 Elmwood Ave., Buffalo, NY","-78.8772268","42.9273391","1104 elmwood ave, buffalo, ny 14222, usa","Geocoded",NA,NA
"","20 Allen St.","Buffalo","NY","(OC),(D)","Bars/Clubs",1979,"","20 Allen St., Buffalo, NY","-78.8708764","42.8991982","20 allen st, buffalo, ny 14202, usa","Geocoded",NA,NA
"(Active T-Room, lobby, back rows)","3165 Bailey Ave.","Buffalo","NY","(M)","Theatre",1979,"","3165 Bailey Ave., Buffalo, NY","-78.813359","42.940922","3165 bailey ave, buffalo, ny 14215, usa","Geocoded",NA,NA
"","44 Almeda","Amherst","NY","(P),(*)","Baths",1979,"","44 Almeda, Amherst, NY","-78.8217225","42.984349","almeda ave, amherst, ny, usa","Geocoded",NA,NA
"","610 Main St.","Buffalo","NY","","Book Store",1979,"","610 Main St., Buffalo, NY","-78.8730744","42.8906129","610 main st, buffalo, ny 14202, usa","Geocoded",NA,NA
"(Disco) (2 bars- go go boys)","729 Main St.","Buffalo","NY","(*),(YC),(D),(R)","Restaurant,Bars/Clubs",1979,"","729 Main St., Buffalo, NY","-78.8715761","42.8938285","729 main st, buffalo, ny 14203, usa","Geocoded",NA,NA
"(Vegetarian R)","25 Greenfield St.","Buffalo","NY","(M),(HIP),(R)","Restaurant",1979,"","25 Greenfield St., Buffalo, NY","-78.8432854","42.9364851","25 greenfield st, buffalo, ny 14214, usa","Geocoded",NA,NA
"(Should be a winner)","750 Main St.","Buffalo","NY","(*)","Bars/Clubs",1979,"","750 Main St., Buffalo, NY","-78.8718924","42.8945586","750 main st, buffalo, ny 14202, usa","Geocoded",NA,NA
"","66 Oxford St.","Buffalo","NY","","Organizations",1979,"","66 Oxford St., Buffalo, NY","-78.8651802","42.9172213","66 oxford ave, buffalo, ny 14209, usa","Geocoded",NA,NA
"(Disco) (Best around bar)","1110 Elmwood Ave.","Buffalo","NY","(M),(YC),(D),(R),(*)","Restaurant,Bars/Clubs",1979,"","1110 Elmwood Ave., Buffalo, NY","-78.8772313","42.9274779","1110 elmwood ave, buffalo, ny 14222, usa","Geocoded",NA,NA
"","369 Pearl St.","Buffalo","NY","(R),(M)","Restaurant",1979,"","369 Pearl St., Buffalo, NY","-78.8743707","42.8893973","369 pearl st, buffalo, ny 14202, usa","Geocoded",NA,NA
"","655 Main St.","Buffalo","NY","(RT),(M)","Baths",1979,"","655 Main St., Buffalo, NY","-78.8720148","42.8916599","655 main st, buffalo, ny 14203, usa","Geocoded",NA,NA
"","33 Virginia Pl.","Buffalo","NY","(M),(R),(*)","Restaurant",1979,"","33 Virginia Pl., Buffalo, NY","-78.8734282","42.8977156","33 virginia pl, buffalo, ny 14202, usa","Geocoded",NA,NA
"(Open 24 hours)","516 Delaware","Buffalo","NY","(M),(R)","Restaurant",1979,"","516 Delaware, Buffalo, NY","-78.8742955","42.8983646","516 delaware ave, buffalo, ny 14202, usa","Geocoded",NA,NA
"(Some W, SM) New & larger location nr. Allen","926 Main St.","Buffalo","NY","(W),(SM),(*),(D)","Bars/Clubs",1979,"","926 Main St., Buffalo, NY","-78.8702032","42.8991479","926 main st, buffalo, ny 14202, usa","Geocoded",NA,NA
"(Some G)","486 Elmwood Ave.","Buffalo","NY","(YC),(G),(R),(PT)","Bars/Clubs",1979,"","486 Elmwood Ave., Buffalo, NY","-78.8773861","42.9103012","486 elmwood ave, buffalo, ny 14222, usa","Geocoded",NA,NA
"","454 Pearl St.","Buffalo","NY","(M)","Bars/Clubs",1979,"","454 Pearl St., Buffalo, NY","-78.8739589","42.8916772","454 pearl st, buffalo, ny 14202, usa","Geocoded",NA,NA
"(Many G)","252 Delaware Ave.","Buffalo","NY","(YC),(D),(G),(*)","Bars/Clubs",1979,"","252 Delaware Ave., Buffalo, NY","-78.876552","42.8913589","252 delaware ave, buffalo, ny 14202, usa","Geocoded",NA,NA
"","535 Elmwood Ave.","Buffalo","NY","(M),(OC)","Bars/Clubs",1979,"","535 Elmwood Ave., Buffalo, NY","-78.8768204","42.9115905","535 elmwood ave, buffalo, ny 14222, usa","Geocoded",NA,NA
"('Back room')","1600 Genesee","Buffalo","NY","Cruisy Area","Cruising Areas,Theatre",1979,"","1600 Genesee, Buffalo, NY","-78.8216293","42.9097789","1600 genesee st, buffalo, ny 14211, usa","Geocoded",NA,NA
"(Some G) (WE*)","825 Merrick Rd.","Buffalo","NY","(D),(S),(G),(WE),(*)","Bars/Clubs",1979,"","825 Merrick Rd., Buffalo, NY","-73.6116699","40.650966","825 merrick rd, baldwin, ny 11510, usa","Geocoded",NA,NA
"(Disco)","836 Grand Ave.","Deer Park","NY","(D),(*)","Bars/Clubs",1979,"","836 Grand Ave., Deer Park, NY","-73.3075429","40.7616183","836 grand blvd, deer park, ny 11729, usa","Geocoded",NA,NA
"","112 Lake St.","Elmira","NY","(G)","Bars/Clubs",1979,"","112 Lake St., Elmira, NY","-76.8009555","42.0888943","112 lake st, elmira, ny 14901, usa","Geocoded",NA,NA
"(Disco) (Some G) (WE*)","175 Cherry Lane","Floral Park","NY","(D),(S),(G),(WE),(*)","Bars/Clubs",1979,"","175 Cherry Lane, Floral Park, NY","-73.6974672","40.7356932","175 cherry ln, floral park, ny 11001, usa","Geocoded",NA,NA
"(Disco)","206 Old Country Rd.","Hicksville","NY","(E),(D)","Bars/Clubs",1979,"Long Island","206 Old Country Rd., Hicksville, NY","-73.529236","40.762292","206 w old country rd, hicksville, ny 11801, usa","Geocoded",NA,NA
"(Some G) (Disco) at Hancock","213 5th St.","Ithaca","NY","(*),(YC),(G),(D)","Bars/Clubs",1979,"","213 5th St., Ithaca, NY","-76.5070607","42.4457178","213 5th st, ithaca, ny 14850, usa","Geocoded",NA,NA
"(Disco) (looks promising)","25 E. Marie St.","Hicksville","NY","(D),(S)","Bars/Clubs",1979,"Long Island","25 E. Marie St., Hicksville, NY","-73.522187","40.7675407","25 e marie st, hicksville, ny 11801, usa","Geocoded",NA,NA
"(Sun. brunch)","62 Stewart Ave.","Huntington","NY","(R)","Restaurant",1979,"Long Island","62 Stewart Ave., Huntington, NY","-73.424766","40.8737993","62 stewart ave, huntington, ny 11743, usa","Geocoded",NA,NA
"","345 Main St.","Huntington","NY","","Book Store",1979,"Long Island","345 Main St., Huntington, NY","-73.4302677","40.8710917","345 main st, huntington, ny 11743, usa","Geocoded",NA,NA
"","215 N. Aurora","Ithaca","NY","(M)","Bars/Clubs",1979,"","215 N. Aurora, Ithaca, NY","-76.4954416","42.4409855","215 n aurora st, ithaca, ny 14850, usa","Geocoded",NA,NA
"","265 Main St.","Johnson City","NY","","Book Store",1979,"","265 Main St., Johnson City, NY","-75.9562169","42.1157014","265 main st, johnson city, ny 13790, usa","Geocoded",NA,NA
"(Disco)","572 Rosevale Ave.","Lake Ronkonkoma","NY","(D)","Bars/Clubs",1979,"","572 Rosevale Ave., Lake Ronkonkoma, NY","-73.1342745","40.8279069","572 rosevale ave, ronkonkoma, ny 11779, usa","Geocoded",NA,NA
"","771 S. 9th St.","Lindenhurst","NY","(G),(*)","Bars/Clubs",1979,"Long Island","771 S. 9th St., Lindenhurst, NY","-73.3741162","40.6696257","771 s 9th st, lindenhurst, ny 11757, usa","Geocoded",NA,NA
"","108 Arizona Ave.","Long Beach","NY","","Bars/Clubs",1979,"Long Island","108 Arizona Ave., Long Beach, NY","-73.6891661","40.5882246","108 arizona ave, long beach, ny 11561, usa","Geocoded",NA,NA
"(Cruisy) 1 mi. S. of town","165 Rte. 208","New Paltz","NY","(PT),(D),(*)","Bars/Clubs,Cruising Areas",1979,"","165 Rte. 208, New Paltz, NY","-74.098279","41.7312145","165 ny-208, new paltz, ny 12561, usa","Geocoded",NA,NA
"(Juice bar- no booze) ('Back roon') at 11th Ave.","500 W. 14th ","Greenwich Village","NY","(P),(D)","Bars/Clubs",1979,"","500 W. 14th , Greenwich Village, NY","-74.0084683","40.7421672","500 w 14th st, new york, ny 10014, usa","Geocoded",NA,NA
"(Shades of S.F.'s Castro St.- looks promising) at 14th St.","64 7th Ave.","Greenwich Village","NY","","Bars/Clubs",1979,"","64 7th Ave., Greenwich Village, NY","-73.9997225","40.7388673","64 7th ave, new york, ny 10011, usa","Geocoded",NA,NA
"","383 W. 12th St.","Greenwich Village","NY","(M),(R)","Restaurant",1979,"","383 W. 12th St., Greenwich Village, NY","-74.008756","40.737755","383 w 12th st, new york, ny 10014, usa","Geocoded",NA,NA
"(Some W, SM) (Cruisy)","76 Christopher St.","Greenwich Village","NY","(W),(SM),(*)","Bars/Clubs",1979,"","76 Christopher St., Greenwich Village, NY","-74.0034034","40.7334603","76 christopher st, new york, ny 10014, usa","Geocoded",NA,NA
"at 20t hSt.","239 3rd Ave.","Greenwich Village","NY","(R)","Restaurant",1979,"","239 3rd Ave., Greenwich Village, NY","-73.9843661","40.736684","239 3rd ave, new york, ny 10003, usa","Geocoded",NA,NA
"(Disco) (Cruisy) (also Bonnie's (R) Upstairs)","82 W. 3rd St.","Greenwich Village","NY","(YC),(G),(D),(PT)","Cruising Areas,Bars/Clubs",1979,"","82 W. 3rd St., Greenwich Village, NY","-73.9989571","40.7297021","82 w 3rd st, new york, ny 10012, usa","Geocoded",NA,NA
"","204 W. 19th St.","Greenwich Village","NY","(OC)","Bars/Clubs",1979,"","204 W. 19th St., Greenwich Village, NY","-73.9978382","40.741592","204 w 19th st, new york, ny 10011, usa","Geocoded",NA,NA
"(Disco) (E-WE*)","53 W. 19th St.","Greenwich Village","NY","(G),(D),(E),(WE),(*)","Bars/Clubs",1979,"","53 W. 19th St., Greenwich Village, NY","-73.9937306","40.740279","53 w 19th st, new york, ny 10011, usa","Geocoded",NA,NA
"(Mexican R) ","330 Bleecker St.","Greenwich Village","NY","(M),(R)","Restaurant",1979,"","330 Bleecker St., Greenwich Village, NY","-74.004603","40.7334848","330 bleecker st, new york, ny 10014, usa","Geocoded",NA,NA
"(Disco)","24 E. 22nd St.","Greenwich Village","NY","(AH),(D)","Bars/Clubs",1979,"","24 E. 22nd St., Greenwich Village, NY","-73.9883564","40.739904","24 e 22nd st, new york, ny 10010, usa","Geocoded",NA,NA
"(Nowhere SM bar)","372 W. 11th St.","Greenwich Village","NY","(SM)","Bars/Clubs",1979,"","372 W. 11th St., Greenwich Village, NY","-74.0095653","40.735189","372 w 11th st, new york, ny 10014, usa","Geocoded",NA,NA
"","500 Hudson St.","Greenwich Village","NY","","Book Store",1979,"","500 Hudson St., Greenwich Village, NY","-74.006136","40.73299","500 hudson st, new york, ny 10014, usa","Geocoded",NA,NA
"(Closed Sundays) at Perry","259 W. 4th St.","Greenwich Village","NY","(M),(R)","Restaurant",1979,"","259 W. 4th St., Greenwich Village, NY","-74.003141","40.7354258","259 west 4th street, new york, ny 10014, usa","Geocoded",NA,NA
"('Tops' in N.Y.C) (Some YC, W, SM) at 2nd St.","24 1st Ave.","Greenwich Village","NY","(*),(YC),(SM),(W)","Baths",1979,"","24 1st Ave., Greenwich Village, NY","-73.9879491","40.7236446","24 1st avenue, new york, ny 10009, usa","Geocoded",NA,NA
"","154 W. 10th St.","Greenwich Village","NY","(G)","Book Store",1979,"","154 W. 10th St., Greenwich Village, NY","-74.0015401","40.734387","154 w 10th st, new york, ny 10014, usa","Geocoded",NA,NA
"(Late)","98 Christopher St.","Greenwich Village","NY","(M),(R)","Restaurant",1979,"","98 Christopher St., Greenwich Village, NY","-74.004656","40.7331669","98 christopher st, new york, ny 10014, usa","Geocoded",NA,NA
"","348 W. 14th St.","Greenwich Village","NY","","Church",1979,"","348 W. 14th St., Greenwich Village, NY","-74.0047474","40.7404517","348 w 14th st, new york, ny 10014, usa","Geocoded",NA,NA
"(Some B0 at Greenwich","139 Christopher St.","Greenwich Village","NY","(PT),(B)","Bars/Clubs",1979,"","139 Christopher St., Greenwich Village, NY","-74.0071685","40.733018","139 christopher st, new york, ny 10014, usa","Geocoded",NA,NA
"(Disco) (Some W, SM, YC) at West Ave.","189 Christopher St.","Greenwich Village","NY","(D),(*),(YC),(SM),(W)","Bars/Clubs",1979,"","189 Christopher St., Greenwich Village, NY","-74.0100576","40.7325749","189 christopher st, new york, ny 10014, usa","Geocoded",NA,NA
"(G only)","70 Grove St.","Greenwich Village","NY","(G),(*),(D)","Bars/Clubs",1979,"","70 Grove St., Greenwich Village, NY","-74.002802","40.7331527","70 grove st, new york, ny 10014, usa","Geocoded",NA,NA
"(Italian R)","115 Christopher St.","Greenwich Village","NY","(M),(R)","Restaurant",1979,"","115 Christopher St., Greenwich Village, NY","-74.0054357","40.7334062","115 christopher st, new york, ny 10014, usa","Geocoded",NA,NA
"(Disco) (Upstairs) (Ozma (R) Downstairs) nr. 13th","59 5th Ave.","Greenwich Village","NY","(YC),(D),(*),(R)","Bars/Clubs,Restaurant",1979,"","59 5th Ave., Greenwich Village, NY","-73.993907","40.7350091","59 5th ave, new york, ny 10003, usa","Geocoded",NA,NA
"(Expensive cabaret) (Disco)","55 Grove St.","Greenwich Village","NY","(D)","Bars/Clubs",1979,"","55 Grove St., Greenwich Village, NY","-74.0035415","40.733207","55 grove st, new york, ny 10014, usa","Geocoded",NA,NA
"","411 Bleecker St.","Greenwich Village","NY","(M),(R)","Restaurant",1979,"","411 Bleecker St., Greenwich Village, NY","-74.0050709","40.736316","411 bleecker st, new york, ny 10014, usa","Geocoded",NA,NA
"(Patio) at Bleecker","91 Charles St.","Greenwich Village","NY","(PE),(M),(R)","Restaurant",1979,"","91 Charles St., Greenwich Village, NY","-74.0052007","40.7347572","91 charles st, new york, ny 10014, usa","Geocoded",NA,NA
"(No booze- 'Jacks' & juice only) at Houston","599 Broadway ","Greenwich Village","NY","(*),(P),(YC)","Bars/Clubs",1979,"","599 Broadway , Greenwich Village, NY","-73.9971632","40.7253375","ayer building, 599 broadway, new york, ny 10012, usa","Geocoded",NA,NA
"at Bleecker","49 Grove St.","Greenwich Village","NY","(M),(R),(E)","Restaurant",1979,"","49 Grove St., Greenwich Village, NY","-74.0037967","40.7331585","49 grove st, new york, ny 10014, usa","Geocoded",NA,NA
"","239 W. 4th St.","Greenwich Village","NY","(M),(R)","Restaurant",1979,"","239 W. 4th St., Greenwich Village, NY","-74.0029004","40.734537","239 west 4th street, new york, ny 10014, usa","Geocoded",NA,NA
"(Cabaret E) (2 floors) betw. Bleecker & Hudson","228 W. 10th St.","Greenwich Village","NY","(R),(E)","Restaurant",1979,"","228 W. 10th St., Greenwich Village, NY","-74.0051144","40.7337081","228 w 10th st, new york, ny 10014, usa","Geocoded",NA,NA
"","28 Cornelia St.","Greenwich Village","NY","(R),(E)","Restaurant",1979,"","28 Cornelia St., Greenwich Village, NY","-74.0023544","40.7311877","28 cornelia st, new york, ny 10014, usa","Geocoded",NA,NA
"(Very M) (Unisex) (Disco) at 3rd Ave.","653 Broadway","Greenwich Village","NY","(*),(M),(D)","Bars/Clubs",1979,"","653 Broadway, Greenwich Village, NY","-73.9957494","40.7270095","653 broadway, new york, ny 10012, usa","Geocoded",NA,NA
"(Disco)","5 W. 19th St.","Greenwich Village","NY","(YC),(D),(*)","Bars/Clubs",1979,"","5 W. 19th St., Greenwich Village, NY","-73.991888","40.739494","5 w 19th st, new york, ny 10011, usa","Geocoded",NA,NA
"(The Stud) ('wild back room') at Perry","733 Greenwich","Greenwich Village","NY","(D)","Bars/Clubs",1979,"","733 Greenwich, Greenwich Village, NY","-74.006679","40.735173","733 greenwich st, new york, ny 10014, usa","Geocoded",NA,NA
"7th Ave. at 2nd St.","","Greenwich Village","NY","(R),(E)","Restaurant",1979,"",", Greenwich Village, NY","-74.0027418","40.7335719","greenwich village, new york, ny, usa","Geocoded",NA,NA
"(Some W, SM, Everything) (Good Sun.) nr. Barrow","384 West St.","Greenwich Village","NY","(W),(SM),(*)","Bars/Clubs",1979,"","384 West St., Greenwich Village, NY","-74.0102763","40.732003","384 west st, new york, ny 10014, usa","Geocoded",NA,NA
"(Disco) at 24th St.","260 11th Ave.","Greenwich Village","NY","(P),(YC),(D),(*)","Bars/Clubs",1979,"","260 11th Ave., Greenwich Village, NY","-74.0038119","40.7360179","260 w 11th st, new york, ny 10014, usa","Geocoded",NA,NA
"(Snacks, cruisy days)","159 W. 10th St.","Greenwich Village","NY","(*)","Cruising Areas,Bars/Clubs",1979,"","159 W. 10th St., Greenwich Village, NY","-74.0017116","40.7345329","159 w 10th st, new york, ny 10014, usa","Geocoded",NA,NA
"(Some G) (Cabaret) at 7th ","46 Bedford St.","Greenwich Village","NY","(G),(D)","Bars/Clubs",1979,"","46 Bedford St., Greenwich Village, NY","-74.0041563","40.730584","46 bedford st, new york, ny 10014, usa","Geocoded",NA,NA
"(Clothes, books, leather, 'toys', etc.)","85 Christopher St.","Greenwich Village","NY","(*)","Business,Book Store",1979,"","85 Christopher St., Greenwich Village, NY","-74.0038693","40.7336419","85 christopher st, new york, ny 10014, usa","Geocoded",NA,NA
"at 12th St.","100 3rd Ave.","Greenwich Village","NY","","Theatre",1979,"","100 3rd Ave., Greenwich Village, NY","-73.9882183","40.7325484","100 3rd ave, new york, ny 10003, usa","Geocoded",NA,NA
"(Baths) (Disco)","28 W. 15th St.","Greenwich Village","NY","(D),(*)","Baths,Bars/Clubs",1979,"","28 W. 15th St., Greenwich Village, NY","-73.9947793","40.7371782","28 w 15th st, new york, ny 10011, usa","Geocoded",NA,NA
"7th Ave.","201 W. 13th St.","Greenwich Village","NY","(MCC)","Church",1979,"","201 W. 13th St., Greenwich Village, NY","-74.0003114","40.7381373","201 w 13th st, new york, ny 10011, usa","Geocoded",NA,NA
"(Downstairs) (Bingo) at Sheridan Sq.","59 Grove St.","Greenwich Village","NY","(E)","Bars/Clubs",1979,"","59 Grove St., Greenwich Village, NY","-74.0033971","40.7332382","59 grove st, new york, ny 10014, usa","Geocoded",NA,NA
"(Disco) ('Mixed bag' but picking up again) (Sheridan Square)","91 7th Ave. S.","Greenwich Village","NY","(D)","Bars/Clubs",1979,"","91 7th Ave. S., Greenwich Village, NY","-74.0029512","40.7327781","91 7th ave s, new york, ny 10014, usa","Geocoded",NA,NA
"(No booze- take own wine)","342 W. 11th St.","Greenwich Village","NY","(M),(G),(R)","Restaurant",1979,"","342 W. 11th St., Greenwich Village, NY","-74.0080807","40.7354605","342 w 11th st, new york, ny 10014, usa","Geocoded",NA,NA
"(Upstairs) ('Wild back room')","835 Washington St.","Greenwich Village","NY","(*),(P),(SM),(W)","Bars/Clubs",1979,"","835 Washington St., Greenwich Village, NY","-74.0076797","40.7403979","835 washington st, new york, ny 10014, usa","Geocoded",NA,NA
"(Very M)","17 Barrow St.","Greenwich Village","NY","(M),(PE),(R)","Restaurant",1979,"","17 Barrow St., Greenwich Village, NY","-74.0025839","40.7324944","17 barrow st, new york, ny 10014, usa","Geocoded",NA,NA
"(La Femme) (Disco)","85 Washington Pl.","Greenwich Village","NY","(G),(D),(*)","Bars/Clubs",1979,"","85 Washington Pl., Greenwich Village, NY","-74.0000245","40.7322184","85 washington pl, new york, ny 10011, usa","Geocoded",NA,NA
"(Cruisy) (2 floors)","139 W. 10th St.","Greenwich Village","NY","(HIP),(YC),(*)","Bars/Clubs,Cruising Areas",1979,"","139 W. 10th St., Greenwich Village, NY","-74.0007993","40.7347958","139 w 10th st, new york, ny 10014, usa","Geocoded",NA,NA
"(Extensive renovations) (8th St. at 3rd Ave.)","6 St. Marks Place","Greenwich Village","NY","(*)","Baths",1979,"","6 St. Marks Place, Greenwich Village, NY","-73.989568","40.72909","6 st marks pl, new york, ny 10003, usa","Geocoded",NA,NA
"(Some B) (Disco)","305 W. 10th St.","Greenwich Village","NY","(B),(D),(*)","Bars/Clubs",1979,"","305 W. 10th St., Greenwich Village, NY","-74.0098061","40.7332889","305 w 10th st, new york, ny 10014, usa","Geocoded",NA,NA
"(Cruisy-late) at Sheridan Sq.","89 7th Ave.","Greenwich Village","NY","(M),(R)","Cruising Areas,Restaurant",1979,"","89 7th Ave., Greenwich Village, NY","-73.9988707","40.7394174","89 7th ave, new york, ny 10011, usa","Geocoded",NA,NA
"(Downstairs at Emerald City) at 13th ","59 5th Ave.","Greenwich Village","NY","(R)","Restaurant",1979,"","59 5th Ave., Greenwich Village, NY","-73.993907","40.7350091","59 5th ave, new york, ny 10003, usa","Geocoded",NA,NA
"(Sun. brunch) at 10th St.","518 Hudson ","Greenwich Village","NY","(R),(*)","Restaurant",1979,"","518 Hudson , Greenwich Village, NY","-74.0060784","40.7336903","518 hudson st, new york, ny 10014, usa","Geocoded",NA,NA
"","15th Christopher St.","Greenwich Village","NY","(*)","Book Store",1979,"","15th Christopher St., Greenwich Village, NY","-74.0013903","40.7353754","15 charles st, new york, ny 10014, usa","Geocoded",NA,NA
"(Many G)","64 Greenwich Ave.","Greenwich Village","NY","(M),(G),(PT)","Bars/Clubs",1979,"","64 Greenwich Ave., Greenwich Village, NY","-74.0006213","40.7361254","64 greenwich ave, new york, ny 10011, usa","Geocoded",NA,NA
"('Mixed bag') betw. 10th & Christopher","392 West St.","Greenwich Village","NY","","Bars/Clubs",1979,"","392 West St., Greenwich Village, NY","-74.010073","40.7329072","392 west st, new york, ny 10014, usa","Geocoded",NA,NA
"(Some W, SM, FFA) (Best cruise bar on Dock Strip) betw. Christopher & W. 10th Sts.","394 West St.","Greenwich Village","NY","(*),(W),(SM),(FFA)","Bars/Clubs",1979,"","394 West St., Greenwich Village, NY","-74.0101582","40.7331559","394 west st, new york, ny 10014, usa","Geocoded",NA,NA
"(Leather, clothes, 'toys', etc.)","152 7th Ave. So.","Greenwich Village","NY","(*)","Business",1979,"","152 7th Ave. So., Greenwich Village, NY","-74.0021248","40.7352865","152 7th ave s, new york, ny 10014, usa","Geocoded",NA,NA
"(Cabaret)","126 W. 13th St.","Greenwich Village","NY","(M),(PE),(R)","Restaurant",1979,"","126 W. 13th St., Greenwich Village, NY","-73.9986702","40.7370456","126 w 13th st, new york, ny 10011, usa","Geocoded",NA,NA
"(No booze- 'juice bar'- 'Twinkies') (Unisex) (Disco)","461 West St.","Greenwich Village","NY","(*),(P),(D)","Bars/Clubs",1979,"","461 West St., Greenwich Village, NY","-74.0096868","40.7366531","461 west st, new york, ny 10014, usa","Geocoded",NA,NA
"","178 Christopher St.","Greenwich Village","NY","(*)","Book Store",1979,"","178 Christopher St., Greenwich Village, NY","-74.0097018","40.732275","178 christopher st, new york, ny 10014, usa","Geocoded",NA,NA
"E. 4th St. at 2nd Ave.","","East Village","NY","(PT)","Bars/Clubs",1979,"",", East Village, NY","-73.9815337","40.7264773","east village, new york, ny, usa","Geocoded",NA,NA
"('Flicks') (WE*) at 20th St.","120 11th Ave.","Greenwich Village","NY","(W),(SM),(PT),(WE),(*)","Bars/Clubs,Theatre",1979,"","120 11th Ave., Greenwich Village, NY","-74.007586","40.7469281","120 11th ave, new york, ny 10011, usa","Geocoded",NA,NA
"(Some SM) (Cruisy- 'wild back room') at 18th St.","130 10th Ave.","Greenwich Village","NY","(W),(SM),(*)","Bars/Clubs,Cruising Areas",1979,"","130 10th Ave., Greenwich Village, NY","-74.0061188","40.7446548","130 10th ave, new york, ny 10011, usa","Geocoded",NA,NA
"(Baths) (11th floor) (Best days) at Broadway","1 Maiden Lane","Greenwich Village","NY","(*)","Baths",1979,"","1 Maiden Lane, Greenwich Village, NY","-74.0097251","40.7097821","1 maiden ln, new york, ny 10038, usa","Geocoded",NA,NA
"","531 Hudson St.","Greenwich Village","NY","(R)","Restaurant",1979,"","531 Hudson St., Greenwich Village, NY","-74.0064917","40.7342517","531 hudson st, new york, ny 10014, usa","Geocoded",NA,NA
"(Cruisy) (Disco- D in rear) nr. Gay St.","8 Christopher St.","Greenwich Village","NY","(*),(PT),(D)","Cruising Areas,Bars/Clubs",1979,"","8 Christopher St., Greenwich Village, NY","-74.0001048","40.7338418","8 christopher st, new york, ny 10014, usa","Geocoded",NA,NA
"","220 W. Houston","Greenwich Village","NY","(M),(R),(C),(AH)","Restaurant",1979,"","220 W. Houston, Greenwich Village, NY","-74.004558","40.7287585","220 w houston st, new york, ny 10014, usa","Geocoded",NA,NA
"(An erotic emporium- books, 'toys', etc.) (Dock Strip)","390 West St.","Greenwich Village","NY","","Book Store,Business",1979,"","390 West St., Greenwich Village, NY","-74.010184","40.7328852","390 west st, new york, ny 10014, usa","Geocoded",NA,NA
"(Cruisy) nr. Bedford","114 Christopher St.","Greenwich Village","NY","(W),(*)","Cruising Areas,Bars/Clubs",1979,"","114 Christopher St., Greenwich Village, NY","-74.0052985","40.7330387","114 christopher st, new york, ny 10014, usa","Geocoded",NA,NA
"","235 E. 14th St.","Greenwich Village","NY","Cruisy Area","Theatre,Cruising Areas",1979,"","235 E. 14th St., Greenwich Village, NY","-73.9855083","40.732925","235 e 14th st, new york, ny 10003, usa","Geocoded",NA,NA
"","318 W. 45th St.","Midtown","NY","(M),(R),(E)","Restaurant",1979,"","318 W. 45th St., Midtown, NY","-73.9894282","40.7594733","318 w 45th st, new york, ny 10036, usa","Geocoded",NA,NA
"","875 8th Ave.","Midtown","NY","","Bars/Clubs",1979,"","875 8th Ave., Midtown, NY","-73.9852787","40.7638158","875 8th ave, new york, ny 10019, usa","Geocoded",NA,NA
"","600 E. 42nd St.","Midtown","NY","","Book Store",1979,"","600 E. 42nd St., Midtown, NY","-73.9691554","40.7480457","600 e 42nd st, new york, ny 10017, usa","Geocoded",NA,NA
"at 52nd St.","957 1st Ave.","Midtown","NY","","Bars/Clubs",1979,"","957 1st Ave., Midtown, NY","-73.965309","40.755601","957 1st avenue, new york, ny 10022, usa","Geocoded",NA,NA
"(Disco) (Lockers & showers) at 49th St.","1604 Broadway","Midtown","NY","(S),(E),(D)","Bars/Clubs,Theatre,Baths",1979,"","1604 Broadway, Midtown, NY","-73.9842507","40.7604668","1604 broadway, new york, ny 10019, usa","Geocoded",NA,NA
"","227 E. 45th St.","Midtown","NY","(OC)","Baths",1979,"","227 E. 45th St., Midtown, NY","-73.97177","40.752406","227 e 45th st, new york, ny 10017, usa","Geocoded",NA,NA
"(Some Latins) (Disco)","304 E. 39th St.","Midtown","NY","(*),(YC),(D)","Bars/Clubs",1979,"","304 E. 39th St., Midtown, NY","-73.9732617","40.7476504","304 e 39th st, new york, ny 10016, usa","Geocoded",NA,NA
"","315 W. 48th St.","Midtown","NY","(E)","Bars/Clubs",1979,"","315 W. 48th St., Midtown, NY","-73.9877264","40.7614739","315 w 48th st, new york, ny 10019, usa","Geocoded",NA,NA
"(Many B) (Disco)","316 W. 49th St.","Midtown","NY","(B),(D),(*)","Bars/Clubs",1979,"","316 W. 49th St., Midtown, NY","-73.9876634","40.7620327","316 w 49th st, new york, ny 10019, usa","Geocoded",NA,NA
"(Baths)","218 W. 49th St.","Midtown","NY","(D)","Baths,Bars/Clubs",1979,"","218 W. 49th St., Midtown, NY","-73.9852225","40.7608533","218 w 49th st, new york, ny 10019, usa","Geocoded",NA,NA
"at 27th St.","365 3rd Ave.","Midtown","NY","(R),(*)","Restaurant",1979,"","365 3rd Ave., Midtown, NY","-73.9811951","40.7408562","365 3rd ave, new york, ny 10016, usa","Geocoded",NA,NA
"(Looks promising) at 50th St.","945 2nd Ave.","Midtown","NY","(PE),(R)","Restaurant",1979,"","945 2nd Ave., Midtown, NY","-73.9687005","40.7551309","945 2nd ave, new york, ny 10022, usa","Geocoded",NA,NA
"(Disco)","at 36th St.","Midtown","NY","(D)","Bars/Clubs",1979,"","at 36th St., Midtown, NY","-73.9934959","40.754064","315 w 36th st, new york, ny 10018, usa","Geocoded",NA,NA
"nr. 28th St.","381 3rd Ave.","Midtown","NY","","Bars/Clubs",1979,"","381 3rd Ave., Midtown, NY","-73.9809254","40.741496","381 3rd ave, new york, ny 10016, usa","Geocoded",NA,NA
"(use lounge- AYOR)","28 W. 55th St.","Midtown","NY","(AYOR)","Theatre",1979,"","28 W. 55th St., Midtown, NY","-73.976501","40.7621439","28 w 55th st, new york, ny 10019, usa","Geocoded",NA,NA
"(Baths)","227 E. 56th St.","Midtown","NY","(*)","Baths",1979,"","227 E. 56th St., Midtown, NY","-73.9668231","40.7593466","227 e 56th st, new york, ny 10022, usa","Geocoded",NA,NA
"('Mixed bag') at 36th St.","550 3rd Ave.","Midtown","NY","(PT)","Bars/Clubs",1979,"","550 3rd Ave., Midtown, NY","-73.9772754","40.7474383","550 3rd ave, new york, ny 10016, usa","Geocoded",NA,NA
"","264 W. 43rd St.","Midtown","NY","","Bars/Clubs",1979,"","264 W. 43rd St., Midtown, NY","-73.9887885","40.7576985","264 w 43rd st, new york, ny 10036, usa","Geocoded",NA,NA
"nr. 55th St.","858 9th Ave.","Midtown","NY","","Bars/Clubs",1979,"","858 9th Ave., Midtown, NY","-73.986102","40.7669022","858 9th ave, new york, ny 10019, usa","Geocoded",NA,NA
"","732 8th Ave.","Midtown","NY","","Theatre",1979,"","732 8th Ave., Midtown, NY","-73.9879427","40.7593364","732 8th ave, new york, ny 10036, usa","Geocoded",NA,NA
"('Top' upper-midtown East Side cruise bar) ('Humpy jocks')","244 E. 53rd St.","Midtown","NY","(*),(PT),(R)","Restaurant,Bars/Clubs,Cruising Areas",1979,"","244 E. 53rd St., Midtown, NY","-73.967893","40.75682","244 e 53rd st, new york, ny 10022, usa","Geocoded",NA,NA
"(Hotel- like baths) (Some RT)","226 W. 42nd St.","Midtown","NY","(RT)","Baths",1979,"","226 W. 42nd St., Midtown, NY","-73.988174","40.75638","226 w 42nd st, new york, ny 10036, usa","Geocoded",NA,NA
"","201 W. 46th St.","Midtown","NY","","Bars/Clubs",1979,"","201 W. 46th St., Midtown, NY","-73.9857027","40.7589105","201 w 46th st, new york, ny 10036, usa","Geocoded",NA,NA
"","232 W. 48th St.","Midtown","NY","","Bars/Clubs",1979,"","232 W. 48th St., Midtown, NY","-73.9861288","40.7605335","232 w 48th st, new york, ny 10036, usa","Geocoded",NA,NA
"('Drags', hustlers, transsexuals, go go boys) ","128 W. 45th St.","Midtown","NY","(D),(*),(PT)","Bars/Clubs",1979,"","128 W. 45th St., Midtown, NY","-73.9840168","40.7572579","128 w 45th st, new york, ny 10036, usa","Geocoded",NA,NA
"(Legal & travel info) at 8th Ave.","660 E. 42nd St.","Midtown","NY","","Business,Organizations",1979,"","660 E. 42nd St., Midtown, NY","-73.9697359","40.748723","660 e 42nd st, new york, ny 10017, usa","Geocoded",NA,NA
"","123 E. 47th St.","Midtown","NY","(R),(OC),(*)","Restaurant",1979,"","123 E. 47th St., Midtown, NY","-73.973309","40.754663","123 e 47th st, new york, ny 10017, usa","Geocoded",NA,NA
"","260 W. Broadway","Midtown","NY","","Theatre",1979,"","260 W. Broadway, Midtown, NY","-74.0057286","40.7205254","260 w broadway, new york, ny 10013, usa","Geocoded",NA,NA
"","236 W. 46th St.","Midtown","NY","","Theatre",1979,"","236 W. 46th St., Midtown, NY","-73.9868001","40.7592687","236 w 46th st, new york, ny 10036, usa","Geocoded",NA,NA
"(Coats required after 10 p.m.) (A few high-class midnight cowboys)","353 E. 53rd St.","Midtown","NY","(PE)","Bars/Clubs",1979,"","353 E. 53rd St., Midtown, NY","-73.9651293","40.7560503","353 e 53rd st, new york, ny 10022, usa","Geocoded",NA,NA
"(Many Latins) ","253 W. 46th St.","Midtown","NY","(PT)","Bars/Clubs",1979,"","253 W. 46th St., Midtown, NY","-73.9874749","40.7598108","253 w 46th st, new york, ny 10036, usa","Geocoded",NA,NA
"(Snacks) at 47th St.","772 8th Ave.","Midtown","NY","(RT),(PT)","Bars/Clubs",1979,"","772 8th Ave., Midtown, NY","-73.9871578","40.7605135","772 8th ave, new york, ny 10036, usa","Geocoded",NA,NA
"(Disco)","57 W. 57th St.","Midtown","NY","(YC),(D),(*)","Bars/Clubs",1979,"","57 W. 57th St., Midtown, NY","-73.9768174","40.7643578","57 w 57th st, new york, ny 10019, usa","Geocoded",NA,NA
"(Leather, books, arcade, etc.)","247 W. 42nd St.","Midtown","NY","","Book Store,Business",1979,"","247 W. 42nd St., Midtown, NY","-73.9888568","40.7573371","247 w 42nd st, new york, ny 10036, usa","Geocoded",NA,NA
"","123 E. 57th St.","Midtown","NY","","Business,Book Store",1979,"","123 E. 57th St., Midtown, NY","-73.9698401","40.7613431","123 e 57th st, new york, ny 10022, usa","Geocoded",NA,NA
"(Disco) (Cruisy) at 3rd Ave.","139 E. 34th St.","Midtown","NY","(R),(D),(*)","Cruising Areas,Restaurant",1979,"","139 E. 34th St., Midtown, NY","-73.979263","40.7464872","139 e 34th st, new york, ny 10016, usa","Geocoded",NA,NA
"nr. 51st St.","975 2nd Ave.","Midtown","NY","(*),(D),(PT)","Bars/Clubs",1979,"","975 2nd Ave., Midtown, NY","-73.9680596","40.756013","975 2nd ave, new york, ny 10022, usa","Geocoded",NA,NA
"(Some 'midnight cowboys') Hotel Allerton","132 E. 57th St.","Midtown","NY","(OC)","Bars/Clubs,Hotels",1979,"","132 E. 57th St., Midtown, NY","-73.9692306","40.7606471","132 e 57th st, new york, ny 10022, usa","Geocoded",NA,NA
"(Leahter, 'toys', jewlery, etc.)","939 2nd Ave.","Midtown","NY","(*)","Business",1979,"","939 2nd Ave., Midtown, NY","-73.9688863","40.7548515","939 2nd ave, new york, ny 10022, usa","Geocoded",NA,NA
"(Disco) (AH*) (3rd floor)","35  W. 43rd St.","Midtown","NY","(P),(M),(D),(PT),(AH),(*)","Bars/Clubs",1979,"","35  W. 43rd St., Midtown, NY","-73.9819838","40.7550912","35 w 43rd st, new york, ny 10036, usa","Geocoded",NA,NA
"","56 W. 46th St.","Midtown","NY","(R),(E)","Restaurant",1979,"","56 W. 46th St., Midtown, NY","-73.9794569","40.7562187","56 w 46th st, new york, ny 10036, usa","Geocoded",NA,NA
"(Books, 'toys', peep shows) (Cruisy)","210 W. 42nd St.","Midtown","NY","(*)","Book Store,Business",1979,"","210 W. 42nd St., Midtown, NY","-73.9874294","40.7560623","210 w 42nd st, new york, ny 10036, usa","Geocoded",NA,NA
"(Unisex) (Disco) ","33 E. 52nd St.","Midtown","NY","(P),(YC),(M),(D)","Bars/Clubs",1979,"","33 E. 52nd St., Midtown, NY","-73.9747026","40.7593641","33 e 52nd st, new york, ny 10022, usa","Geocoded",NA,NA
"(Book store)","38 W. 28th St.","Midtown","NY","","Book Store",1979,"","38 W. 28th St., Midtown, NY","-73.9896373","40.7454828","38 w 28th st, new york, ny 10001, usa","Geocoded",NA,NA
"","204 E. 58th St.","Midtown","NY","","Bars/Clubs",1979,"","204 E. 58th St., Midtown, NY","-73.9666977","40.7605726","204 e 58th st, new york, ny 10022, usa","Geocoded",NA,NA
"","210 W. 49th St.","Midtown","NY","(S),(E)","Theatre",1979,"","210 W. 49th St., Midtown, NY","-73.9847837","40.7606687","210 w 49th st, new york, ny 10019, usa","Geocoded",NA,NA
"(Sun. brunch) at 45th","730 8th Ave.","Midtown","NY","(RT),(R)","Restaurant",1979,"","730 8th Ave., Midtown, NY","-73.9879772","40.7592931","730 8th ave, new york, ny 10036, usa","Geocoded",NA,NA
"","300 W. 58th St.","Midtown","NY","","Baths",1979,"","300 W. 58th St., Midtown, NY","-73.9828371","40.7675174","300 w 58th st, new york, ny 10019, usa","Geocoded",NA,NA
"(Opens 8 a.am.) ('Hustlers')","371 W. 46th St.","Midtown","NY","(*)","Bars/Clubs",1979,"","371 W. 46th St., Midtown, NY","-73.9902686","40.7609624","371 w 46th st, new york, ny 10036, usa","Geocoded",NA,NA
"nr. 53rd St.","951 1st Ave.","Midtown","NY","(R),(*)","Restaurant",1979,"","951 1st Ave., Midtown, NY","-73.9652613","40.7554583","951 1st avenue, new york, ny 10022, usa","Geocoded",NA,NA
"","38 W. 28th St.","Midtown","NY","(*)","Book Store",1979,"","38 W. 28th St., Midtown, NY","-73.9896373","40.7454828","38 w 28th st, new york, ny 10001, usa","Geocoded",NA,NA
"(Very M) (Disco)","254 W. 54th St.","Midtown","NY","(*),(P),(M),(D)","Bars/Clubs",1979,"","254 W. 54th St., Midtown, NY","-73.9837835","40.7643543","254 w 54th st, new york, ny 10019, usa","Geocoded",NA,NA
"","350 W. 46th St.","Midtown","NY","(R),(E)","Restaurant",1979,"","350 W. 46th St., Midtown, NY","-73.9898821","40.7603521","350 w 46th st, new york, ny 10036, usa","Geocoded",NA,NA
"at 36th St.","542 3rd Ave.","Midtown","NY","(R),(*)","Restaurant",1979,"","542 3rd Ave., Midtown, NY","-73.9773925","40.7472189","542 3rd ave, new york, ny 10016, usa","Geocoded",NA,NA
"(Some RT) (DIsco)","350 W. 42nd St.","Midtown","NY","(RT),(D),(E)","Bars/Clubs",1979,"","350 W. 42nd St., Midtown, NY","-73.9923304","40.7578531","350 w 42nd st, new york, ny 10036, usa","Geocoded",NA,NA
"","710 2nd Ave.","Midtown","NY","(R),(*)","Restaurant",1979,"","710 2nd Ave., Midtown, NY","-73.9735275","40.7472917","710 2nd ave, new york, ny 10016, usa","Geocoded",NA,NA
"(Disco)","114 W. 27th St.","Midtown","NY","(YC),(D)","Bars/Clubs",1979,"","114 W. 27th St., Midtown, NY","-73.9919632","40.7456056","114 w 27th st, new york, ny 10001, usa","Geocoded",NA,NA
"('Top"" lower midtown East Side cruise bar) at 38th St.","581 3rd Ave.","Midtown","NY","(*),(YC)","Cruising Areas,Bars/Clubs",1979,"","581 3rd Ave., Midtown, NY","-73.9759813","40.7482465","581 3rd ave, new york, ny 10016, usa","Geocoded",NA,NA
"(Very mixed bag) (WE*)","230 W. 75th St.","Uptown","NY","(WE),(*)","Bars/Clubs",1979,"","230 W. 75th St., Uptown, NY","-73.9831155","40.7651008","230 w 55th st, new york, ny 10019, usa","Geocoded",NA,NA
"(Cabaret) Park Royal Hotel","23 W. 73rd St.","Uptown","NY","(R)","Restaurant,Hotels",1979,"","23 W. 73rd St., Uptown, NY","-73.9767658","40.7776725","23 w 73rd st, new york, ny 10023, usa","Geocoded",NA,NA
"(Top uptown East Side cruise bar) at 37th St.","1558 3rd Ave.","Uptown","NY","(*),(PT)","Bars/Clubs",1979,"","1558 3rd Ave., Uptown, NY","-73.9535015","40.7799392","1558 3rd ave, new york, ny 10128, usa","Geocoded",NA,NA
"(Continental R) at 80th St.","1406 3rd Ave.","Uptown","NY","(M),(R)","Restaurant",1979,"","1406 3rd Ave., Uptown, NY","-73.9571173","40.7749717","1406 3rd ave, new york, ny 10075, usa","Geocoded",NA,NA
"(Some W, YC, SM) (Cruisy) nr. 75th ","317 Amsterdam Ave.","Uptown","NY","(*),(W),(YC),(SM)","Cruising Areas,Bars/Clubs",1979,"","317 Amsterdam Ave., Uptown, NY","-73.9800426","40.7804473","317 amsterdam ave, new york, ny 10023, usa","Geocoded",NA,NA
"(Some W, SM) (Cruisy 'john') at 74th St.","309 Amsterdam Ave.","Uptown","NY","(W),(*),(SM),(PT)","Bars/Clubs",1979,"","309 Amsterdam Ave., Uptown, NY","-73.9802326","40.7801331","309 amsterdam ave, new york, ny 10023, usa","Geocoded",NA,NA
"at 71st St.","2061 Broadway","Uptown","NY","(R)","Restaurant",1979,"","2061 Broadway, Uptown, NY","-73.9823372","40.7782124","2061 broadway, new york, ny 10023, usa","Geocoded",NA,NA
"at 72nd St.","1007 Lexington Ave.","Uptown","NY","(*)","Bars/Clubs",1979,"","1007 Lexington Ave., Uptown, NY","-73.9617393","40.7707301","1007 lexington ave, new york, ny 10021, usa","Geocoded",NA,NA
"","168 Amsterdam Ave.","Uptown","NY","","Bars/Clubs",1979,"","168 Amsterdam Ave., Uptown, NY","-73.9369682","40.8398924","amsterdam ave & w 168th st, new york, ny 10032, usa","Geocoded",NA,NA
"(Cabaret)","210 W. 70th St.","Uptown","NY","(M),(R),(*)","Restaurant",1979,"","210 W. 70th St., Uptown, NY","-73.9835311","40.7774537","210 w 70th st, new york, ny 10023, usa","Geocoded",NA,NA
"","35 W. 62nd St.","Uptown","NY","(R),(D)","Restaurant",1979,"","35 W. 62nd St., Uptown, NY","-73.9852658","40.7715468","150 w 62nd st, new york, ny 10023, usa","Geocoded",NA,NA
