"ID","title","type","streetaddress","city","state","description","amenityfeatures","unclear_address","Year","uncleartype","notes","Last.Modified","full.address","lon","lat","geoAddress","status"
9,"Lambda Resource Center","Info Lines & Services","516 27th St.","Birmingham","AL","326-8600 6pm- 10pm Thurs-Sat, drop-in coffeehouse, mtgs other nights","",NA,1991,NA,"","4/25/2023 9:34pm","516 27th St. ,  Birmingham ,  AL",-86.7916422,33.5119773,"516 27th st s, birmingham, al 35233, usa","Geocoded"
10,"Club 21","Bars/Clubs","117 1/2 21st St. N.","Birmingham","AL","322-0469 (MX,MW,S,D,B) 9pm-4am Thurs-Sat","(S),(D),(B),(MW),(MX)",NA,1991,NA,"","4/25/2023 9:34pm","117 1/2 21st St. N. ,  Birmingham ,  AL",-86.9487751,33.4034806,"1 21st st n #117, bessemer, al 35203, usa","Geocoded"
12,"Quest","Bars/Clubs","416 24th St. S.","Birmingham","AL","(D,CW)251-4313 open 24hrs, patio","(D)",NA,1991,NA,"","4/25/2023 9:34pm","416 24th St. S. ,  Birmingham ,  AL",-86.7962584,33.5108515,"416 24th st s, birmingham, al 35233, usa","Geocoded"
11,"Gizmo","Bars/Clubs","3719 3rd Ave. S.","Birmingham","AL","592-0702 (D,S) 24hrs, cruisy late at night","(D),(S)",NA,1991,NA,"","4/25/2023 9:34pm","3719 3rd Ave. S. ,  Birmingham ,  AL",-86.7783676,33.5212047,"3719 3rd ave s, birmingham, al 35222, usa","Geocoded"
13,"Rage, The","Bars/Clubs","620 29th St. S.","Birmingham","AL","323-7243 (MX,MW,D,YC,PC) 3 bars, dancing Wed, Fri & Sun","(D),(YC),(MX),(MW)",NA,1991,NA,"","4/25/2023 9:34pm","620 29th St. S. ,  Birmingham ,  AL",-86.7881814,33.5122879,"620 29th st s, birmingham, al 35233, usa","Geocoded"
14,"Steak'n Egg Kitchen","Restaurants & Cafes","1717 10th Ave. S.","Birmingham","AL","933-9822 (MX,MW,AH) 24hrs","(AH),(MX),(MW)",NA,1991,NA,"","4/25/2023 9:34pm","1717 10th Ave. S. ,  Birmingham ,  AL",-86.8003532,33.5001606,"1717 10th ave s, birmingham, al 35205, usa","Geocoded"
15,"Lodestar Books","Book Stores or Retail Shops","2020 11th Ave. S.","Birmingham","AL","939-3356 gay/lesbian titles, 10am-7pm Mon-Sat, lpm-6pm Sun","",NA,1991,NA,"","4/25/2023 9:34pm","2020 11th Ave. S. ,  Birmingham ,  AL",-86.7950963,33.500939,"2020 11th ave s, birmingham, al 35205, usa","Geocoded"
18,"MCC","Religious Organizations","2630 6th Ave. S.","Birmingham","AL","326-8529 11am Sun","",NA,1991,NA,"","4/25/2023 9:34pm","2630 6th Ave. S. ,  Birmingham ,  AL",-86.7913675,33.5117079,"2630 6th ave s, birmingham, al 35233, usa","Geocoded"
20,"Alabama Adult Books","Erotica","901 5th Ave. N.","Birmingham","AL","322-7323 24hrs","",NA,1991,NA,"","4/25/2023 9:34pm","901 5th Ave. N. ,  Birmingham ,  AL",-86.8232546,33.5108847,"901 5th ave n, birmingham, al 35203, usa","Geocoded"
21,"Birmingham Adult Books","Erotica","7610 1st Ave. N.","Birmingham","AL","836-1580 24hrs","",NA,1991,NA,"","4/25/2023 9:34pm","7610 1st Ave. N. ,  Birmingham ,  AL",-86.7298765,33.5607905,"7610 1st ave n, birmingham, al 35206, usa","Geocoded"
22,"Downtown Bookstore,","Erotica","2731 8th Ave. N.","Birmingham","AL","328-5525","",NA,1991,NA,"","4/25/2023 9:34pm","2731 8th Ave. N. ,  Birmingham ,  AL",-86.7995431,33.5264678,"2731 reverend abraham woods jr boulevard, birmingham, al 35203, usa","Geocoded"
24,"Jupiter Theater","Erotica","2500 7th Ave. S.","Birmingham","AL","324-4552 large screen movies","",NA,1991,NA,"","4/25/2023 9:34pm","2500 7th Ave. S. ,  Birmingham ,  AL",-86.7929381,33.5093961,"2500 7th ave s, birmingham, al 35233, usa","Geocoded"
25,"Pleasure Books","Erotica","7606 1st Ave. N.","Birmingham","AL","836-7379 24hrs Mon- Sat, noon-midnight Sun","",NA,1991,NA,"","4/25/2023 9:34pm","7606 1st Ave. N. ,  Birmingham ,  AL",-86.7301122,33.5608404,"7606 1st ave n, birmingham, al 35206, usa","Geocoded"
23,"Fun Time Video","Erotica","3006 Clairmont Ave.","Birmingham","AL","326-0912","",NA,1991,NA,"","4/25/2023 9:34pm","3006 Clairmont Ave. ,  Birmingham ,  AL",-86.784052,33.5115896,"3006 clairmont ave, birmingham, al 35205, usa","Geocoded"
26,"Top Hat Theater","Erotica","9221 Todd Dr.","Birmingham","AL","833-8221 films & vid­ eos, 9am-lpm Mon-Sat, noon-midnight Sun","",NA,1991,NA,"","4/25/2023 9:34pm","9221 Todd Dr. ,  Birmingham ,  AL",-86.700455,33.5878074,"9221 todd ave, birmingham, al 35206, usa","Geocoded"
2305,"Adult Books & Cinema X","Erotica","145 N. Main St.","Decatur","IL","423-9540 24hrs","",NA,1991,NA,"","4/25/2023 9:34pm","145 N. Main St. ,  Decatur ,  IL",-88.9562643,39.8420065,"145 n main st, decatur, il 62523, usa","Geocoded"
34,"Klub Karossen","Bars/Clubs","405 Blvd.","Dothan","AL","794-7860 (MW,D,E) 9pm til people leave Tues-S","(D),(E),(S),(MW)",NA,1991,NA,"","4/25/2023 9:34pm","405 Blvd. ,  Dothan ,  AL",-85.3904888,31.2232313,"dothan, al, usa","Geocoded"
4894,"Chain Reaction","Bars/Clubs","3027 E. Palmetto St.","Florence","SC","662-0378 9pm-2am Wed-Thurs & Sat, til 4am Fri, clsd Sun-Tues","(MW),(D),(S),(YC)",NA,1991,NA,"","4/25/2023 9:34pm","3027 E. Palmetto St. ,  Florence ,  SC",-79.7067502,34.1973204,"3027 e palmetto st, florence, sc 29506, usa","Geocoded"
37,"H.Q. Lookers","Bars/Clubs","217 S. 4th St.","Gadsden","AL","547-9828 (NH) 4pm-2am Tues-Sat","(NH)",NA,1991,NA,"","4/25/2023 9:34pm","217 S. 4th St. ,  Gadsden ,  AL",-86.0044489,34.011755,"217 s 4th st, gadsden, al 35901, usa","Geocoded"
40,"Lola's","Bars/Clubs","115 Clinton Ave.","Huntsville","AL","534-4297 (MW,D,S) 7pm-2am Fri-Sun","(D),(S),(MW)",NA,1991,NA,"","4/25/2023 9:34pm","115 Clinton Ave. ,  Huntsville ,  AL",-86.5872215,34.7306106,"115 clinton ave w, huntsville, al 35801, usa","Geocoded"
41,"Vieux Carre","Bars/Clubs","1204 Posey","Huntsville","AL","534-5970 (MW,D,NH) 7pm- 2am Mon-Thurs, opens 5pm Fri-Sun, patio","(D),(MW),(NH)",NA,1991,NA,"","4/25/2023 9:34pm","1204 Posey ,  Huntsville ,  AL",-86.6005067,34.7379893,"1204 posey st nw, huntsville, al 35816, usa","Geocoded"
43,"MCC","Religious Organizations","2400 Bob Wallace #102-103, 35805","Huntsville","AL","533-6220 Sun 10am & 6pm (interpreted for hearing-impaired)","",NA,1991,NA,"","4/25/2023 9:34pm","2400 Bob Wallace #102-103, 35805 ,  Huntsville ,  AL",-86.5976451,34.7116241,"2400 bob wallace ave sw 102 103, huntsville, al 35805, usa","Geocoded"
42,"Opening Books","Book Stores or Retail Shops","403 Pratt Ave. N.E.","Huntsville","AL","536-5880 9am- 10pm Sun-Thurs, til midnight Fri & Sat, lending library","",NA,1991,NA,"","4/25/2023 9:34pm","403 Pratt Ave. N.E. ,  Huntsville ,  AL",-86.580157,34.7390826,"403 pratt ave ne, huntsville, al 35801, usa","Geocoded"
1691,"Park Place Lounge","Bars/Clubs","2712 Park St.","Jacksonville","FL","389-6616","(S)",NA,1991,NA,"","4/25/2023 9:34pm","2712 Park St. ,  Jacksonville ,  FL",-81.6938777,30.3101575,"2712 park st, jacksonville, fl 32205, usa","Geocoded"
1690,"Jarviston Junction","Bars/Clubs","1261 King Rd.","Jacksonville","FL","388-3434 3pm-2am Mon-Sat, clsd Sun","(MW),(BW),(NH)",NA,1991,NA,"","4/25/2023 9:34pm","1261 King Rd. ,  Jacksonville ,  FL",-81.5875233,30.3343642,"1261 king arthur rd, jacksonville, fl 32211, usa","Geocoded"
1692,"The Phoenix","Bars/Clubs","1216 Kings Ave.","Jacksonville","FL","398-0101 3pm- 2am Mon-Fri, 8pm-2am Sat, clsd Sun","(LV),(L),(V)",NA,1991,NA,"","4/25/2023 9:34pm","1216 Kings Ave. ,  Jacksonville ,  FL",-81.6540123,30.3133408,"1216 kings ave, jacksonville, fl 32207, usa","Geocoded"
1694,"Third Dimension","Bars/Clubs,Restaurants & Cafes","711 Edison Ave.","Jacksonville","FL","353-6316 11am-2am, clsdSun","(D),(S),(F),(E)",NA,1991,NA,"","4/25/2023 9:34pm","711 Edison Ave. ,  Jacksonville ,  FL",-81.6757687,30.3212641,"711 edison ave, jacksonville, fl 32204, usa","Geocoded"
1693,"Rumors by M","Bars/Clubs","749 Cesery Blvd.","Jacksonville","FL","721-5254 3pm-2am Mon-Thurs, 3pm-3am Fri & Sat, clsd Sun","(MW),(D),(E),(S),(YC)",NA,1991,NA,"","4/25/2023 9:34pm","749 Cesery Blvd. ,  Jacksonville ,  FL",-81.5964294,30.3256177,"749 cesery blvd, jacksonville, fl 32211, usa","Geocoded"
1696,"Club Jacksonville Health Club / CBC","Gym/Health Clubs","1939 Hendricks Ave.","Jacksonville","FL","398-7451 24hrs","(PC)",NA,1991,NA,"","4/25/2023 9:34pm","1939 Hendricks Ave. ,  Jacksonville ,  FL",-81.6533924,30.3057275,"1939 hendricks ave, jacksonville, fl 32207, usa","Geocoded"
1697,"Shades o f Lavender","Book Stores or Retail Shops","1502 Hendricks","Jacksonville","FL","346-3182 gay/ lesbian books, hrs vary","",NA,1991,NA,"","4/25/2023 9:34pm","1502 Hendricks ,  Jacksonville ,  FL",-81.655019,30.310338,"1502 hendricks ave, jacksonville, fl 32207, usa","Geocoded"
1700,"MCC","Religious Organizations","126 E. 7th St.","Jacksonville","FL","358-6747 11am, 7pm Sun & 7pm Wed","",NA,1991,NA,"","4/25/2023 9:34pm","126 E. 7th St. ,  Jacksonville ,  FL",-81.6516697,30.3440659,"126 e 7th st, jacksonville, fl 32206, usa","Geocoded"
1699,"Sea Kindly Sailing Charters","Travel Agency or Tour Operators","999 First Coast Hwy. W.","Jacksonville","FL","Box 10, Fernandina Beach, 277-3826/378-8360 cus­ tomized sailing charters","",NA,1991,NA,"","4/25/2023 9:34pm","999 First Coast Hwy. W. ,  Jacksonville ,  FL",-81.4454914,30.5461415,"1st coast hwy, jacksonville, fl, usa","Geocoded"
1698,"Men of All Color Together","Men's Services","1231 King St.","Jacksonville","FL","384-7789 mtgs 1st & 3rd Sat","",NA,1991,NA,"","4/25/2023 9:34pm","1231 King St. ,  Jacksonville ,  FL",-81.6943085,30.3119854,"1231 king st, jacksonville, fl 32204, usa","Geocoded"
4190,"Friends","Bars/Clubs","1551 Lejuene Blvd.","Jacksonville","NC","(rear entrance) 353-9710 7pm-2am","(MW),(D),(S),(PC),(YC)",NA,1991,NA,"","4/25/2023 9:34pm","1551 Lejuene Blvd. ,  Jacksonville ,  NC",-77.3907592,34.7461899,"1551 lejeune blvd, jacksonville, nc 28540, usa","Geocoded"
48,"French Quarter","Cruising Areas,Bars/Clubs","215 Conti St.","Mobile","AL","438-9139","(D)",NA,1991,NA,"","4/25/2023 9:34pm","215 Conti St. ,  Mobile ,  AL",-88.0433046,30.690341,"215 conti st, mobile, al 36602, usa","Geocoded"
50,"Society Lounge","Bars/Clubs","51 Conception","Mobile","AL","433-9141 (M,S) 7pm-? Mon-Sat, noon-? Sun","(M),(S)",NA,1991,NA,"","4/25/2023 9:34pm","51 Conception ,  Mobile ,  AL",NA,NA,"NA","Geocoded"
47,"Club Park Ave.","Bars/Clubs","7 S. Joachim","Mobile","AL","433-9105 (*MW,V,S,E,YC) 6am-4am","(V),(S),(E),(YC),(MW),(*)",NA,1991,NA,"","4/25/2023 9:34pm","7 S. Joachim ,  Mobile ,  AL",-88.042733,30.6882644,"7 s joachim st, mobile, al 36602, usa","Geocoded"
49,"Golden Rod","Bars/Clubs","219 Conti","Mobile","AL","433-9175 (MX,MW,PC) 7pm-?","(MX),(MW),(PC)",NA,1991,NA,"","4/25/2023 9:34pm","219 Conti ,  Mobile ,  AL",-88.0434414,30.6903202,"219 conti st, mobile, al 36602, usa","Geocoded"
51,"MCC","Religious Organizations","2630 6th Ave. S.","Mobile","AL","326-8529 group meets weekly","",NA,1991,NA,"","4/25/2023 9:34pm","2630 6th Ave. S. ,  Mobile ,  AL",-88.0398912,30.6953657,"mobile, al, usa","Geocoded"
54,"City Lights","Bars/Clubs","211 Lee St.","Montgomery","AL","262-2600 (MW,D,E,S) 7pm-2am Mon-Fri, 6pm-2am Sat, clsd Sun","(MW),(D),(E),(S)",NA,1991,NA,"","4/25/2023 9:34pm","211 Lee St. ,  Montgomery ,  AL",-86.3107825,32.3772197,"211 lee st, montgomery, al 36104, usa","Geocoded"
55,"Zippers","Bars/Clubs","207 Dexter Ave.","Montgomery","AL","263-7890 (MW,D,S,AH) 8pm- ?Mon-Sat, 6pm-? Sun","(MW),(D),(S),(AH)",NA,1991,NA,"","4/25/2023 9:34pm","207 Dexter Ave. ,  Montgomery ,  AL",-86.3059453,32.3777771,"207 dexter ave, montgomery, al 36104, usa","Geocoded"
57,"MCC","Religious Organizations","5290 Vaughn","Montgomery","AL","(Unitarian Church) 264-7887 5:30pm Sun","",NA,1991,NA,"","4/25/2023 9:34pm","5290 Vaughn ,  Montgomery ,  AL",-86.2171226,32.3422846,"5290 vaughn rd, montgomery, al 36116, usa","Geocoded"
71,"Gay/Lesbian Support Services","Info Lines & Services","P.O. Box 4595","Tuscaloosa","AL","35486, 348-8494/348-1517 taped info","",NA,1991,NA,"","4/25/2023 9:34pm","P.O. Box 4595 ,  Tuscaloosa ,  AL",-87.5691735,33.2098407,"tuscaloosa, al, usa","Geocoded"
75,"Raven","Bars/Clubs","618 Gambell","Anchorage","AK","(enter through parking lot on 6th) 276-9672 (M,V,NH)","(M),(V),(NH)",NA,1991,NA,"","4/25/2023 9:34pm","618 Gambell ,  Anchorage ,  AK",-149.8716273,61.2162443,"618 gambell st, anchorage, ak 99501, usa","Geocoded"
76,"MCC","Religious Organizations","602 W. 10th Ave.","Anchorage","AK","(Log Cabin Unitarian Church) 745- 0803 2:30pm Sun","",NA,1991,NA,"","4/25/2023 9:34pm","602 W. 10th Ave. ,  Anchorage ,  AK",-149.8937455,61.2122881,"602 w 10th ave, anchorage, ak 99501, usa","Geocoded"
74,"Blue Moon","Bars/Clubs","530 E. 5th Ave.","Anchorage","AK","277-0441 (MW,D,S) 11:30am- 2:30am Mon-Thurs, llam -3am Fri & Sat, noon-2:30am Sun","(MW),(D),(S)",NA,1991,NA,"","4/25/2023 9:34pm","530 E. 5th Ave. ,  Anchorage ,  AK",-149.8736996,61.2172988,"mad myrna's, 530 e 5th ave, anchorage, ak 99501, usa","Geocoded"
79,"French Quarter","Erotica","4028 Mountain View","Anchorage","AK","276-9049 10am- 2am Mon-Sat, noon-1 lp m Sun","",NA,1991,NA,"","4/25/2023 9:34pm","4028 Mountain View ,  Anchorage ,  AK",-149.8056077,61.2239637,"4028 mountain view dr, anchorage, ak 99508, usa","Geocoded"
78,"Anchorage Video Mart","Erotica","137 W. 5th Ave.","Anchorage","AK","276-9224 24hrs","",NA,1991,NA,"","4/25/2023 9:34pm","137 W. 5th Ave. ,  Anchorage ,  AK",-149.8848136,61.2178036,"137 w 5th ave, anchorage, ak 99501, usa","Geocoded"
77,"Adults Only Bookstore","Erotica","3956 Spenard Rd.","Anchorage","AK","243-0697","",NA,1991,NA,"","4/25/2023 9:34pm","3956 Spenard Rd. ,  Anchorage ,  AK",-149.9262816,61.184545,"3956 spenard rd, anchorage, ak 99517, usa","Geocoded"
80,"La Sex Shoppe","Erotica","305 W. Dimond Blvd.","Anchorage","AK","522-1987 24hrs","",NA,1991,NA,"","4/25/2023 9:34pm","305 W. Dimond Blvd. ,  Anchorage ,  AK",-149.8847676,61.1449402,"305 w dimond blvd, anchorage, ak 99515, usa","Geocoded"
81,"Swinger Book Store","Erotica","710 W. Northern Lights Blvd.","Anchorage","AK","561- 5039 24hrs","",NA,1991,NA,"","4/25/2023 9:34pm","710 W. Northern Lights Blvd. ,  Anchorage ,  AK",-149.897326,61.1951308,"710 w northern lights blvd, anchorage, ak 99503, usa","Geocoded"
88,"Summit Hotel Bar","Bars/Clubs","455S. Franklin St","Juneau","AK","(rear) 586-2050 restaurant 5:30pm-10pm","(MX)",NA,1991,NA,"","4/25/2023 9:34pm","455S. Franklin St ,  Juneau ,  AK",-134.400941,58.297064,"455 s franklin st, juneau, ak 99801, usa","Geocoded"
198,"Ron's Place","Bars/Clubs","523 W. Poplar St.","Fayetteville","AR","9pm-2am Wed-Sun 442-3052","(MW),(D),(YC)",NA,1991,NA,"","4/25/2023 9:34pm","523 W. Poplar St. ,  Fayetteville ,  AR",-94.165694,36.087881,"523 w poplar st, fayetteville, ar 72703, usa","Geocoded"
199,"MCC Ozarks","Religious Organizations","275 E. Huntsville Rd.","Fayetteville","AR","443-4278 11am Sun","",NA,1991,NA,"","4/25/2023 9:34pm","275 E. Huntsville Rd. ,  Fayetteville ,  AR",-94.1551584,36.0587558,"275 e huntsville rd, fayetteville, ar 72701, usa","Geocoded"
4172,"President video & News","Erotica","3712 Bragg Blvd.","Fayetteville","NC","864-9992","",NA,1991,NA,"","4/25/2023 9:34pm","3712 Bragg Blvd. ,  Fayetteville ,  NC",-78.940654,35.079861,"3712 bragg blvd, fayetteville, nc 28303, usa","Geocoded"
4170,"Reunion","Bars/Clubs","457 W. Russell St.","Fayetteville","NC","485-7644 9pm-2am Wed-Sun","(MW),(D),(S),(PC)",NA,1991,NA,"","4/25/2023 9:34pm","457 W. Russell St. ,  Fayetteville ,  NC",-78.8859358,35.0526025,"457 w russell st, fayetteville, nc 28301, usa","Geocoded"
4169,"Oz","Bars/Clubs","2540 Gillespie St.","Fayetteville","NC","485-2037 9pm-3am","(PC),(D),(S),(E)",NA,1991,NA,"","4/25/2023 9:34pm","2540 Gillespie St. ,  Fayetteville ,  NC",-78.8979248,35.010933,"2540 gillespie st, fayetteville, nc 28306, usa","Geocoded"
4171,"Expressions","Erotica","4326 Bragg Blvd.","Fayetteville","NC","864-2358","",NA,1991,NA,"","4/25/2023 9:34pm","4326 Bragg Blvd. ,  Fayetteville ,  NC",-78.9470728,35.0846659,"4326 bragg blvd, fayetteville, nc 28303, usa","Geocoded"
203,"Busters","Bars/Clubs","522 N. 10th St.","Ft. Smith","AR","782-0550 5pm-5am","(MW),(D),(E),(S)",NA,1991,NA,"","4/25/2023 9:34pm","522 N. 10th St. ,  Ft. Smith ,  AR",-94.4170894,35.3890645,"522 n 10th st, fort smith, ar 72901, usa","Geocoded"
204,"Court Garden","Bars/Clubs","305 Garrison Ave.","Ft. Smith","AR","783-9822 5pm-5am","(MW),(D)",NA,1991,NA,"","4/25/2023 9:34pm","305 Garrison Ave. ,  Ft. Smith ,  AR",-94.4275591,35.3891928,"305 garrison ave, fort smith, ar 72901, usa","Geocoded"
209,"Our House Lounge & Restaurant","Bars/Clubs","235 Broadway St.","Hot Springs","AR","624-6868 7pm-3am Mon-Fri, 7pm-2am Sat, shows monthly","(*),(MW),(D),(F)",NA,1991,NA,"","4/25/2023 9:34pm","235 Broadway St. ,  Hot Springs ,  AR",-93.0526862,34.507046,"235 broadway st, hot springs, ar 71901, usa","Geocoded"
211,"AA Gay/Lesbian","Info Lines & Services","4404 Woodlawn","Little Rock","AR","(Pulaski Hts Presb Church) 664-7303 (AA #) mtgs 5pm Sun, 8pm Wed","",NA,1991,NA,"","4/25/2023 9:34pm","4404 Woodlawn ,  Little Rock ,  AR",-92.322117,34.7566413,"4404 woodlawn dr, little rock, ar 72205, usa","Geocoded"
216,"Chaps","Bars/Clubs","1701 S. University Ave","Little Rock","AR","664-9600 7pm-1am Mon-Fri, 6pm-12am Sat","(M),(LV),(CW)",NA,1991,NA,"","4/25/2023 9:34pm","1701 S. University Ave ,  Little Rock ,  AR",-92.341211,34.736656,"1701 s university ave, little rock, ar 72204, usa","Geocoded"
214,"Little Rock Inn","Accommodations","601 Center St.","Little Rock","AR","376-8301 gay bars on premises","(MX),(MW),(SW)",NA,1991,NA,"","4/25/2023 9:34pm","601 Center St. ,  Little Rock ,  AR",-92.2737142,34.7434647,"601 center st, little rock, ar 72201, usa","Geocoded"
217,"Christopher's Lounge","Bars/Clubs","601 Center St.","Little Rock","AR","(at the Little Rock Inn) 376-8301 piano bar, 5pm-2am, Sat 4pm-lam","(M),(E)",NA,1991,NA,"","4/25/2023 9:34pm","601 Center St. ,  Little Rock ,  AR",-92.2737142,34.7434647,"601 center st, little rock, ar 72201, usa","Geocoded"
218,"Discovery III","Bars/Clubs","1021 Jessie Rd.","Little Rock","AR","664-4784 9pm-2am Mon-Thur, 9pm-5am Fri & Sat","(*),(AH),(S),(D),(YC)",NA,1991,NA,"","4/25/2023 9:34pm","1021 Jessie Rd. ,  Little Rock ,  AR",-92.3002408,34.75858,"1021 jessie rd, little rock, ar 72202, usa","Geocoded"
220,"Rumors","Bars/Clubs","5618 Asher","Little Rock","AR","562-7531 9pm-5am (from 7pm Sun), c & w dancing Sun 7pm","(MW),(D),(PC),(C&W)",NA,1991,NA,"","4/25/2023 9:34pm","5618 Asher ,  Little Rock ,  AR",-92.336072,34.7191026,"5618 asher ave, little rock, ar 72204, usa","Geocoded"
219,"Miss Febe's","Bars/Clubs","601 Center St.","Little Rock","AR","376-8301 drag bar; shows Thur-Sat, 9pm-2am, til lam Sat","(MW),(D),(S)",NA,1991,NA,"","4/25/2023 9:34pm","601 Center St. ,  Little Rock ,  AR",-92.2737142,34.7434647,"601 center st, little rock, ar 72201, usa","Geocoded"
223,"MCC of the Rock","Religious Organizations","2017 Chandler","Little Rock","AR","(North Little Rock) 753- 7075 worship 11am","",NA,1991,NA,"","4/25/2023 9:34pm","2017 Chandler ,  Little Rock ,  AR",-92.2880157,34.7444618,"little rock, ar, usa","Geocoded"
221,"Twisted Entertainment","Book Stores or Retail Shops","7201-B Asher Ave.","Little Rock","AR","568-4262 gift shop, 11a m -11p m , clsd Tues","",NA,1991,NA,"","4/25/2023 9:34pm","7201-B Asher Ave. ,  Little Rock ,  AR",-92.3421246,34.7175265,"7201 asher ave b, little rock, ar 72204, usa","Geocoded"
225,"Arkansas Advisor","Publications","P.O. Box 4397, 72214","Little Rock","AR","phone 666-6900","",NA,1991,NA,"","4/25/2023 9:34pm","P.O. Box 4397, 72214 ,  Little Rock ,  AR",-92.3875489,34.7121745,"little rock, ar 72214, usa","Geocoded"
226,"American Arcade","Erotica","4524 Asher","Little Rock","AR","666-9925 open 24hrs, videos","",NA,1991,NA,"","4/25/2023 9:34pm","4524 Asher ,  Little Rock ,  AR",-92.3252798,34.7234386,"4524 asher ave, little rock, ar 72204, usa","Geocoded"
224,"Unitarian - Universallst Church","Religious Organizations","1818 Resevoir Rd.","Little Rock","AR","225-1503 worship Sun 11am","",NA,1991,NA,"","4/25/2023 9:34pm","1818 Resevoir Rd. ,  Little Rock ,  AR",-92.3767914,34.7693142,"1818 reservoir rd, little rock, ar 72227, usa","Geocoded"
89,"St. Elmo's","Bars/Clubs","36 Brewery Gulch Ave.","Bisbee","AZ","432-5578  dis­creetly frequented by local gay population","(MX)",NA,1991,NA,"","4/25/2023 9:34pm","36 Brewery Gulch Ave. ,  Bisbee ,  AZ",-109.9133562,31.448586,"36 brewery gulch, bisbee, az 85603, usa","Geocoded"
95,"Monte Vista Lounge","Bars/Clubs","100 N. San Francisco St.","Flagstaff","AZ","779-6971 10am-1am","(MX),(MW)",NA,1991,NA,"","4/25/2023 9:34pm","100 N. San Francisco St. ,  Flagstaff ,  AZ",-111.6473011,35.1982704,"100 n san francisco st, flagstaff, az 86001, usa","Geocoded"
94,"Charlie's","Bars/Clubs","23 N. Leroux","Flagstaff","AZ","779-1919 11pm -1am , discreety frequented by local gay population","(MX),(MW)",NA,1991,NA,"","4/25/2023 9:34pm","23 N. Leroux ,  Flagstaff ,  AZ",-111.6490479,35.1984555,"23 n leroux st, flagstaff, az 86001, usa","Geocoded"
96,"Aradia Books","Book Stores or Retail Shops","116 W. Cottage","Flagstaff","AZ","779-3817 gay/lesbian books","",NA,1991,NA,"","4/25/2023 9:34pm","116 W. Cottage ,  Flagstaff ,  AZ",-111.6517029,35.1962402,"116 w cottage ave, flagstaff, az 86001, usa","Geocoded"
101,"Kings Inn Best Western","Accommodations","2930 E. Andy Devine","Kingman","AZ","753-6101 jacuzzi, sauna","(MX)",NA,1991,NA,"","4/25/2023 9:34pm","2930 E. Andy Devine ,  Kingman ,  AZ",-114.0148392,35.2121662,"2930 e andy devine ave, kingman, az 86401, usa","Geocoded"
111,"Larry's Bed & Breakfast","Accommodations","5952 E. Calle Tuberia","Phoenix","AZ","947-5458 3 rms, shared bath, full breakfast, sea­ sonal Nov-April only","(MX),(SW)",NA,1991,NA,"","4/25/2023 9:34pm","5952 E. Calle Tuberia ,  Phoenix ,  AZ",-111.9524587,33.4936681,"5952 e calle tuberia, phoenix, az 85018, usa","Geocoded"
112,"Royal Villa Apts.","Accommodations","1102 E. Turney Ave.","Phoenix","AZ","266-6883 spa, overnight and long term accommodations","(SW)",NA,1991,NA,"","4/25/2023 9:34pm","1102 E. Turney Ave. ,  Phoenix ,  AZ",-112.0578603,33.5002899,"1102 e turney ave, phoenix, az 85014, usa","Geocoded"
114,"Apollo's","Bars/Clubs,Cruising Areas","5749 N. 7th St.","Phoenix","AZ","cruise bar, popular happy hour 277-9373","(*),(L),(LV)",NA,1991,NA,"","4/25/2023 9:34pm","5749 N. 7th St. ,  Phoenix ,  AZ",-112.0647068,33.5217741,"5749 n 7th st, phoenix, az 85014, usa","Geocoded"
117,"Bum Steer","Bars/Clubs","4620 N. 7th Ave.","Phoenix","AZ","279-3033 Copperstate Leathermen home bar, Phoenix home of T.A.L.L, patio","(*),(L),(LV),(V),(AH)",NA,1991,NA,"","4/25/2023 9:34pm","4620 N. 7th Ave. ,  Phoenix ,  AZ",-112.0829409,33.5043274,"4620 n 7th ave, phoenix, az 85013, usa","Geocoded"
115,"BS West","Bars/Clubs","7125 5th Ave.","Phoenix","AZ","(pedestrian mall), Scottsdale, 945-9028 video bar, 1pm -1am , Sun BBQ","(M),(P)",NA,1991,NA,"","4/25/2023 9:34pm","7125 5th Ave. ,  Phoenix ,  AZ",-112.0823291,33.3084351,"s 5th ave, phoenix, az, usa","Geocoded"
116,"Bobby's","Bars/Clubs","1810 E. McDowell Rd.","Phoenix","AZ","258-9477 dance bar, opens at noon","(D),(V),(S)",NA,1991,NA,"","4/25/2023 9:34pm","1810 E. McDowell Rd. ,  Phoenix ,  AZ",-112.0429096,33.4660714,"1810 e mcdowell rd, phoenix, az 85006, usa","Geocoded"
121,"Dencity","Bars/Clubs","7232 E. First St., Scottsdale","Phoenix","AZ","946-9303 (D,V,AH) opens 3pm","(D),(V),(AH)",NA,1991,NA,"","4/25/2023 9:34pm","7232 E. First St., Scottsdale ,  Phoenix ,  AZ",-111.9250947,33.4925148,"7232 e 1st st, scottsdale, az 85251, usa","Geocoded"
118,"Cattleman's Exchange","Bars/Clubs","138 W. Camelback Rd.","Phoenix","AZ","266-0875 conversation bar, upstairs ""Hayloft"" bar, 10am-lam","(OC)",NA,1991,NA,"","4/25/2023 9:34pm","138 W. Camelback Rd. ,  Phoenix ,  AZ",-112.077151,33.5096739,"138 w camelback rd, phoenix, az 85013, usa","Geocoded"
120,"Cruisin' Central","Bars/Clubs","1011 N. Central Ave.","Phoenix","AZ","253-3376 (OC,H,S) opens 7am, Sun 10am","(OC),(H),(S)",NA,1991,NA,"","4/25/2023 9:34pm","1011 N. Central Ave. ,  Phoenix ,  AZ",-112.0735561,33.4593182,"1011 n central ave, phoenix, az 85004, usa","Geocoded"
119,"Charlie’s","Bars/Clubs","727 W. Camelback Rd.","Phoenix","AZ","265-0224 cloggers, patio, home of the AZ Gay Rodeo, noon- lam, Sun Brunch","(CW),(*)",NA,1991,NA,"","4/25/2023 9:34pm","727 W. Camelback Rd. ,  Phoenix ,  AZ",-112.0836713,33.5089763,"727 w camelback rd, phoenix, az 85013, usa","Geocoded"
125,"Mr. Mister's","Bars/Clubs","1019 E. Indian School Rd.","Phoenix","AZ","(D,E) 277 1821 noon-lam","(D),(E)",NA,1991,NA,"","4/25/2023 9:34pm","1019 E. Indian School Rd. ,  Phoenix ,  AZ",-112.0597,33.4943076,"1019 e indian school rd, phoenix, az 85014, usa","Geocoded"
124,"Little Jim's 307","Bars/Clubs","222 E. Roosevelt 252-0001","Phoenix","AZ","open 6am-lam","(S)",NA,1991,NA,"","4/25/2023 9:34pm","222 E. Roosevelt 252-0001 ,  Phoenix ,  AZ",-112.06993,33.459109,"222 e roosevelt st 252 0001, phoenix, az 85004, usa","Geocoded"
123,"J'Bee's","Bars/Clubs","155 W. Camelback Rd.","Phoenix","AZ","to open spring 1990","(D),(S)",NA,1991,NA,"","4/25/2023 9:34pm","155 W. Camelback Rd. ,  Phoenix ,  AZ",-112.0770364,33.5089721,"155 w camelback rd, phoenix, az 85013, usa","Geocoded"
129,"Trax","Bars/Clubs","1724 E. McDowell","Phoenix","AZ","254-0231 (*D,L,LV,YC,AH) 2pm-lam Sun-Thur, 2pm-3:30am Fri & Sat","(*),(D),(L),(LV),(YC),(AH)",NA,1991,NA,"","4/25/2023 9:34pm","1724 E. McDowell ,  Phoenix ,  AZ",-112.0445398,33.4660592,"1724 e mcdowell rd, phoenix, az 85006, usa","Geocoded"
128,"Rocky RacKoon's Saloon & Eatery","Bars/Clubs","4622 N. 7th St.","Phoenix","AZ","248-9609 bar & restaurant, lla m -la m","(MW)",NA,1991,NA,"","4/25/2023 9:34pm","4622 N. 7th St. ,  Phoenix ,  AZ",-112.0653062,33.5044119,"4622 n 7th st, phoenix, az 85014, usa","Geocoded"
126,"Nu Towne","Bars/Clubs","5002 E. Van Buren","Phoenix","AZ","267-9959 open 10am-1am, popular Sun & Tues","(YC)",NA,1991,NA,"","4/25/2023 9:34pm","5002 E. Van Buren ,  Phoenix ,  AZ",-111.9739771,33.4514023,"5002 e van buren st, phoenix, az 85008, usa","Geocoded"
127,"Preston's","Bars/Clubs","4102 E. Thomas Rd.","Phoenix","AZ","224-5778 bar/restaurant, open til 3am","(*),(MW),(D),(AH)",NA,1991,NA,"","4/25/2023 9:34pm","4102 E. Thomas Rd. ,  Phoenix ,  AZ",-111.9927241,33.4807168,"wagon wheel shopping center, 4102 e thomas rd, phoenix, az 85018, usa","Geocoded"
132,"Gentry","Restaurants & Cafes","4523 N. 16th St.","Phoenix","AZ","274-1288 (MX,E,P) cocktails, 11:30am-lpm","(MX),(E),(P)",NA,1991,NA,"","4/25/2023 9:34pm","4523 N. 16th St. ,  Phoenix ,  AZ",-112.047203,33.5027809,"4523 n 16th st, phoenix, az 85016, usa","Geocoded"
130,"Winks","Bars/Clubs","5707 N. 7th St.","Phoenix","AZ","265-9002 piano bar, live entertainment, lunch 11:30-2:30pm, Sun Brunch","(*),(E)",NA,1991,NA,"","4/25/2023 9:34pm","5707 N. 7th St. ,  Phoenix ,  AZ",-112.064718,33.5205184,"5707 n 7th st, phoenix, az 85014, usa","Geocoded"
131,"Cactus Cafe","Restaurants & Cafes","4102 E. Thomas Rd.","Phoenix","AZ","(at Preston's bar) Southwestern cuisine, closed Mon & Tues, opens 5pm","",NA,1991,NA,"","4/25/2023 9:34pm","4102 E. Thomas Rd. ,  Phoenix ,  AZ",-111.9927241,33.4807168,"wagon wheel shopping center, 4102 e thomas rd, phoenix, az 85018, usa","Geocoded"
133,"Flex Complex","Gym/Health Clubs","1517 S. Black Canyon Hwy.","Phoenix","AZ","(access road) 271-9011 (PC,SW) steam","(PC),(SW)",NA,1991,NA,"","4/25/2023 9:34pm","1517 S. Black Canyon Hwy. ,  Phoenix ,  AZ",-112.1072675,33.4337502,"1517 s black canyon hwy, phoenix, az 85009, usa","Geocoded"
134,"Humanspace Books Inc","Book Stores or Retail Shops","1617 N. 32nd St. #5","Phoenix","AZ","220-4419 alternative lifestyle, gay men's titles, thorough AIDS section","",NA,1991,NA,"","4/25/2023 9:34pm","1617 N. 32nd St. #5 ,  Phoenix ,  AZ",-112.0125818,33.4667912,"1617 n 32nd st #5, phoenix, az 85008, usa","Geocoded"
135,"Tuff Stuff","Book Stores or Retail Shops","1714 E. McDowell Rd.","Phoenix","AZ","254-9651 leather shop Tues-Fri 10-6, Sat 10-3, clsd Sun & Mon","",NA,1991,NA,"","4/25/2023 9:34pm","1714 E. McDowell Rd. ,  Phoenix ,  AZ",-112.0449202,33.4660117,"1714 e mcdowell rd, phoenix, az 85006, usa","Geocoded"
138,"Travel Registry","Travel Agency or Tour Operators","3819 N. 3rd St.","Phoenix","AZ","263-7761","(IGTA)",NA,1991,NA,"","4/25/2023 9:34pm","3819 N. 3rd St. ,  Phoenix ,  AZ",-112.0688054,33.4918808,"3819 n 3rd st, phoenix, az 85012, usa","Geocoded"
136,"Advantage Travel","Travel Agency or Tour Operators","645 E. Missouri, Suite 181","Phoenix","AZ","230-2299","",NA,1991,NA,"","4/25/2023 9:34pm","645 E. Missouri, Suite 181 ,  Phoenix ,  AZ",-112.0656401,33.5160533,"645 e missouri ave #181, phoenix, az 85012, usa","Geocoded"
137,"FirsTravel, Ltd.","Travel Agency or Tour Operators","5150 N. 7th St.","Phoenix","AZ","265-0666","(IGTA)",NA,1991,NA,"","4/25/2023 9:34pm","5150 N. 7th St. ,  Phoenix ,  AZ",-112.0652657,33.5126408,"5150 n 7th st, phoenix, az 85012, usa","Geocoded"
140,"Casa de Cristo Evangelical Church","Religious Organizations","1029 E. Turney","Phoenix","AZ","265-2831 10am & 7pm Sun","",NA,1991,NA,"","4/25/2023 9:34pm","1029 E. Turney ,  Phoenix ,  AZ",-112.0585822,33.4993437,"1029 e turney ave, phoenix, az 85014, usa","Geocoded"
142,"MCC Gentle Shepherd","Religious Organizations","3425 E. Mountain View Blvd.","Phoenix","AZ","996-7644 10:30am Sun","",NA,1991,NA,"","4/25/2023 9:34pm","3425 E. Mountain View Blvd. ,  Phoenix ,  AZ",-112.0067203,33.5750166,"3425 e mountain view rd, phoenix, az 85028, usa","Geocoded"
143,"Oasis MCC","Religious Organizations","2405 E. Coronado","Phoenix","AZ","11am Sun","",NA,1991,NA,"","4/25/2023 9:34pm","2405 E. Coronado ,  Phoenix ,  AZ",-112.0291698,33.4671725,"2405 e coronado rd, phoenix, az 85008, usa","Geocoded"
146,"Book Cellar","Erotica","#2 2103 W. Camelback Rd.","Phoenix","AZ","249-9788 books, etc., open 24hrs","",NA,1991,NA,"","4/25/2023 9:34pm","#2 2103 W. Camelback Rd. ,  Phoenix ,  AZ",-112.1044816,33.5093936,"2103 w camelback rd, phoenix, az 85015, usa","Geocoded"
147,"Castle Boutique","Erotica","5501 E. Washington","Phoenix","AZ","231-9837 open 24hrs","",NA,1991,NA,"","4/25/2023 9:34pm","5501 E. Washington ,  Phoenix ,  AZ",-111.9630151,33.4450894,"5501 e washington st, phoenix, az 85034, usa","Geocoded"
148,"International Bookstore","Erotica","3640 E. Thomas Rd.","Phoenix","AZ","955- 2000 large gay selection, 8am-2:30am","",NA,1991,NA,"","4/25/2023 9:34pm","3640 E. Thomas Rd. ,  Phoenix ,  AZ",-112.0026216,33.4807299,"3640 e thomas rd, phoenix, az 85018, usa","Geocoded"
149,"Modern World","Erotica","1812 E. Apache, Tempe","Phoenix","AZ","967-9052 gay/ lesbian selection, open 24hrs","",NA,1991,NA,"","4/25/2023 9:34pm","1812 E. Apache, Tempe ,  Phoenix ,  AZ",-111.9083036,33.4150236,"1812 e apache blvd, tempe, az 85281, usa","Geocoded"
151,"Zorba's Adult Book Shop","Erotica","2924 N. Scottsdale Rd.,Scottsdale","Phoenix","AZ","941-9891 24hrs, videos, etc.","",NA,1991,NA,"","4/25/2023 9:34pm","2924 N. Scottsdale Rd.,Scottsdale ,  Phoenix ,  AZ",-111.9266551,33.4812099,"2924 n scottsdale rd, scottsdale, az 85251, usa","Geocoded"
150,"Pleasure Palace","Erotica","1524 E. Van Buren","Phoenix","AZ","262-9942 24hrs","",NA,1991,NA,"","4/25/2023 9:34pm","1524 E. Van Buren ,  Phoenix ,  AZ",-112.0478637,33.451564,"1524 e van buren st, phoenix, az 85006, usa","Geocoded"
158,"Oak Creek Owl Restaurant & Cocktail Room","Restaurants & Cafes","329 Hwy. 179","Sedona","AZ","282-3532 (MX,MW)","(MX),(MW)",NA,1991,NA,"","4/25/2023 9:34pm","329 Hwy. 179 ,  Sedona ,  AZ",-111.7630853,34.8631731,"329 az-179, sedona, az 86336, usa","Geocoded"
162,"Hacienda del Sol Guest Ranch Resort","Accommodations","5601 N. Haci­enda del Sol Rd.","Tucson","AZ","299-1501 44 acre complex, horseback riding & tennis","(MX),(MW),(SW),(F)",NA,1991,NA,"","4/25/2023 9:34pm","5601 N. Haci­enda del Sol Rd. ,  Tucson ,  AZ",-110.9152664,32.3043956,"5601 n hacienda del sol rd, tucson, az 85718, usa","Geocoded"
163,"Back Pocket","Bars/Clubs","2921 N. 1st Ave.","Tucson","AZ","(atJoshua Tree bar) 622-6233 quiet bar","",NA,1991,NA,"","4/25/2023 9:34pm","2921 N. 1st Ave. ,  Tucson ,  AZ",-110.9614239,32.2607871,"2921 n 1st ave, tucson, az 85719, usa","Geocoded"
165,"Graduate","Cruising Areas,Bars/Clubs","23 W. University Ave.","Tucson","AZ","622-9233 11am-1am Mon-Sun, cruise bar","",NA,1991,NA,"","4/25/2023 9:34pm","23 W. University Ave. ,  Tucson ,  AZ",-110.9724985,32.231604,"23 w university blvd, tucson, az 85705, usa","Geocoded"
166,"It's About Time","Bars/Clubs","616 N. 4th Ave.","Tucson","AZ","(IBT's)882-3053 noon-1am","(*),(D)",NA,1991,NA,"","4/25/2023 9:34pm","616 N. 4th Ave. ,  Tucson ,  AZ",-110.9654055,32.2295467,"616 n 4th ave, tucson, az 85705, usa","Geocoded"
164,"Congress Tap Room","Bars/Clubs","311 E. Congress","Tucson","AZ","(inside Congress Hotel) 622-8848 11am -1am Mon-Sat, noon- lam Sun","(MX),(OC)",NA,1991,NA,"","4/25/2023 9:34pm","311 E. Congress ,  Tucson ,  AZ",-110.9668233,32.222337,"311 e congress st, tucson, az 85701, usa","Geocoded"
167,"Joshua Tree","Bars/Clubs","2921 N. 1st Ave.","Tucson","AZ","622-6233 noon- 1am, patio, stage, steak dinner Sun","(*),(YC),(D)",NA,1991,NA,"","4/25/2023 9:34pm","2921 N. 1st Ave. ,  Tucson ,  AZ",-110.9614239,32.2607871,"2921 n 1st ave, tucson, az 85719, usa","Geocoded"
169,"Rumorhazzit","Bars/Clubs","2222 N. Stone","Tucson","AZ","791-0309 noon-1am","(MW),(D),(V)",NA,1991,NA,"","4/25/2023 9:34pm","2222 N. Stone ,  Tucson ,  AZ",-110.9716704,32.2487613,"2222 n stone ave, tucson, az 85705, usa","Geocoded"
168,"Rainbow Room","Bars/Clubs","3455 E. Grant Rd.","Tucson","AZ","327-3390 noon-1am","(D),(S)",NA,1991,NA,"","4/25/2023 9:34pm","3455 E. Grant Rd. ,  Tucson ,  AZ",-110.9188801,32.2509179,"3455 e grant rd, tucson, az 85716, usa","Geocoded"
171,"Books Brothers","Book Stores or Retail Shops","3242 E. Speedway Blvd.","Tucson","AZ","326-3332 gen. bookstore with gay/lesbian section","",NA,1991,NA,"","4/25/2023 9:34pm","3242 E. Speedway Blvd. ,  Tucson ,  AZ",-110.9238261,32.2357585,"3242 e speedway blvd, tucson, az 85716, usa","Geocoded"
172,"Fantasy Travel","Travel Agency or Tour Operators","610 E. Knox Dr.","Tucson","AZ","293-2620 8:30am- 5:30pm Mon-Fri, 9am-lpm Sat","",NA,1991,NA,"","4/25/2023 9:34pm","610 E. Knox Dr. ,  Tucson ,  AZ",-110.9613979,32.2773106,"610 e knox dr, tucson, az 85705, usa","Geocoded"
170,"Blue Willow","Restaurants & Cafes","2616 N. Campbell","Tucson","AZ","795-8736 health foods","(MX),(MW)",NA,1991,NA,"","4/25/2023 9:34pm","2616 N. Campbell ,  Tucson ,  AZ",-110.9435241,32.254416,"2616 n campbell ave, tucson, az 85719, usa","Geocoded"
173,"Cornerstone Fellowship","Religious Organizations","3333 E. Grant Rd.","Tucson","AZ","881-3519 10:30am Sun","",NA,1991,NA,"","4/25/2023 9:34pm","3333 E. Grant Rd. ,  Tucson ,  AZ",-110.921928,32.2510949,"3333 e grant rd, tucson, az 85716, usa","Geocoded"
176,"MCC","Religious Organizations","560 S. Stone Ave.","Tucson","AZ","622-4536 10:45am & 5:30pm Sun","",NA,1991,NA,"","4/25/2023 9:34pm","560 S. Stone Ave. ,  Tucson ,  AZ",-110.9702067,32.214163,"560 s stone ave, tucson, az 85701, usa","Geocoded"
179,"Caesar's Book Store","Erotica","2540 N. Oracle Rd.","Tucson","AZ","622-9479","",NA,1991,NA,"","4/25/2023 9:34pm","2540 N. Oracle Rd. ,  Tucson ,  AZ",-110.977744,32.2529397,"2540 n oracle rd, tucson, az 85705, usa","Geocoded"
180,"Speedway Books & Video","Erotica","3660 E. Speedway Blvd.","Tucson","AZ","795-7467","",NA,1991,NA,"","4/25/2023 9:34pm","3660 E. Speedway Blvd. ,  Tucson ,  AZ",-110.9143035,32.2356435,"3660 e speedway blvd, tucson, az 85716, usa","Geocoded"
181,"Tropicana Adult Bookstore","Erotica","617 W. Miracle Mile","Tucson","AZ","622-2289","",NA,1991,NA,"","4/25/2023 9:34pm","617 W. Miracle Mile ,  Tucson ,  AZ",-110.981702,32.260577,"617 w miracle mile, tucson, az 85705, usa","Geocoded"
178,"The Bookstore Southwest","Erotica","5754 E. Speedway Blvd.","Tucson","AZ","790-1550 24hrs","",NA,1991,NA,"","4/25/2023 9:34pm","5754 E. Speedway Blvd. ,  Tucson ,  AZ",-110.8691063,32.235824,"5754 e speedway blvd, tucson, az 85712, usa","Geocoded"
187,"J.P.'s Cameo Lounge","Bars/Clubs","232 S. 4th Ave.","Yuma","AZ","783-9966 noon-lam","(MW),(D),(NH)",NA,1991,NA,"","4/25/2023 9:34pm","232 S. 4th Ave. ,  Yuma ,  AZ",-114.6247963,32.7226362,"232 s 4th ave, yuma, az 85364, usa","Geocoded"
188,"Owl Bookstore","Erotica","807 S. 4th Ave.","Yuma","AZ","343-1040","",NA,1991,NA,"","4/25/2023 9:34pm","807 S. 4th Ave. ,  Yuma ,  AZ",-114.6243753,32.7128294,"807 s 4th ave, yuma, az 85364, usa","Geocoded"
232,"Sure Shot","Bars/Clubs","1732 S. Euclid","Anaheim","CA","535-9439 noon-2am","(MW),(BW)",NA,1991,NA,"","4/25/2023 9:34pm","1732 S. Euclid ,  Anaheim ,  CA",-117.9406228,33.8041747,"1732 s euclid st, anaheim, ca 92802, usa","Geocoded"
233,"MCC New Covenant","Religious Organizations","2156 W. Lincoln","Anaheim","CA","776-7210 11:00am Sun, 7:30pm Wed","",NA,1991,NA,"","4/25/2023 9:34pm","2156 W. Lincoln ,  Anaheim ,  CA",-117.9575299,33.8321365,"2156 w lincoln ave, anaheim, ca 92804, usa","Geocoded"
238,"Casablanca","Bars/Clubs","1030 20th St.","Bakersfield","CA","324-1384  4pm-2am","(M),(NH)",NA,1991,NA,"","4/25/2023 9:34pm","1030 20th St. ,  Bakersfield ,  CA",-119.0137612,35.3773617,"1030 20th st, bakersfield, ca 93301, usa","Geocoded"
242,"MCC of the Harvest","Religious Organizations","2413 Alta Vista Dr.","Bakersfield","CA","327-3724 cur­rently 7pm Sun, call first for time change","",NA,1991,NA,"","4/25/2023 9:34pm","2413 Alta Vista Dr. ,  Bakersfield ,  CA",-118.993795,35.3948756,"2413 alta vista dr, bakersfield, ca 93305, usa","Geocoded"
241,"Grace Community Chapel","Religious Organizations","98 Sterling Rd.","Bakersfield","CA","(Evangelicals) 861-1180 7pm Sun","",NA,1991,NA,"","4/25/2023 9:34pm","98 Sterling Rd. ,  Bakersfield ,  CA",-118.9405595,35.3610363,"98 sterling rd, bakersfield, ca 93307, usa","Geocoded"
243,"Grapevine Entertainment Inc.","Erotica","1524 Golden State Hwy.","Bakersfield","CA","322-7300 9am-2am","",NA,1991,NA,"","4/25/2023 9:34pm","1524 Golden State Hwy. ,  Bakersfield ,  CA",-121.6873255,39.3603606,"1524 golden state hwy, gridley, ca 95948, usa","Geocoded"
244,"Wildcat Books","Erotica","2620 Chester","Bakersfield","CA","324-4243 9am-1am Mon- Thurs, Fri & Sat til 2am, Sun noon-midnight","",NA,1991,NA,"","4/25/2023 9:34pm","2620 Chester ,  Bakersfield ,  CA",-119.0324181,35.3651437,"2620 chester ln, bakersfield, ca 93304, usa","Geocoded"
251,"Pacific Center","Info Lines & Services","2712 Telegraph Ave.","Berkeley","CA","548-8283 support grps & counseling, 10-10 Mon-Fri, noon-4 Sat, 6-9 Sun","",NA,1991,NA,"","4/25/2023 9:34pm","2712 Telegraph Ave. ,  Berkeley ,  CA",-122.2593404,37.8611143,"2712 telegraph ave, berkeley, ca 94705, usa","Geocoded"
254,"Coffee Bazaar","Restaurants & Cafes","2510 Channing","Berkeley","CA","548-8220 Mon-Fri 7am-5pm, Sat 11am -4pm , Sun 10am-4pm","(MX)",NA,1991,NA,"","4/25/2023 9:34pm","2510 Channing ,  Berkeley ,  CA",-122.2582962,37.8667454,"2510 channing, 2510 channing way, berkeley, ca 94720, usa","Geocoded"
253,"Brick Hut","Restaurants & Cafes","3222 Adeline St.","Berkeley","CA","658-5555","(MX),(MW)",NA,1991,NA,"","4/25/2023 9:34pm","3222 Adeline St. ,  Berkeley ,  CA",-122.2715697,37.8501149,"3222 adeline st, berkeley, ca 94703, usa","Geocoded"
255,"Steam Works","Gym/Health Clubs","2107 4th St.","Berkeley","CA","845-8992 24hrs","(M),(PC)",NA,1991,NA,"","4/25/2023 9:34pm","2107 4th St. ,  Berkeley ,  CA",-122.2987483,37.8659665,"2107 fourth st, berkeley, ca 94710, usa","Geocoded"
256,"Cody's","Book Stores or Retail Shops","2454 Telegraph Ave.","Berkeley","CA","845-7852 general book­ store w ith gay titles","",NA,1991,NA,"","4/25/2023 9:34pm","2454 Telegraph Ave. ,  Berkeley ,  CA",-122.2587955,37.8658739,"2454 telegraph ave, berkeley, ca 94704, usa","Geocoded"
257,"Dignity East Bay","Religious Organizations","2401 LeConte","Berkeley","CA","(University Christian Church) 995-2535 mtg 5:30pm 1st & 3rd Sun, info & referral line","",NA,1991,NA,"","4/25/2023 9:34pm","2401 LeConte ,  Berkeley ,  CA",-122.2622427,37.8769183,"2401 le conte ave, berkeley, ca 94709, usa","Geocoded"
258,"MCC New Life","Religious Organizations","1823 9th St.","Berkeley","CA","843-9355 12:30pm Sun","",NA,1991,NA,"","4/25/2023 9:34pm","1823 9th St. ,  Berkeley ,  CA",-122.2947127,37.8702615,"1823 ninth st, berkeley, ca 94710, usa","Geocoded"
261,"Eagles' Nest","Accommodations","41675 Big Bear Rd.","Big Bear","CA","866-6465 B & B, year round","(MX)",NA,1991,NA,"","4/25/2023 9:34pm","41675 Big Bear Rd. ,  Big Bear ,  CA",-116.8928056,34.2431094,"41675 big bear blvd, big bear lake, ca 92315, usa","Geocoded"
264,"Ozz","Bars/Clubs","6231 Manchester Ave.","Brea","CA","522-1542 9pm-2am","(*),(MW),(D),(F),(S),(YC)",NA,1991,NA,"","4/25/2023 9:34pm","6231 Manchester Ave. ,  Brea ,  CA",NA,NA,"NA","Geocoded"
265,"Ozz Steak & Seafood (at Ozz bar)","Restaurants & Cafes","6231 Manchester Ave.","Brea","CA","11:15am-midnight, til 1am Fri & Sat, lunch-dinner. 522-1542","(MW),(E)",NA,1991,NA,"","4/25/2023 9:34pm","6231 Manchester Ave. ,  Brea ,  CA",NA,NA,"NA","Geocoded"
270,"R.J's","Bars/Clubs","900 Cherry St.","Chico","CA","893-0900 5pm- 2am Mon-Fri, Sat & Sun 2pm-2am","(*),(MW),(D),(S),(V),(YC)",NA,1991,NA,"","4/25/2023 9:34pm","900 Cherry St. ,  Chico ,  CA",-121.8415311,39.7208312,"900 cherry st, chico, ca 95928, usa","Geocoded"
274,"Sunset Point Resort","Accommodations","12037 E. Hwy. 20","Clear Lake","CA","998-9475  cabins, RV hookup, spa","(MW),(SW)",NA,1991,NA,"","4/25/2023 9:34pm","12037 E. Hwy. 20 ,  Clear Lake ,  CA",-122.775756,39.0430008,"12037 e hwy 20, lucerne, ca 95458, usa","Geocoded"
272,"Blue Fish Cove Resort","Accommodations","10573 E. Hwy. 20","Clear Lake","CA","998-1769 year round, w ith boat facilities","(MW),(SW)",NA,1991,NA,"","4/25/2023 9:34pm","10573 E. Hwy. 20 ,  Clear Lake ,  CA",-122.775756,39.0430008,"10573 e hwy 20, lucerne, ca 95458, usa","Geocoded"
273,"Lake Place Resort","Accommodations","9515 Harbor Dr.","Clear Lake","CA","Glenhaven, 998- 3331 (* ) year round","(*)",NA,1991,NA,"","4/25/2023 9:34pm","9515 Harbor Dr. ,  Clear Lake ,  CA",-122.7326847,39.0254167,"9515 harbor dr, glenhaven, ca 95443, usa","Geocoded"
275,"Thackery's Marina Inn","Accommodations","10165 Hwy 20","Clear Lake","CA","Clearlake Oaks, 998-9501  cabins, boat marina, private beach","(MX),(MW),(SW)",NA,1991,NA,"","4/25/2023 9:34pm","10165 Hwy 20 ,  Clear Lake ,  CA",-122.720233,39.0235043,"10165 state hwy 20, clearlake oaks, ca 95423, usa","Geocoded"
276,"Twin Palms Resort","Accommodations","140 Short St.","Clear Lake","CA","Box 922, 95423 998- 1970 ownership may change in 1990, call first","(MW)",NA,1991,NA,"","4/25/2023 9:34pm","140 Short St. ,  Clear Lake ,  CA",-122.6263728,38.9582307,"clearlake, ca, usa","Geocoded"
277,"Sunset Point Bar/Restauran","Restaurants & Cafes,Bars/Clubs","12037 E. Hwy 20","Clear Lake","CA","998- 3243 cocktails, seasonal hrs","(MW)",NA,1991,NA,"","4/25/2023 9:34pm","12037 E. Hwy 20 ,  Clear Lake ,  CA",-122.775756,39.0430008,"12037 e hwy 20, lucerne, ca 95458, usa","Geocoded"
281,"Zander Travel Service","Travel Agency or Tour Operators","2300 Clayton Rd. #570","Concord","CA","682-1400","(IGTA)",NA,1991,NA,"","4/25/2023 9:34pm","2300 Clayton Rd. #570 ,  Concord ,  CA",-122.0376969,37.9737442,"2300 clayton rd # 570, concord, ca 94520, usa","Geocoded"
283,"The Adult Bookstore","Erotica","2298 Monument","Concord","CA","Pleasant Hill 680-9806 8am-10:30pm","",NA,1991,NA,"","4/25/2023 9:34pm","2298 Monument ,  Concord ,  CA",-122.0356511,37.9582982,"2298 monument blvd, concord, ca 94520, usa","Geocoded"
282,"MCC Diablo Valley","Religious Organizations","2253 Concord Blvd.","Concord","CA","827-2960/TDD 827-0716 10am Sun","",NA,1991,NA,"","4/25/2023 9:34pm","2253 Concord Blvd. ,  Concord ,  CA",-122.0316694,37.976722,"2253 concord blvd, concord, ca 94520, usa","Geocoded"
3550,"Mountain Valley Men","Men's Services","P.O. Box 32","Concord","NH","03860, social group, write for info","",NA,1991,NA,"","4/25/2023 9:34pm","P.O. Box 32 ,  Concord ,  NH",-71.5375718,43.2081366,"concord, nh, usa","Geocoded"
285,"New Directions Travel Company","Travel Agency or Tour Operators","2435 E. Coast Hwy.","Corona Del Mar","CA","675-5000","(IGTA)",NA,1991,NA,"","4/25/2023 9:34pm","2435 E. Coast Hwy. ,  Corona Del Mar ,  CA",-117.8742299,33.603839,"2435 east coast hwy, corona del mar, ca 92625, usa","Geocoded"
287,"Newport Station","Bars/Clubs","1945 Placentia","Costa Mesa","CA","631-0031 9pm-2am Tues-Sat, clsd Sun/Mo","(MW),(D),(V),(E),(S),(YC),(*)",NA,1991,NA,"","4/25/2023 9:34pm","1945 Placentia ,  Costa Mesa ,  CA",-117.9332755,33.6439303,"1945 placentia ave, costa mesa, ca 92627, usa","Geocoded"
286,"Lions Den","Bars/Clubs","719 W. 19th St.","Costa Mesa","CA","645-3830 Mon-Fri 2pm-2am, from noon Sat & Sun","(MW),(D),(YC)",NA,1991,NA,"","4/25/2023 9:34pm","719 W. 19th St. ,  Costa Mesa ,  CA",-117.929065,33.6427852,"719 w 19th st, costa mesa, ca 92627, usa","Geocoded"
288,"Tin Lizzie Saloon","Bars/Clubs","752 St. Clair","Costa Mesa","CA","966-2029 11:30am- 2am, cocktail lounge","(MW)",NA,1991,NA,"","4/25/2023 9:34pm","752 St. Clair ,  Costa Mesa ,  CA",-117.8881252,33.6777276,"752 st clair st, costa mesa, ca 92626, usa","Geocoded"
289,"MCC Ocean of Life","Religious Organizations","1259 Victoria St.","Costa Mesa","CA","(Unitarian Church) 675-1670 7pm Sun","",NA,1991,NA,"","4/25/2023 9:34pm","1259 Victoria St. ,  Costa Mesa ,  CA",-117.9482385,33.6510237,"1259 victoria st, costa mesa, ca 92627, usa","Geocoded"
293,"Silver Fox","Bars/Clubs","10095 Saich Way","Cupertino","CA","255-3673 2pm-2am","(D),(S),(NH)",NA,1991,NA,"","4/25/2023 9:34pm","10095 Saich Way ,  Cupertino ,  CA",-122.0376316,37.3241187,"10095 saich way, cupertino, ca 95014, usa","Geocoded"
295,"Gay/Lesbian Association o f Davis (GLAD)","Info Lines & Services","433 Russell","Davis","CA","753-2090 (tape) call for meeting times and social events","",NA,1991,NA,"","4/25/2023 9:34pm","433 Russell ,  Davis ,  CA",-121.7405167,38.5449065,"davis, ca, usa","Geocoded"
296,"Cafe’Roma","Restaurants & Cafes","231 E. St.","Davis","CA","756-1615 coffee & pastries, popular student hangout","(MX)",NA,1991,NA,"","4/25/2023 9:34pm","231 E. St. ,  Davis ,  CA",-121.7416533,38.5441876,"231 e st, davis, ca 95616, usa","Geocoded"
297,"Cedar Creek Inn","Accommodations","PO Box 1466, Alpine, 92001","Descanso","CA","440-6259 cont'l breakfast, rooms have priv kitch­ ens & bathrooms","(MX),(SW),(MW)",NA,1991,NA,"","4/25/2023 9:34pm","PO Box 1466, Alpine, 92001 ,  Descanso ,  CA",-116.6158525,32.8528287,"descanso, ca 91916, usa","Geocoded"
301,"Sugar Shack","Bars/Clubs","4101 N. Arden Dr.","El Monte","CA","575-9534 noon-2am","(MX),(BW)",NA,1991,NA,"","4/25/2023 9:34pm","4101 N. Arden Dr. ,  El Monte ,  CA",-118.0455143,34.0810042,"4101 arden dr, el monte, ca 91731, usa","Geocoded"
304,"Video Specialties","Erotica","2320 S. Escondido Blvd.","Escondido","CA","745-6697 24 hrs","",NA,1991,NA,"","4/25/2023 9:34pm","2320 S. Escondido Blvd. ,  Escondido ,  CA",-117.0712122,33.0935715,"2320 s escondido blvd, escondido, ca 92025, usa","Geocoded"
302,"Panchali's","Bars/Clubs","831 S. Escondido Blvd.","Escondido","CA","747-5250 5pm-2am Mon-Fri, from noon on Sat & Sun","(MW),(D),(NH),(F)",NA,1991,NA,"","4/25/2023 9:34pm","831 S. Escondido Blvd. ,  Escondido ,  CA",-117.0795231,33.113354,"831 s escondido blvd, escondido, ca 92025, usa","Geocoded"
303,"'F Street Bookstore","Erotica","237 E. Grand Ave.","Escondido","CA","480-6031","",NA,1991,NA,"","4/25/2023 9:34pm","237 E. Grand Ave. ,  Escondido ,  CA",-117.0792286,33.1225686,"237 e grand ave, escondido, ca 92025, usa","Geocoded"
309,"Jug Handle Beach B & B","Accommodations","32980 Gibney Lane","Fort Bragg","CA","B & B, 4 units, no pets","(MX),(MW)",NA,1991,NA,"","4/25/2023 9:34pm","32980 Gibney Lane ,  Fort Bragg ,  CA",-123.8133232,39.3834579,"32980 gibney ln, fort bragg, ca 95437, usa","Geocoded"
313,"Serenity Fellowship (AA)","Info Lines & Services","1759 Fulton #21","Fresno","CA","221-6907 call for mtg times","",NA,1991,NA,"","4/25/2023 9:34pm","1759 Fulton #21 ,  Fresno ,  CA",-119.7987849,36.7415693,"1759 fulton st #21, fresno, ca 93721, usa","Geocoded"
314,"C's","Bars/Clubs","2250 N. Weber","Fresno","CA","237-4355 5pm-2am Mon-Fri, Sat & Sun from 6pm","(*),(MW),(D),(NH)",NA,1991,NA,"","4/25/2023 9:34pm","2250 N. Weber ,  Fresno ,  CA",-119.8329245,36.7709896,"2250 n weber ave, fresno, ca 93705, usa","Geocoded"
316,"Metro Station","Restaurants & Cafes","1445 Tuolumne St.","Fresno","CA","237-9540 4pm- midnight Tues-Thurs, til 2am Fri & Sat","(MW)",NA,1991,NA,"","4/25/2023 9:34pm","1445 Tuolumne St. ,  Fresno ,  CA",-119.8000906,36.7347767,"1445 tuolumne st, fresno, ca 93706, usa","Geocoded"
318,"Tower Cottage","Book Stores or Retail Shops","431 E. Olive Ave.","Fresno","CA","485-2105 10am-6pm Mon-Sat, clsd Sun","",NA,1991,NA,"","4/25/2023 9:34pm","431 E. Olive Ave. ,  Fresno ,  CA",-119.8063207,36.7578128,"431 e olive ave, fresno, ca 93728, usa","Geocoded"
317,"Olive Tower Cafe","Restaurants & Cafes","936 E. Olive Ave.","Fresno","CA","485-5100 cafe food, 7am-9pm Tues-Fri, til 3pm Sat-Mon","(MX),(MW)",NA,1991,NA,"","4/25/2023 9:34pm","936 E. Olive Ave. ,  Fresno ,  CA",-119.7994677,36.7575537,"936 e olive ave, fresno, ca 93728, usa","Geocoded"
315,"Red Lantern","Bars/Clubs","4618 E. Belmont St.","Fresno","CA","251-5898 2pm-2am","(*),(MW),(NH)",NA,1991,NA,"","4/25/2023 9:34pm","4618 E. Belmont St. ,  Fresno ,  CA",-119.7446313,36.7502867,"4618 e belmont ave, fresno, ca 93702, usa","Geocoded"
319,"MCC of the Vineyard","Religious Organizations","710 N. Fulton","Fresno","CA","(Unitarian Church) 441-0105 10:30am Sun","",NA,1991,NA,"","4/25/2023 9:34pm","710 N. Fulton ,  Fresno ,  CA",-119.8002097,36.7525172,"710 n fulton st, fresno, ca 93728, usa","Geocoded"
320,"Questions & Answers Newspaper","Publications","164 N. Blackstone Ave. Suite 119","Fresno","CA","268-4929","",NA,1991,NA,"","4/25/2023 9:34pm","164 N. Blackstone Ave. Suite 119 ,  Fresno ,  CA",-119.7903473,36.7445945,"164 n blackstone ave #119, fresno, ca 93701, usa","Geocoded"
321,"Wildcat Book Store","Book Stores or Retail Shops,Erotica","1535 Fresno St.","Fresno","CA","237-4525","",NA,1991,NA,"","4/25/2023 9:34pm","1535 Fresno St. ,  Fresno ,  CA",-119.7965455,36.733269,"1535 fresno st, fresno, ca 93706, usa","Geocoded"
330,"Act 1","Bars/Clubs","8612 Garden Grove Blvd.","Garden Grove","CA","530-6375 piano bar, noon-2am","(M),(D),(E),(V)",NA,1991,NA,"","4/25/2023 9:34pm","8612 Garden Grove Blvd. ,  Garden Grove ,  CA",-117.9817456,33.7735325,"8612 garden grove blvd, garden grove, ca 92844, usa","Geocoded"
327,"AA Gay/Lesbian","Info Lines & Services","11918 Garden Grove Blvd.","Garden Grove","CA","534-5820 call for schedule","",NA,1991,NA,"","4/25/2023 9:34pm","11918 Garden Grove Blvd. ,  Garden Grove ,  CA",-117.9245416,33.7739029,"11918 garden grove blvd, garden grove, ca 92843, usa","Geocoded"
328,"Gay & Lesbian Service Center","Info Lines & Services","12832 Garden Grove Blvd.","Garden Grove","CA","#A 534-0862 noon-10pm Mon-Fri","",NA,1991,NA,"","4/25/2023 9:34pm","12832 Garden Grove Blvd. ,  Garden Grove ,  CA",-117.9086842,33.7741041,"12832 garden grove blvd, garden grove, ca 92843, usa","Geocoded"
332,"Maneuvers","Bars/Clubs","11086 Garden Grove Blvd.","Garden Grove","CA","530-2411 2pm-2am Sun-Thurs, til 3:30am Fri & Sat","(*),(NH),(AH),(LV),(L),(BW)",NA,1991,NA,"","4/25/2023 9:34pm","11086 Garden Grove Blvd. ,  Garden Grove ,  CA",-117.9394866,33.7740251,"11086 garden grove blvd, garden grove, ca 92843, usa","Geocoded"
331,"Fraternity House","Bars/Clubs","8112 Garden Grove Blvd.","Garden Grove","CA","897-3431 9am-2am","(*),(MW),(D),(YC),(S),(E)",NA,1991,NA,"","4/25/2023 9:34pm","8112 Garden Grove Blvd. ,  Garden Grove ,  CA",-117.9906412,33.7735475,"8112 garden grove blvd, garden grove, ca 92844, usa","Geocoded"
334,"A-Z Bookstore","Book Stores or Retail Shops","8192 Garden Grove Blvd.","Garden Grove","CA","534-9349 gay/ lesbian sections, open 24hrs","",NA,1991,NA,"","4/25/2023 9:34pm","8192 Garden Grove Blvd. ,  Garden Grove ,  CA",-117.9891194,33.7735548,"8192 garden grove blvd, garden grove, ca 92844, usa","Geocoded"
336,"Party House","Erotica","8751 Garden Grove Blvd.","Garden Grove","CA","534-9996 7am- 2:30am Mon-Sat, 8am-midnight Sun","",NA,1991,NA,"","4/25/2023 9:34pm","8751 Garden Grove Blvd. ,  Garden Grove ,  CA",-117.9797208,33.7740767,"8751 garden grove blvd, garden grove, ca 92844, usa","Geocoded"
335,"Hip Pocket","Erotica","12686 Garden Grove Blvd.","Garden Grove","CA","638-8595 9am- midnight","",NA,1991,NA,"","4/25/2023 9:34pm","12686 Garden Grove Blvd. ,  Garden Grove ,  CA",-117.9116727,33.7739824,"12686 garden grove blvd, garden grove, ca 92843, usa","Geocoded"
333,"Nick's","Bars/Clubs","8284 Garden Grove Blvd.","Garden Grove","CA","537-1361 noon-2am","(V),(NH),(D),(BW),(S),(E)",NA,1991,NA,"","4/25/2023 9:34pm","8284 Garden Grove Blvd. ,  Garden Grove ,  CA",-117.9880466,33.7734554,"8284 garden grove blvd, garden grove, ca 92844, usa","Geocoded"
343,"Grizzly's El Capitan","Bars/Clubs","13825 S. Hawthorne","Hawthorne","CA","675-3436 4pm-2am Mon-Thurs, noon-2am Fri- Sun","(MW),(NH),(V),(BW)",NA,1991,NA,"","4/25/2023 9:34pm","13825 S. Hawthorne ,  Hawthorne ,  CA",-118.3530205,33.9058655,"13825 hawthorne blvd, hawthorne, ca 90250, usa","Geocoded"
344,"Mama's","Bars/Clubs","22615 Mission Blvd.","Hayward","CA","881-9310 10am- 2am","(*),(MW),(V)",NA,1991,NA,"","4/25/2023 9:34pm","22615 Mission Blvd. ,  Hayward ,  CA",-122.0841915,37.6717519,"22615 mission blvd, hayward, ca 94541, usa","Geocoded"
345,"Spoiled Brat","Bars/Clubs","22648 Mission Blvd.","Hayward","CA","782-2728 10am-2am Sun-Thurs, 24hrs Fri, Sat & holidays","(*),(MW),(YC),(AH),(V)",NA,1991,NA,"","4/25/2023 9:34pm","22648 Mission Blvd. ,  Hayward ,  CA",-122.0830787,37.6717353,"22648 mission blvd, hayward, ca 94541, usa","Geocoded"
346,"Turf Club","Bars/Clubs","22517 Mission Blvd.","Hayward","CA","881-9877 10am-2am Sun-Thurs, til 3am Fri & Sat","(MW),(D),(V),(CW),(E)",NA,1991,NA,"","4/25/2023 9:34pm","22517 Mission Blvd. ,  Hayward ,  CA",-122.0848244,37.672644,"22517 mission blvd, hayward, ca 94541, usa","Geocoded"
347,"Golden Gate Books","Erotica","22553 Main St.","Hayward","CA","886-7777 9am-2am","",NA,1991,NA,"","4/25/2023 9:34pm","22553 Main St. ,  Hayward ,  CA",-122.083345,37.6732238,"22553 main st, hayward, ca 94541, usa","Geocoded"
349,"Fantasy Shoppe","Erotica","544 Pacific Coast Hwy.","Hermosa Beach","CA","374-9027","",NA,1991,NA,"","4/25/2023 9:34pm","544 Pacific Coast Hwy. ,  Hermosa Beach ,  CA",-118.3911764,33.8591709,"544 pacific coast hwy, hermosa beach, ca 90254, usa","Geocoded"
350,"Tender Box","Erotica","809 Pacific Coast Hwy.","Hermosa Beach","CA","318-2882 8am-2am, Sun 11am-midnight","",NA,1991,NA,"","4/25/2023 9:34pm","809 Pacific Coast Hwy. ,  Hermosa Beach ,  CA",-118.3921368,33.8608502,"809 pacific coast hwy, hermosa beach, ca 90254, usa","Geocoded"
353,"Rock & Roll 50-60 Club","Bars/Clubs","7810 Santa Fe Ave.","Huntington Park","CA","hours are seasonal 581-7646","(*),(MW),(L),(LV),(CW),(F),(BW)",NA,1991,NA,"","4/25/2023 9:34pm","7810 Santa Fe Ave. ,  Huntington Park ,  CA",-118.2299879,33.9684701,"7810 santa fe ave, huntington park, ca 90255, usa","Geocoded"
358,"Caper Room","Bars/Clubs","244 S. Market St.","Inglewood","CA","677-0403","(M),(D),(S)",NA,1991,NA,"","4/25/2023 9:34pm","244 S. Market St. ,  Inglewood ,  CA",-118.3516508,33.9608757,"244 s market st, inglewood, ca 90301, usa","Geocoded"
357,"Annex","Bars/Clubs","835 S. La Brea","Inglewood","CA","671-7323 10am-2am","(MW),(NH)",NA,1991,NA,"","4/25/2023 9:34pm","835 S. La Brea ,  Inglewood ,  CA",-118.3528465,33.9533782,"835 s la brea ave, inglewood, ca 90301, usa","Geocoded"
361,"Coast Inn","Accommodations","1401 S. Coast Hwy.","Laguna Beach","CA","494-7588 ocean- side accommodations w ith bar & restaurant","(MX),(MW)",NA,1991,NA,"","4/25/2023 9:34pm","1401 S. Coast Hwy. ,  Laguna Beach ,  CA",-117.7749439,33.5315726,"1401 s coast hwy, laguna beach, ca 92651, usa","Geocoded"
359,"AA Gay/Lesbian","Info Lines & Services","31872 Coast Hwy.","Laguna Beach","CA","(South Coast Medi­cal Hospital) 499-1311 (hospital #) call for info on numerous meetings","",NA,1991,NA,"","4/25/2023 9:34pm","31872 Coast Hwy. ,  Laguna Beach ,  CA",-117.7419417,33.5002569,"31872 coast hwy, laguna beach, ca 92651, usa","Geocoded"
362,"Laguna Brisas Spa & Hotel","Accommodations","1600 S. Coast Hwy.","Laguna Beach","CA","(800) 624-4442 complimentary breakfast","(MX),(MW)",NA,1991,NA,"","4/25/2023 9:34pm","1600 S. Coast Hwy. ,  Laguna Beach ,  CA",-117.7722451,33.5298301,"1600 s coast hwy, laguna beach, ca 92651, usa","Geocoded"
363,"Boom Boom Room","Bars/Clubs","1401 S. Coast Hwy.","Laguna Beach","CA","(at the Coast Inn) 11am-2am, C & W Mon","(*),(MW),(D),(YC)",NA,1991,NA,"","4/25/2023 9:34pm","1401 S. Coast Hwy. ,  Laguna Beach ,  CA",-117.7749439,33.5315726,"1401 s coast hwy, laguna beach, ca 92651, usa","Geocoded"
365,"Main Street","Bars/Clubs","1460 S. Coast Hwy.","Laguna Beach","CA","494-0056 noon-2am","(M),(E)",NA,1991,NA,"","4/25/2023 9:34pm","1460 S. Coast Hwy. ,  Laguna Beach ,  CA",-117.7741919,33.5315574,"1460 s coast hwy, laguna beach, ca 92651, usa","Geocoded"
364,"Little Shrimp","Bars/Clubs","1305 S. Coast Hwy.","Laguna Beach","CA","494-4111 patio, seasonal hours","(*),(MW),(E)",NA,1991,NA,"","4/25/2023 9:34pm","1305 S. Coast Hwy. ,  Laguna Beach ,  CA",-117.7757665,33.5321961,"1305 s coast hwy, laguna beach, ca 92651, usa","Geocoded"
367,"Tap Room","Bars/Clubs","1401 S. Coast Hwy.","Laguna Beach","CA","(at the Coast Inn)1lam-2am","(*),(MW),(V)",NA,1991,NA,"","4/25/2023 9:34pm","1401 S. Coast Hwy. ,  Laguna Beach ,  CA",-117.7749439,33.5315726,"1401 s coast hwy, laguna beach, ca 92651, usa","Geocoded"
368,"Chuck & Matt's Deli","Restaurants & Cafes","907 S. Coast Hwy.","Laguna Beach","CA","494-5488","(MX),(MW),(BW)",NA,1991,NA,"","4/25/2023 9:34pm","907 S. Coast Hwy. ,  Laguna Beach ,  CA",-117.7784588,33.5356858,"907 s coast hwy, laguna beach, ca 92651, usa","Geocoded"
369,"Cottage","Restaurants & Cafes","308 N. Coast Hwy.","Laguna Beach","CA","494-3023 nouvelle cuisine, 7am-10pm","(*),(MX),(MW)",NA,1991,NA,"","4/25/2023 9:34pm","308 N. Coast Hwy. ,  Laguna Beach ,  CA",-117.7883713,33.5441887,"308 n coast hwy, laguna beach, ca 92651, usa","Geocoded"
370,"Dizz's As Is","Restaurants & Cafes","2794 S. Coast Hwy.","Laguna Beach","CA","494-5250 closed Mon","(MX)",NA,1991,NA,"","4/25/2023 9:34pm","2794 S. Coast Hwy. ,  Laguna Beach ,  CA",-117.7622592,33.5216253,"2794 s coast hwy, laguna beach, ca 92651, usa","Geocoded"
372,"Ron's in Laguna","Restaurants & Cafes","1464 S. Coast Hwy.","Laguna Beach","CA","497-4871 Wed-Sun 6pm-2am, champagne brunch Sun 11am-3pm, cocktails","(MW),(MX),(E)",NA,1991,NA,"","4/25/2023 9:34pm","1464 S. Coast Hwy. ,  Laguna Beach ,  CA",-117.7740316,33.531455,"1464 s coast hwy, laguna beach, ca 92651, usa","Geocoded"
375,"Festive Tours","Travel Agency or Tour Operators","1220 N. Coast Hwy.","Laguna Beach","CA","494-9966","(IGTA)",NA,1991,NA,"","4/25/2023 9:34pm","1220 N. Coast Hwy. ,  Laguna Beach ,  CA",-117.7995728,33.5484296,"1220 n coast hwy, laguna beach, ca 92651, usa","Geocoded"
373,"A Different Drummer","Book Stores or Retail Shops","1027 N. Coast Hwy.","Laguna Beach","CA","Suite A 497- 6699 general bookstore with gay/lesbian titles, clsd Mon","",NA,1991,NA,"","4/25/2023 9:34pm","1027 N. Coast Hwy. ,  Laguna Beach ,  CA",-117.7980233,33.5473467,"1027 n coast hwy, laguna beach, ca 92651, usa","Geocoded"
374,"Fahrenheit 451 Books","Book Stores or Retail Shops","509 S. Coast Hwy.","Laguna Beach","CA","494-5151 gay/lesbian section, 10am-10pm","",NA,1991,NA,"","4/25/2023 9:34pm","509 S. Coast Hwy. ,  Laguna Beach ,  CA",-117.7826429,33.5405842,"509 s coast hwy, laguna beach, ca 92651, usa","Geocoded"
377,"Video Horizons","Erotica","31674 Coast Hwy.","Laguna Beach","CA","499-4519","",NA,1991,NA,"","4/25/2023 9:34pm","31674 Coast Hwy. ,  Laguna Beach ,  CA",-117.7442976,33.5026756,"31674 coast hwy, laguna beach, ca 92651, usa","Geocoded"
376,"Southern Access Travel","Travel Agency or Tour Operators","31655 Pacific Coast Hwy.","Laguna Beach","CA","Suite 1C 499-4446","(IGTA)",NA,1991,NA,"","4/25/2023 9:34pm","31655 Pacific Coast Hwy. ,  Laguna Beach ,  CA",-117.7447828,33.5025861,"31655 coast hwy, laguna beach, ca 92651, usa","Geocoded"
382,"El Nido","Accommodations","2215 Hwy. 50","Lake Tahoe","CA","hot tub, movie rental, year round 541-2711","(MX),(MW)",NA,1991,NA,"","4/25/2023 9:34pm","2215 Hwy. 50 ,  Lake Tahoe ,  CA",-119.9109859,39.0952053,"2215 hwy 50, glenbrook, nv 89413, usa","Geocoded"
384,"Ridgewood Inn","Accommodations","1341 Emerald Bay Rd.","Lake Tahoe","CA","541-8589 hot tub","(MX),(MW)",NA,1991,NA,"","4/25/2023 9:34pm","1341 Emerald Bay Rd. ,  Lake Tahoe ,  CA",-119.9974704,38.9027602,"1341 emerald bay rd, south lake tahoe, ca 96150, usa","Geocoded"
386,"Silver Shadows Lodge","Accommodations,Bars/Clubs","1251 Emerald Bay Rd.","Lake Tahoe","CA","541-3575 bar, hot tub","(MX),(MW),(SW)",NA,1991,NA,"","4/25/2023 9:34pm","1251 Emerald Bay Rd. ,  Lake Tahoe ,  CA",-119.9991865,38.9058865,"1251 emerald bay rd, south lake tahoe, ca 96150, usa","Geocoded"
387,"Faces","Bars/Clubs","270 Kingsbury Grade, Stateline, NV,","Lake Tahoe","CA","(702) 588-2333 seasonal hours","(MX),(MW)",NA,1991,NA,"","4/25/2023 9:34pm","270 Kingsbury Grade, Stateline, NV, ,  Lake Tahoe ,  CA",-119.9300144,38.9685873,"270 kingsbury grade rd, stateline, nv 89449, usa","Geocoded"
385,"Sierra Wood Guest house","Travel Agency or Tour Operators,Accommodations","266 Grass Lake Rd.","Lake Tahoe","CA","(Tahoe Paradise)577-6073 year round","(MW),(IGTA)",NA,1991,NA,"","4/25/2023 9:34pm","266 Grass Lake Rd. ,  Lake Tahoe ,  CA",-120.0158338,38.8082954,"grass lake rd, california 96150, usa","Geocoded"
388,"Driftwood Cafe","Restaurants & Cafes","4115 Laurel Ave.","Lake Tahoe","CA","544-6545 8am-3pm (7am-3pm winter)","(MX),(MW)",NA,1991,NA,"","4/25/2023 9:34pm","4115 Laurel Ave. ,  Lake Tahoe ,  CA",-119.94389,38.958863,"4115 laurel ave, south lake tahoe, ca 96150, usa","Geocoded"
390,"Back Door","Bars/Clubs","1255 West Ave.","Lancaster","CA","""I"" 945-2566 12:30pm-2am Tues-Sun, Mon 5pm-2am","(MW),(D),(V),(S),(E)",NA,1991,NA,"","4/25/2023 9:34pm","1255 West Ave. ,  Lancaster ,  CA",-118.1481016,34.703947,"lancaster, ca, usa","Geocoded"
4625,"Tally Ho","Bars/Clubs","201 W. Orange","Lancaster","PA","299-0661 6pm-2am Mon-Sat, 8pm-2am Sun","(*),(MW),(D),(F),(YC)",NA,1991,NA,"","4/25/2023 9:34pm","201 W. Orange ,  Lancaster ,  PA",-76.3089318,40.0393767,"201 w orange st, lancaster, pa 17603, usa","Geocoded"
4627,"MCC Vision of Hope","Religious Organizations","610 2nd St.","Lancaster","PA","392-2729 7pm Sun","",NA,1991,NA,"","4/25/2023 9:34pm","610 2nd St. ,  Lancaster ,  PA",-76.3188447,40.0352599,"610 2nd st, lancaster, pa 17603, usa","Geocoded"
4628,"Den of Pleasure","Erotica","49 Prince St.","Lancaster","PA","299-1779","",NA,1991,NA,"","4/25/2023 9:34pm","49 Prince St. ,  Lancaster ,  PA",NA,NA,"NA","Geocoded"
4629,"Erotic Forum","Erotica","227 N. Prince","Lancaster","PA","(in mall) 393-9772","",NA,1991,NA,"","4/25/2023 9:34pm","227 N. Prince ,  Lancaster ,  PA",-76.3083211,40.0418402,"227 n prince st, lancaster, pa 17603, usa","Geocoded"
392,"AA Gay/Lesbian (Atlantic Alano Club)","Info Lines & Services","1936 E. 4th St.","Long Beach","CA","437-2225 12:30, 6pm, 8pm","",NA,1991,NA,"","4/25/2023 9:34pm","1936 E. 4th St. ,  Long Beach ,  CA",-118.1679957,33.7715092,"1936 e 4th st, long beach, ca 90802, usa","Geocoded"
393,"Couples Long Beach","Info Lines & Services","4102 E. 7th St.","Long Beach","CA","social/ educational outreach to alternative lifestyle couples","",NA,1991,NA,"","4/25/2023 9:34pm","4102 E. 7th St. ,  Long Beach ,  CA",-118.144626,33.7751416,"4102 e 7th st, long beach, ca 90804, usa","Geocoded"
394,"Lesbian and Gay Center/Switchboard","Info Lines & Services","2017 E. 4th St.","Long Beach","CA","434-4455 Mon-Fri 10am-10pm, Sat 9am-10pm, Sun noon-6pm","",NA,1991,NA,"","4/25/2023 9:34pm","2017 E. 4th St. ,  Long Beach ,  CA",-118.1671687,33.7719543,"2017 e 4th st, long beach, ca 90814, usa","Geocoded"
399,"Details","Bars/Clubs","740 E. Broadway","Long Beach","CA","437-7705 Tu, Thurs & Fri men's nights, piano Fri, Sat, brunch 10- 3 Sun","(*),(MW),(D),(F),(E),(YC)",NA,1991,NA,"","4/25/2023 9:34pm","740 E. Broadway ,  Long Beach ,  CA",-118.182685,33.7690578,"740 e broadway, long beach, ca 90802, usa","Geocoded"
397,"Broadway","Bars/Clubs","1100 E. Broadway","Long Beach","CA","432-3646 week­ end piano entertainment","(NH),(E)",NA,1991,NA,"","4/25/2023 9:34pm","1100 E. Broadway ,  Long Beach ,  CA",-118.178389,33.7684747,"1100 e broadway, long beach, ca 90802, usa","Geocoded"
398,"Club Broadway","Bars/Clubs","3348 E. Broadway","Long Beach","CA","438-7700 Mon-Fri 5pm-2am, Sat & Sun noon-2am","(NH),(V)",NA,1991,NA,"","4/25/2023 9:34pm","3348 E. Broadway ,  Long Beach ,  CA",-118.1526983,33.764294,"3348 e broadway, long beach, ca 90803, usa","Geocoded"
396,"The Brit","Bars/Clubs","1744 E. Broadway","Long Beach","CA","10am-2am, patio 432-9742","(NH)",NA,1991,NA,"","4/25/2023 9:34pm","1744 E. Broadway ,  Long Beach ,  CA",-118.1704366,33.7674307,"1744 e broadway, long beach, ca 90802, usa","Geocoded"
402,"Inspiration","Bars/Clubs","5211 N. Atlantic","Long Beach","CA","428-5545 popular weekend after hours","(MW),(NH),(AH)",NA,1991,NA,"","4/25/2023 9:34pm","5211 N. Atlantic ,  Long Beach ,  CA",-118.1839899,33.8417243,"5211 n atlantic pl, long beach, ca 90807, usa","Geocoded"
401,"Floyd's","Bars/Clubs","2913 E. Anaheim St.","Long Beach","CA","(entrance via Gladys St) 433-9251 Tu&Wed dance lessons (Fri night more women)","(*),(MW),(D),(CW)",NA,1991,NA,"","4/25/2023 9:34pm","2913 E. Anaheim St. ,  Long Beach ,  CA",-118.1573911,33.7828185,"2913 e anaheim st, long beach, ca 90804, usa","Geocoded"
400,"Executive Suite","Bars/Clubs","3428 Pacific Coast Hwy.","Long Beach","CA","597-3884 clsd Tu, men Mon/Thurs (exotic danc­ ers), women other nights","(*),(MW),(D),(S)",NA,1991,NA,"","4/25/2023 9:34pm","3428 Pacific Coast Hwy. ,  Long Beach ,  CA",-118.1516156,33.7895131,"3428 pacific coast hwy, long beach, ca 90804, usa","Geocoded"
403,"Mike's Corral","Bars/Clubs","2020 E. Artesia","Long Beach","CA","422-1928 noon- 2am, patio","(*),(L),(LV)",NA,1991,NA,"","4/25/2023 9:34pm","2020 E. Artesia ,  Long Beach ,  CA",-118.1680599,33.8743129,"2020 e artesia blvd, long beach, ca 90805, usa","Geocoded"
405,"Ripples","Bars/Clubs","5101 E. Ocean","Long Beach","CA","'-See ad in National Color Section- 433-0357 jazz Sun, comedy Mon (ladies night Thurs), opens at noon, patio","(*),(D),(E),(F),(YC),(V)",NA,1991,NA,"","4/25/2023 9:34pm","5101 E. Ocean ,  Long Beach ,  CA",-118.1384022,33.7564494,"5101 e ocean blvd, long beach, ca 90803, usa","Geocoded"
404,"Mineshaft","Bars/Clubs","1720 E. Broadway","Long Beach","CA","436-2433 10am- 2am, cruisy","(*),(LV)",NA,1991,NA,"","4/25/2023 9:34pm","1720 E. Broadway ,  Long Beach ,  CA",-118.170985,33.767536,"1720 e broadway, long beach, ca 90802, usa","Geocoded"
409,"Whistle Stop","Bars/Clubs","5873 Atlantic","Long Beach","CA","422-7927 noon-2am Mon-Fri, from 6am Sat & Sun","(NH)",NA,1991,NA,"","4/25/2023 9:34pm","5873 Atlantic ,  Long Beach ,  CA",-118.1851446,33.8613648,"5873 atlantic ave, long beach, ca 90805, usa","Geocoded"
406,"Silver Fox","Bars/Clubs,Cruising Areas","411 Redondo","Long Beach","CA","439-6343 cruisy, cocktail bar, popular happy hour","(*),(V)",NA,1991,NA,"","4/25/2023 9:34pm","411 Redondo ,  Long Beach ,  CA",-118.1526109,33.7720007,"411 redondo ave, long beach, ca 90814, usa","Geocoded"
407,"Stallion","Bars/Clubs","5823 Atlantic Ave.","Long Beach","CA","422-5997 11am- 2am, Fri & Sat later","(LV),(L),(BW),(AH)",NA,1991,NA,"","4/25/2023 9:34pm","5823 Atlantic Ave. ,  Long Beach ,  CA",-118.18531,33.860542,"5823 atlantic ave, long beach, ca 90805, usa","Geocoded"
408,"Sweet Water","Cruising Areas,Bars/Clubs","1201 Broadway","Long Beach","CA","432-7044 popular days, cruisy, 6am-2am","(NH)",NA,1991,NA,"","4/25/2023 9:34pm","1201 Broadway ,  Long Beach ,  CA",-118.1766066,33.7686348,"1201 e broadway, long beach, ca 90802, usa","Geocoded"
412,"Egg Heaven","Restaurants & Cafes","4358 E. 4th St.","Long Beach","CA","7am- 2:30pm 433-9277","(MX),(MW)",NA,1991,NA,"","4/25/2023 9:34pm","4358 E. 4th St. ,  Long Beach ,  CA",-118.1418525,33.7715483,"4358 e 4th st, long beach, ca 90814, usa","Geocoded"
410,"Birds of Paradise","Restaurants & Cafes","1800 E. Broadway","Long Beach","CA","Sun brunch, Tu-Fri 9am-lam, from 8am Sat & Sun, cocktails 590-8773","(MX),(MW),(E)",NA,1991,NA,"","4/25/2023 9:34pm","1800 E. Broadway ,  Long Beach ,  CA",-118.1695225,33.7673356,"1800 e broadway, long beach, ca 90802, usa","Geocoded"
413,"Papa Bear's Cafe","Restaurants & Cafes","1538 E. Broadway","Long Beach","CA","435-7364 7am-10pm 434-2220 large gay section, 10am-10pm Mon-Sat, til 6pm Sun","(MX),(MW)",NA,1991,NA,"","4/25/2023 9:34pm","1538 E. Broadway ,  Long Beach ,  CA",-118.1723911,33.7676987,"1538 e broadway, long beach, ca 90802, usa","Geocoded"
415,"Dodd's Bookstore","Book Stores or Retail Shops","4818 E. 2nd St.","Long Beach","CA","438-9948 strong gay section; 10-10 Mon-Sat, noon-6 Sun","",NA,1991,NA,"","4/25/2023 9:34pm","4818 E. 2nd St. ,  Long Beach ,  CA",-118.1376665,33.761255,"4818 2nd st, long beach, ca 90803, usa","Geocoded"
414,"Chelsea Books","Book Stores or Retail Shops","2501 E. Broadway","Long Beach","CA","","",NA,1991,NA,"","4/25/2023 9:34pm","2501 E. Broadway ,  Long Beach ,  CA",-118.1626029,33.766495,"2501 e broadway, long beach, ca 90803, usa","Geocoded"
419,"Christ Chapel","Religious Organizations","3935 E. 10th St.","Long Beach","CA","438-5303 non-denomina- tional, 10am Sun, 7pm W ed","",NA,1991,NA,"","4/25/2023 9:34pm","3935 E. 10th St. ,  Long Beach ,  CA",-118.1461201,33.7791885,"3935 e 10th st, long beach, ca 90804, usa","Geocoded"
417,"Royal Tours & Travel","Travel Agency or Tour Operators","191 Park Ave.","Long Beach","CA","438-1181/(800)828- 6759","(IGTA)",NA,1991,NA,"","4/25/2023 9:34pm","191 Park Ave. ,  Long Beach ,  CA",-118.1382466,33.7613732,"191 park ave, long beach, ca 90803, usa","Geocoded"
418,"Touch of Travel","Travel Agency or Tour Operators","3918 Atlantic Ave.","Long Beach","CA","427-2144","(IGTA)",NA,1991,NA,"","4/25/2023 9:34pm","3918 Atlantic Ave. ,  Long Beach ,  CA",-118.1846677,33.8294676,"3918 atlantic ave, long beach, ca 90807, usa","Geocoded"
416,"Hot Stuff","Book Stores or Retail Shops","2121 E. Broadway","Long Beach","CA","433-0692 cards, gifts, toys, etc., llam-7pm Mon-Fri, til 5 weekends","",NA,1991,NA,"","4/25/2023 9:34pm","2121 E. Broadway ,  Long Beach ,  CA",-118.1653176,33.7670505,"2121 e broadway, long beach, ca 90803, usa","Geocoded"
422,"Universal Mind Science Church","Religious Organizations","3212 East 8th St.","Long Beach","CA","434- 3453 new age Christianfellowship,Sun 11:30,Thur 8pm","",NA,1991,NA,"","4/25/2023 9:34pm","3212 East 8th St. ,  Long Beach ,  CA",-118.1543021,33.7770047,"3212 e 8th st, long beach, ca 90804, usa","Geocoded"
421,"MCC","Religious Organizations","1231 Locust Ave.","Long Beach","CA","432-3641 Sun 10am, 7pm, Wed 7pm","",NA,1991,NA,"","4/25/2023 9:34pm","1231 Locust Ave. ,  Long Beach ,  CA",-118.191788,33.7818709,"1231 locust ave, long beach, ca 90813, usa","Geocoded"
423,"The Beacon","Publications","4102 E. 7th St. #621, 90804,","Long Beach","CA","434-7129 monthly newspaper","",NA,1991,NA,"","4/25/2023 9:34pm","4102 E. 7th St. #621, 90804, ,  Long Beach ,  CA",-118.144626,33.7751416,"4102 e 7th st #621, long beach, ca 90804, usa","Geocoded"
424,"Directory Long Beach","Publications","4102 E. 7th St. #621,90804","Long Beach","CA","434- 7129 published Jan, May, Sept","",NA,1991,NA,"","4/25/2023 9:34pm","4102 E. 7th St. #621,90804 ,  Long Beach ,  CA",-118.144626,33.7751416,"4102 e 7th st #621, long beach, ca 90804, usa","Geocoded"
431,"Bi-Social Center","Info Lines & Services","7136 Matilija Ave., Van Nuys","Los Angeles","CA","(213)873- 3700/(818)989-3700 24hr hotline (bi, TV, TS, gay/ lesbian), call for meetings","",NA,1991,NA,"","4/25/2023 9:34pm","7136 Matilija Ave., Van Nuys ,  Los Angeles ,  CA",-118.4333882,34.2005458,"7136 matilija ave, van nuys, ca 91405, usa","Geocoded"
430,"Alcoholics Together Ctr (Gay/lesb AA)","Info Lines & Services","1773 Griffith ‘ Park Blvd.","Los Angeles","CA","(213)663-8882 open to groups on 12-step system, call for mtg times","",NA,1991,NA,"","4/25/2023 9:34pm","1773 Griffith ‘ Park Blvd. ,  Los Angeles ,  CA",-118.2766231,34.0953982,"1773 griffith park blvd, los angeles, ca 90026, usa","Geocoded"
434,"International Gay & Lesbian Archives","Info Lines & Services","626 N. Robertson","Los Angeles","CA","(213)662-9444/854-0271 Mon & Thurs 3pm- 7pm, Sat ll am-2pm","",NA,1991,NA,"","4/25/2023 9:34pm","626 N. Robertson ,  Los Angeles ,  CA",-118.3853292,34.081694,"626 n robertson blvd, west hollywood, ca 90069, usa","Geocoded"
439,"Lutherans Concerned LA","Religious Organizations","11031 Camarillo St.","Los Angeles","CA","(St. Mathew's Lutheran Church) (213)665-5252 worship 5pm 2nd Sun, call about meetings","",NA,1991,NA,"","4/25/2023 9:34pm","11031 Camarillo St. ,  Los Angeles ,  CA",-118.3717155,34.1580832,"11031 camarillo st, north hollywood, ca 91602, usa","Geocoded"
437,"LA Jax","Men's Services","7985 SantaMonica Blvd","Los Angeles","CA","Box 109-347,90046write for info","",NA,1991,NA,"","4/25/2023 9:34pm","7985 SantaMonica Blvd ,  Los Angeles ,  CA",-118.3641869,34.0910342,"7985 santa monica blvd, west hollywood, ca 90046, usa","Geocoded"
438,"Beth Chayim Chadashim","Religious Organizations","6000 W. Pico Blvd.","Los Angeles","CA","(213)931-7023","",NA,1991,NA,"","4/25/2023 9:34pm","6000 W. Pico Blvd. ,  Los Angeles ,  CA",-118.3712863,34.0521249,"6000 w pico blvd, los angeles, ca 90035, usa","Geocoded"
443,"Community Yellow Pages: Survival Guide to Gay/ - Lesbian Southern Calif.","Publications","1604 Vista Del Mar, Los Angeles 90028","Los Angeles","CA","annual (213)469-4454","",NA,1991,NA,"","4/25/2023 9:34pm","1604 Vista Del Mar, Los Angeles 90028 ,  Los Angeles ,  CA",-118.3242757,34.1000962,"1604 vista del mar ave, los angeles, ca 90028, usa","Geocoded"
442,"West Hollywood Presbyterian Church","Religious Organizations","7350 Sunset Blvd.","Los Angeles","CA","(at Martel) 874-6646 11am Sun","",NA,1991,NA,"","4/25/2023 9:34pm","7350 Sunset Blvd. ,  Los Angeles ,  CA",-118.3509189,34.0978156,"7350 sunset blvd, los angeles, ca 90046, usa","Geocoded"
446,"Edge","Publications","6434 Santa Monica Blvd., Hollywood","Los Angeles","CA","(213)962- 6994","",NA,1991,NA,"","4/25/2023 9:34pm","6434 Santa Monica Blvd., Hollywood ,  Los Angeles ,  CA",-118.3300613,34.0906171,"6434 santa monica blvd, los angeles, ca 90038, usa","Geocoded"
445,"Directory Orange County","Publications","4102 E. 7th St. #621","Los Angeles","CA","434-7129 semi-annual","",NA,1991,NA,"","4/25/2023 9:34pm","4102 E. 7th St. #621 ,  Los Angeles ,  CA",-118.144626,33.7751416,"4102 e 7th st #621, long beach, ca 90804, usa","Geocoded"
444,"Compass","Publications","P.O. Box 1586, Hollywood 90078 (213)874-4838","Los Angeles","CA","","",NA,1991,NA,"","4/25/2023 9:34pm","P.O. Box 1586, Hollywood 90078 (213)874-4838 ,  Los Angeles ,  CA",NA,NA,"NA","Geocoded"
448,"Leather Journal","Publications","7985 Santa Monica Blvd.","Los Angeles","CA","#109-368 (213)469-5922 every two months","",NA,1991,NA,"","4/25/2023 9:34pm","7985 Santa Monica Blvd. ,  Los Angeles ,  CA",-118.3641869,34.0910342,"7985 santa monica blvd, west hollywood, ca 90046, usa","Geocoded"
447,"Frontiers","Publications","7985 Santa Monica Blvd. #109","Los Angeles","CA","(213)877-1045","",NA,1991,NA,"","4/25/2023 9:34pm","7985 Santa Monica Blvd. #109 ,  Los Angeles ,  CA",-118.3641986,34.0910945,"7985 santa monica blvd unit 109, west hollywood, ca 90046, usa","Geocoded"
449,"Nite Life","Publications","7512 Santa Monica Blvd.","Los Angeles","CA","(213)656-2960","",NA,1991,NA,"","4/25/2023 9:34pm","7512 Santa Monica Blvd. ,  Los Angeles ,  CA",-118.3538195,34.0905847,"7512 santa monica blvd, west hollywood, ca 90046, usa","Geocoded"
451,"Gay/Lesbian Community Service Center","Info Lines & Services","1213 N. Highland Ave.","Los Angeles","CA","464-7400 9am-10pm","",NA,1991,NA,"","4/25/2023 9:34pm","1213 N. Highland Ave. ,  Los Angeles ,  CA",-118.3390488,34.0928799,"1213 n highland ave, los angeles, ca 90038, usa","Geocoded"
454,"Selby Hotel","Accommodations","1740 N. Hudson","Los Angeles","CA","469-5320","(*)",NA,1991,NA,"","4/25/2023 9:34pm","1740 N. Hudson ,  Los Angeles ,  CA",-118.3320609,34.1026962,"1740 n hudson ave, los angeles, ca 90028, usa","Geocoded"
453,"Coral Sands Hotel","Accommodations","1730 N. Western Ave.","Los Angeles","CA","467-5141 jacuzzi, weights, cont'l bkfst","(*),(SW),(N)",NA,1991,NA,"","4/25/2023 9:34pm","1730 N. Western Ave. ,  Los Angeles ,  CA",-118.3086773,34.1028707,"1730 n western ave, los angeles, ca 90027, usa","Geocoded"
455,"Vista Apts.","Accommodations","1611 Vista Del Mar","Los Angeles","CA","460-6000 residence hotel","(MW)",NA,1991,NA,"","4/25/2023 9:34pm","1611 Vista Del Mar ,  Los Angeles ,  CA",-118.324619,34.100209,"1611 vista del mar ave, los angeles, ca 90028, usa","Geocoded"
457,"Circus","Bars/Clubs","6655 Santa Monica Blvd.","Los Angeles","CA","462-12921 9pm-2am Tues & Fri","(*),(MW),(D),(V)",NA,1991,NA,"","4/25/2023 9:34pm","6655 Santa Monica Blvd. ,  Los Angeles ,  CA",-118.335191,34.0915349,"6655 santa monica blvd, los angeles, ca 90038, usa","Geocoded"
456,"Blacklite","Bars/Clubs","1159 N. Western","Los Angeles","CA","6am-2am","(MW),(NH)",NA,1991,NA,"","4/25/2023 9:34pm","1159 N. Western ,  Los Angeles ,  CA",-118.3094774,34.0921162,"1159 n western ave, los angeles, ca 90029, usa","Geocoded"
458,"Gaslight","Bars/Clubs","1608 Cosmo St.","Los Angeles","CA","466-8126 10am-2am","(*)",NA,1991,NA,"","4/25/2023 9:34pm","1608 Cosmo St. ,  Los Angeles ,  CA",-118.3287021,34.1000359,"1608 cosmo st, los angeles, ca 90028, usa","Geocoded"
459,"Griffs","Bars/Clubs","4216 Melrose","Los Angeles","CA","660-0889 2pm-2am","(LV),(L),(F)",NA,1991,NA,"","4/25/2023 9:34pm","4216 Melrose ,  Los Angeles ,  CA",-118.2924245,34.083452,"4216 melrose ave, los angeles, ca 90029, usa","Geocoded"
460,"Lemon Twist","Bars/Clubs","6423 Yucca","Los Angeles","CA","463-9661 6am-2am","(NH),(OC)",NA,1991,NA,"","4/25/2023 9:34pm","6423 Yucca ,  Los Angeles ,  CA",-118.3306497,34.1041029,"6423 yucca st, los angeles, ca 90028, usa","Geocoded"
463,"Probe","Bars/Clubs","836 N. Highland Ave.","Los Angeles","CA","461-8301 gay non-stop 9pm Sat through noon Sun only","(*),(D),(AH)",NA,1991,NA,"","4/25/2023 9:34pm","836 N. Highland Ave. ,  Los Angeles ,  CA",-118.3382046,34.0861419,"836 n highland ave, los angeles, ca 90038, usa","Geocoded"
462,"My House","Bars/Clubs","1626 Cahuenga","Los Angeles","CA","464-9709 6am-2am","(*),(H),(OC)",NA,1991,NA,"","4/25/2023 9:34pm","1626 Cahuenga ,  Los Angeles ,  CA",-118.3293165,34.1007404,"1626 cahuenga blvd, los angeles, ca 90028, usa","Geocoded"
461,"Mugi","Bars/Clubs","5221 Hollywood Blvd.","Los Angeles","CA","462-2039 5pm-2am, Asian clientele","",NA,1991,NA,"","4/25/2023 9:34pm","5221 Hollywood Blvd. ,  Los Angeles ,  CA",-118.3042997,34.1019041,"5221 hollywood blvd, los angeles, ca 90027, usa","Geocoded"
464,"Spotlight","Bars/Clubs","1601 N. Cahuenga","Los Angeles","CA","467-2425 6am-2am","",NA,1991,NA,"","4/25/2023 9:34pm","1601 N. Cahuenga ,  Los Angeles ,  CA",-118.3297973,34.0999574,"1601 n cahuenga blvd, los angeles, ca 90028, usa","Geocoded"
467,"Mugi","Restaurants & Cafes","5221 Hollywood Blvd.","Los Angeles","CA","462-2039 Japa­nese cuisine","(MW),(MX)",NA,1991,NA,"","4/25/2023 9:34pm","5221 Hollywood Blvd. ,  Los Angeles ,  CA",-118.3042997,34.1019041,"5221 hollywood blvd, los angeles, ca 90027, usa","Geocoded"
465,"Study","Bars/Clubs","1723 Western","Los Angeles","CA","464-9551 10am-2am","(*),(NH)",NA,1991,NA,"","4/25/2023 9:34pm","1723 Western ,  Los Angeles ,  CA",-118.442596,34.0412085,"west los angeles, los angeles, ca, usa","Geocoded"
466,"La Poubelle","Restaurants & Cafes","5909 Franklin Ave.","Los Angeles","CA","465-0807 5:30pm-l 1:15pm Mon-Thurs, til midnight Sat & Sun","(MW),(MX)",NA,1991,NA,"","4/25/2023 9:34pm","5909 Franklin Ave. ,  Los Angeles ,  CA",-118.3184157,34.1053846,"5909 franklin ave, los angeles, ca 90028, usa","Geocoded"
469,"Hollywood Spa","Gym/Health Clubs","1650 N. Ivar","Los Angeles","CA","463-5169 24hrs, jacuzzi, weights, movies","(*),(PC)",NA,1991,NA,"","4/25/2023 9:34pm","1650 N. Ivar ,  Los Angeles ,  CA",-118.3278957,34.1012006,"1650 ivar ave, los angeles, ca 90028, usa","Geocoded"
470,"M.B. Club","Gym/Health Clubs","4550 Melrose Ave.","Los Angeles","CA","669-9899 8pm-4am Mon-Fri, 4pm-5am Sat & Sun","(PC)",NA,1991,NA,"","4/25/2023 9:34pm","4550 Melrose Ave. ,  Los Angeles ,  CA",-118.2997041,34.0834053,"4550 melrose ave, los angeles, ca 90029, usa","Geocoded"
468,"Flex Complex","Gym/Health Clubs","4424 Melrose Ave.","Los Angeles","CA","663-5858 24hrs, gym, jacuzzi","(PC),(SW)",NA,1991,NA,"","4/25/2023 9:34pm","4424 Melrose Ave. ,  Los Angeles ,  CA",-118.2972821,34.083405,"4424 melrose ave, los angeles, ca 90029, usa","Geocoded"
471,"Meat Rack","Gym/Health Clubs","4621 Santa Monica Blvd.","Los Angeles","CA","669-9811 rooms only, 8pm-4am Sun-Thurs, til 6am Fri & Sat","(PC)",NA,1991,NA,"","4/25/2023 9:34pm","4621 Santa Monica Blvd. ,  Los Angeles ,  CA",-118.2900495,34.0911254,"4621 santa monica blvd, los angeles, ca 90029, usa","Geocoded"
475,"Highland Books","Erotica","6775 Santa Monica Blvd.","Los Angeles","CA","463-0295","",NA,1991,NA,"","4/25/2023 9:34pm","6775 Santa Monica Blvd. ,  Los Angeles ,  CA",-118.3384097,34.0911981,"6775 santa monica blvd, los angeles, ca 90038, usa","Geocoded"
472,"Hong Kong & Orient Tours","Travel Agency or Tour Operators","1543 W. Olympic,","Los Angeles","CA","#542, 383-9246","(IGTA)",NA,1991,NA,"","4/25/2023 9:34pm","1543 W. Olympic, ,  Los Angeles ,  CA",-118.2733736,34.0491458,"1543 w olympic blvd, los angeles, ca 90015, usa","Geocoded"
473,"Jacqleen's Travel Service","Travel Agency or Tour Operators","2436 1/2 N. Beachwood Dr.","Los Angeles","CA","463-7404","(IGTA)",NA,1991,NA,"","4/25/2023 9:34pm","2436 1/2 N. Beachwood Dr. ,  Los Angeles ,  CA",-118.3213773,34.1141214,"2436 1/2 n beachwood dr, los angeles, ca 90068, usa","Geocoded"
477,"Stan's Video","Erotica","1117 N. Western Ave.","Los Angeles","CA","467-1640 24 hrs.","",NA,1991,NA,"","4/25/2023 9:34pm","1117 N. Western Ave. ,  Los Angeles ,  CA",-118.3093534,34.0912989,"1117 n western ave, los angeles, ca 90038, usa","Geocoded"
476,"Leather by Leather","Erotica","6114 Santa Monica Blvd.","Los Angeles","CA","461-1144 leather goods, lla m -7 p m Tues-Fri, til 5pm Sat & Sun","",NA,1991,NA,"","4/25/2023 9:34pm","6114 Santa Monica Blvd. ,  Los Angeles ,  CA",-118.3229307,34.090544,"6114 santa monica blvd, los angeles, ca 90038, usa","Geocoded"
482,"Ramada West Hollywood","Accommodations","8585 Santa Monica Blvd.","Los Angeles","CA","652-5720","(MX),(MW),(SW)",NA,1991,NA,"","4/25/2023 9:34pm","8585 Santa Monica Blvd. ,  Los Angeles ,  CA",-118.3788052,34.0886972,"8585 santa monica blvd, west hollywood, ca 90069, usa","Geocoded"
483,"Saharan Motel","Accommodations","7212 Sunset Blvd.","Los Angeles","CA","874-6700","(MW),(MX)",NA,1991,NA,"","4/25/2023 9:34pm","7212 Sunset Blvd. ,  Los Angeles ,  CA",-118.3474342,34.0975935,"7212 sunset blvd, los angeles, ca 90046, usa","Geocoded"
486,"Gold Coast","Bars/Clubs","8228 Santa Monica Blvd.","Los Angeles","CA","656-4879 11am -2am Mon-Fri, 10am-2am Sat & Sun","(*)",NA,1991,NA,"","4/25/2023 9:34pm","8228 Santa Monica Blvd. ,  Los Angeles ,  CA",-118.3679036,34.0905583,"8228 santa monica blvd, west hollywood, ca 90046, usa","Geocoded"
485,"Eagle","Bars/Clubs","7864 Santa Monica Blvd.","Los Angeles","CA","654-3252 11am-2am","(*),(LV)",NA,1991,NA,"","4/25/2023 9:34pm","7864 Santa Monica Blvd. ,  Los Angeles ,  CA",-118.3609603,34.0906618,"7864 santa monica blvd, west hollywood, ca 90046, usa","Geocoded"
484,"Cheers","Bars/Clubs","8279 Santa Monica Blvd.","Los Angeles","CA","650-3301 patio, 1pm-2am (Wed women's night)","(YC),(V)",NA,1991,NA,"","4/25/2023 9:34pm","8279 Santa Monica Blvd. ,  Los Angeles ,  CA",-118.3697753,34.0909287,"8279 santa monica blvd, west hollywood, ca 90046, usa","Geocoded"
488,"Hunter's","Bars/Clubs","7511 Santa Monica Blvd.","Los Angeles","CA","850-9428 9am-2am Mon-Fri, 6am-2am Sat & Sun","(NH),(H)",NA,1991,NA,"","4/25/2023 9:34pm","7511 Santa Monica Blvd. ,  Los Angeles ,  CA",-118.3532488,34.0910318,"7511 santa monica blvd, west hollywood, ca 90046, usa","Geocoded"
489,"La Plaza","Bars/Clubs","739 N. La Brea Ave.","Los Angeles","CA","939-0703 Latino","(*),(D),(S)",NA,1991,NA,"","4/25/2023 9:34pm","739 N. La Brea Ave. ,  Los Angeles ,  CA",-118.3443457,34.0845845,"739 n la brea ave, los angeles, ca 90038, usa","Geocoded"
487,"Hollywood Boys' Club","Bars/Clubs","652 La Peer","Los Angeles","CA","(at Studio One) 659-1428 9pm-2am Fri","(D),(YC)",NA,1991,NA,"","4/25/2023 9:34pm","652 La Peer ,  Los Angeles ,  CA",-118.3863389,34.0825529,"652 n la peer dr, west hollywood, ca 90069, usa","Geocoded"
490,"Mickey's","Bars/Clubs","8857 SantaMonica Blvd.","Los Angeles","CA","657-1176 11am-2am","(*),(D),(S),(F),(YC)",NA,1991,NA,"","4/25/2023 9:34pm","8857 SantaMonica Blvd. ,  Los Angeles ,  CA",-118.3838643,34.0855068,"8857 santa monica blvd, west hollywood, ca 90069, usa","Geocoded"
492,"Palette","Bars/Clubs","8290 Santa Monica Blvd.","Los Angeles","CA","654-8094 9pm-2am Fri-Sun","(MX),(MW),(D)",NA,1991,NA,"","4/25/2023 9:34pm","8290 Santa Monica Blvd. ,  Los Angeles ,  CA",-118.3701405,34.0904773,"8290 santa monica blvd, west hollywood, ca 90046, usa","Geocoded"
491,"Mother Lode","Bars/Clubs","8944 Santa Monica Blvd.","Los Angeles","CA","659-9700 noon-2am, Sun beer bust","(*),(V)",NA,1991,NA,"","4/25/2023 9:34pm","8944 Santa Monica Blvd. ,  Los Angeles ,  CA",-118.3851703,34.083816,"8944 santa monica blvd, west hollywood, ca 90069, usa","Geocoded"
493,"Peanuts","Bars/Clubs","7969 Santa Monica Blvd.","Los Angeles","CA","654-0280 various theme nights, call for schedule","(MW),(MX),(S)",NA,1991,NA,"","4/25/2023 9:34pm","7969 Santa Monica Blvd. ,  Los Angeles ,  CA",-118.3635911,34.0910919,"7969 santa monica blvd, west hollywood, ca 90046, usa","Geocoded"
494,"The Pub","Bars/Clubs","7702 Santa Monica Blvd.","Los Angeles","CA","654-3336 6am-2am, Sun Brunch 2pm-4pm","(NH),(H)",NA,1991,NA,"","4/25/2023 9:34pm","7702 Santa Monica Blvd. ,  Los Angeles ,  CA",-118.3568709,34.0906465,"7702 santa monica blvd, west hollywood, ca 90046, usa","Geocoded"
495,"Rafters","Bars/Clubs","7994 Santa Monica Blvd.","Los Angeles","CA","654-0396 llam -2am","",NA,1991,NA,"","4/25/2023 9:34pm","7994 Santa Monica Blvd. ,  Los Angeles ,  CA",-118.364581,34.0905645,"7994 santa monica blvd, west hollywood, ca 90046, usa","Geocoded"
497,"Revolver","Bars/Clubs","8851 Santa Monica Blvd.","Los Angeles","CA","550-8851 4pm-2am Mon-Thurs, til 4am Fri, 2pm-4am Sat, til 2am Sun","(*),(V),(AH)",NA,1991,NA,"","4/25/2023 9:34pm","8851 Santa Monica Blvd. ,  Los Angeles ,  CA",-118.3836817,34.0855526,"8851 santa monica blvd, west hollywood, ca 90069, usa","Geocoded"
496,"Rage","Bars/Clubs","8911 Santa Monica Blvd.","Los Angeles","CA","625-7055 12:30pm-2am, T-dance Sun","(*),(YC),(D),(V),(S)",NA,1991,NA,"","4/25/2023 9:34pm","8911 Santa Monica Blvd. ,  Los Angeles ,  CA",-118.3844267,34.08502,"8911 santa monica blvd, west hollywood, ca 90069, usa","Geocoded"
501,"Studio One","Bars/Clubs","652 La Peer","Los Angeles","CA","659-0471 9pm- 2am Thurs-Sun, ""The Original""","(*),(D),(V),(YC)",NA,1991,NA,"","4/25/2023 9:34pm","652 La Peer ,  Los Angeles ,  CA",-118.3863389,34.0825529,"652 n la peer dr, west hollywood, ca 90069, usa","Geocoded"
500,"Spike","Bars/Clubs","7746 Santa Monica Blvd.","Los Angeles","CA","patio, noon-2am Mon-Thurs, til 4am Fri & Sat, 6am-2am Sun","(LV),(L),(AH),(*)",NA,1991,NA,"","4/25/2023 9:34pm","7746 Santa Monica Blvd. ,  Los Angeles ,  CA",-118.3581795,34.0906362,"7746 santa monica blvd, west hollywood, ca 90046, usa","Geocoded"
499,"Santa Fe","Bars/Clubs","7302 Melrose Ave.","Los Angeles","CA","939-6779 noon- 2am","(*),(NH),(V)",NA,1991,NA,"","4/25/2023 9:34pm","7302 Melrose Ave. ,  Los Angeles ,  CA",-118.3488914,34.0834274,"7302 melrose ave, los angeles, ca 90036, usa","Geocoded"
498,"Rose Tattoo","Bars/Clubs","665 N. Robertson Blvd.","Los Angeles","CA","854-4455 5pm-2am, cabaret, elegant dining","(*),(MW),(F),(E),(S)",NA,1991,NA,"","4/25/2023 9:34pm","665 N. Robertson Blvd. ,  Los Angeles ,  CA",-118.3857981,34.0826734,"665 n robertson blvd, west hollywood, ca 90069, usa","Geocoded"
502,"Trunks","Bars/Clubs","8809 Santa Monica Blvd.","Los Angeles","CA","652-1015 2pm-2am","(NH),(YC)",NA,1991,NA,"","4/25/2023 9:34pm","8809 Santa Monica Blvd. ,  Los Angeles ,  CA",-118.3833446,34.0858174,"8809 santa monica blvd, west hollywood, ca 90069, usa","Geocoded"
504,"French Quarter Market Place","Restaurants & Cafes","7985 Santa Monica Blvd.","Los Angeles","CA","654-0898 7am-2:30am Sun-Thurs, til . 3:30am Fri & Sat","(*),(MW),(AH)",NA,1991,NA,"","4/25/2023 9:34pm","7985 Santa Monica Blvd. ,  Los Angeles ,  CA",-118.3641869,34.0910342,"7985 santa monica blvd, west hollywood, ca 90046, usa","Geocoded"
503,"Carriage Trade","Restaurants & Cafes","8225 Beverly Blvd.","Los Angeles","CA","655-6425 Sun brunch 10am-4pm, lunch llam-3:30pm, dinner 6pm-midnight","(*),(MW),(MX)",NA,1991,NA,"","4/25/2023 9:34pm","8225 Beverly Blvd. ,  Los Angeles ,  CA",-118.3687938,34.0764011,"8225 beverly blvd, los angeles, ca 90048, usa","Geocoded"
505,"Greenery","Restaurants & Cafes","8945 Santa Monica Blvd.","Los Angeles","CA","275-9518 24hrs Fri & Sat, 7am-4am Sun-Thurs","(MW),(MX)",NA,1991,NA,"","4/25/2023 9:34pm","8945 Santa Monica Blvd. ,  Los Angeles ,  CA",-118.3854784,34.0842218,"8945 santa monica blvd, west hollywood, ca 90069, usa","Geocoded"
506,"La Cage Aux Folles","Restaurants & Cafes","643 N. La Cienega Blvd.","Los Angeles","CA","657-1091 dinner & entertainment nightly, clsd Mon","(MX),(S)",NA,1991,NA,"","4/25/2023 9:34pm","643 N. La Cienega Blvd. ,  Los Angeles ,  CA",-118.3768953,34.0832936,"643 n la cienega blvd, west hollywood, ca 90069, usa","Geocoded"
507,"La Fabula","Restaurants & Cafes","7953 SantaMonica Blvd.","Los Angeles","CA","650-8517 Mexican food, lunch 11:30-2:30, dinner 6-1lpm (5:30- 10 Sun)","(*),(MX),(MW)",NA,1991,NA,"","4/25/2023 9:34pm","7953 SantaMonica Blvd. ,  Los Angeles ,  CA",-118.3632242,34.0909914,"7953 santa monica blvd, west hollywood, ca 90046, usa","Geocoded"
509,"Lizard","Restaurants & Cafes","6545 Santa Monica Blvd.","Los Angeles","CA","962-1889 coffeehouse,opens 4:30pm, clsd Tues & Wed","",NA,1991,NA,"","4/25/2023 9:34pm","6545 Santa Monica Blvd. ,  Los Angeles ,  CA",-118.33228,34.09087,"6545 santa monica blvd, los angeles, ca 90038, usa","Geocoded"
508,"Linda's Restaurant","Restaurants & Cafes","6715 Melrose Ave.","Los Angeles","CA","934-6199 American cuisine, jazz nightly, 12pm-12am Mon-Sat, 1lam-1lpm Sun","(MX),(BW),(E)",NA,1991,NA,"","4/25/2023 9:34pm","6715 Melrose Ave. ,  Los Angeles ,  CA",-118.3402136,34.0836395,"6715 melrose ave, los angeles, ca 90038, usa","Geocoded"
510,"Numbers","Restaurants & Cafes","8029 Sunset Blvd.","Los Angeles","CA","656-6300 cock­ tails, 5pm-2am","(*),(OC),(H)",NA,1991,NA,"","4/25/2023 9:34pm","8029 Sunset Blvd. ,  Los Angeles ,  CA",-118.3648274,34.0981587,"8029 sunset blvd, los angeles, ca 90046, usa","Geocoded"
514,"Susanne's Soup Kitchen","Restaurants & Cafes","7515 Santa Monica Blvd.","Los Angeles","CA","850- 9581 8am-10pm Mon-Fri, 10am-10pm Sat, clsd Sun","(MX),(MW)",NA,1991,NA,"","4/25/2023 9:34pm","7515 Santa Monica Blvd. ,  Los Angeles ,  CA",-118.3533806,34.0909517,"7515 santa monica blvd, west hollywood, ca 90046, usa","Geocoded"
515,"Yukon Mining Co.","Restaurants & Cafes","7328 Santa MonicaBlvd.","Los Angeles","CA","851-8833 24hrs, champagne Sun Brunch 9am-3pm","(*),(BW)",NA,1991,NA,"","4/25/2023 9:34pm","7328 Santa MonicaBlvd. ,  Los Angeles ,  CA",-118.3495707,34.0906018,"7328 santa monica blvd, west hollywood, ca 90046, usa","Geocoded"
516,"The Athletic Club","Gym/Health Clubs","8560 Santa Monica Blvd.","Los Angeles","CA","659-6630 gym, hot tub, tanning salon","(*),(PC),(SW)",NA,1991,NA,"","4/25/2023 9:34pm","8560 Santa Monica Blvd. ,  Los Angeles ,  CA",-118.3780625,34.0883378,"8560 santa monica blvd, west hollywood, ca 90069, usa","Geocoded"
518,"Melrose Baths","Gym/Health Clubs","7269 Melrose Ave.","Los Angeles","CA","937-2122 jacuzzi","(*),(PC)",NA,1991,NA,"","4/25/2023 9:34pm","7269 Melrose Ave. ,  Los Angeles ,  CA",-118.3481809,34.0837841,"7269 melrose ave, los angeles, ca 90046, usa","Geocoded"
519,"A Different Light","Book Stores or Retail Shops","8853 Santa Monica Blvd.","Los Angeles","CA","854-6601 gay/lesbian bookstore, opens 11am, call for closing times","",NA,1991,NA,"","4/25/2023 9:34pm","8853 Santa Monica Blvd. ,  Los Angeles ,  CA",-118.3836452,34.0854982,"8853 santa monica blvd, west hollywood, ca 90069, usa","Geocoded"
517,"Easton's Gym","Gym/Health Clubs","8053 Beverly Blvd.","Los Angeles","CA","651-3636 gym","(MW),(MX)",NA,1991,NA,"","4/25/2023 9:34pm","8053 Beverly Blvd. ,  Los Angeles ,  CA",-118.364969,34.0762422,"8053 beverly blvd, los angeles, ca 90048, usa","Geocoded"
520,"Dorothy’s Surrender","Book Stores or Retail Shops","7985 Santa Monica Blvd.","Los Angeles","CA","#111, 650-4111 cards, periodicals, T-shirts, gifts","",NA,1991,NA,"","4/25/2023 9:34pm","7985 Santa Monica Blvd. ,  Los Angeles ,  CA",-118.3641869,34.0910342,"7985 santa monica blvd, west hollywood, ca 90046, usa","Geocoded"
522,"Video Ga-Ga","Book Stores or Retail Shops","8932 Santa Monica Blvd.","Los Angeles","CA","659-0962 videos, periodicals, open til 3am","",NA,1991,NA,"","4/25/2023 9:34pm","8932 Santa Monica Blvd. ,  Los Angeles ,  CA",-118.384885,34.0840375,"8932 santa monica blvd, west hollywood, ca 90069, usa","Geocoded"
521,"Unicorn Book Store","Book Stores or Retail Shops","8940 SantaMonica Blvd.","Los Angeles","CA","652-6253 gay/lesbian bookstore, 10am-10pm Mon-Thur & Sun, til 2am Fri, Sat","",NA,1991,NA,"","4/25/2023 9:34pm","8940 SantaMonica Blvd. ,  Los Angeles ,  CA",-118.3850505,34.0838255,"8940 santa monica blvd, west hollywood, ca 90069, usa","Geocoded"
525,"Circus of Books","Erotica","8230 Santa Monica Blvd.","Los Angeles","CA","656-6533 24hrs","",NA,1991,NA,"","4/25/2023 9:34pm","8230 Santa Monica Blvd. ,  Los Angeles ,  CA",-118.2803734,34.09268,"8230 santa monica blvd, west bollywood, ca 90046, usa","Geocoded"
523,"Gunderson Travel, Inc.","Travel Agency or Tour Operators","8543 Santa Monica Blvd.","Los Angeles","CA","#8 657-3944","(IGTA)",NA,1991,NA,"","4/25/2023 9:34pm","8543 Santa Monica Blvd. ,  Los Angeles ,  CA",-118.377675,34.0890284,"8543 santa monica blvd, west hollywood, ca 90069, usa","Geocoded"
526,"Drake's After Midnight","Erotica","7566 Melrose Ave.","Los Angeles","CA","651-5600 gifts, toys, erotica, videos","(*)",NA,1991,NA,"","4/25/2023 9:34pm","7566 Melrose Ave. ,  Los Angeles ,  CA",-118.35484,34.08348,"7566 melrose ave, los angeles, ca 90046, usa","Geocoded"
524,"West Hollywood Presbyterian Church","Religious Organizations","7350 Sunset Blvd.","Los Angeles","CA","874-6646 9am & 11am Sun","",NA,1991,NA,"","4/25/2023 9:34pm","7350 Sunset Blvd. ,  Los Angeles ,  CA",-118.3509189,34.0978156,"7350 sunset blvd, los angeles, ca 90046, usa","Geocoded"
527,"Gauntlet","Erotica","8720 Santa Monica Blvd.","Los Angeles","CA","657-6677 11am -6pm Tues-Sat","",NA,1991,NA,"","4/25/2023 9:34pm","8720 Santa Monica Blvd. ,  Los Angeles ,  CA",-118.380476,34.0870341,"8720 santa monica blvd, west hollywood, ca 90069, usa","Geocoded"
528,"Pleasure Chest","Erotica","7733 Santa Monica Blvd.","Los Angeles","CA","650-1022 leather, toys, erotica, videos","",NA,1991,NA,"","4/25/2023 9:34pm","7733 Santa Monica Blvd. ,  Los Angeles ,  CA",-118.3576317,34.0911333,"7733 santa monica blvd, west hollywood, ca 90046, usa","Geocoded"
534,"Gramercy Guest House","Accommodations","947 S. Gramercy","Los Angeles","CA","733-9725/737-9229 rooming house, daily & weekly rates, for single gay traveller","(IGTA)",NA,1991,NA,"","4/25/2023 9:34pm","947 S. Gramercy ,  Los Angeles ,  CA",-118.3124765,34.0540823,"947 s gramercy dr, los angeles, ca 90019, usa","Geocoded"
535,"Catch One","Bars/Clubs","4067 Pico Blvd.","Los Angeles","CA","734-8849/737-1159  3pm-2am Sun-Thurs, til 6am Fri & Sat, Wed men-only","(*),(MW),(D),(B),(AH)",NA,1991,NA,"","4/25/2023 9:34pm","4067 Pico Blvd. ,  Los Angeles ,  CA",-118.3241134,34.047775,"4067 w pico blvd, los angeles, ca 90019, usa","Geocoded"
538,"Midtowne Spa","Gym/Health Clubs","615 S. Kohler","Los Angeles","CA","680-1838 24hrs","(*),(PC),(SW)",NA,1991,NA,"","4/25/2023 9:34pm","615 S. Kohler ,  Los Angeles ,  CA",-118.2411384,34.0391325,"615 kohler st, los angeles, ca 90021, usa","Geocoded"
537,"Score","Bars/Clubs","107 W. 4th St.","Los Angeles","CA","625-7382 Latino","",NA,1991,NA,"","4/25/2023 9:34pm","107 W. 4th St. ,  Los Angeles ,  CA",-118.2473453,34.0486054,"107 4th st, los angeles, ca 90013, usa","Geocoded"
543,"Bon Mot","Bars/Clubs","4022 N. Figueroa","Los Angeles","CA","222-5963 noon-2am","",NA,1991,NA,"","4/25/2023 9:34pm","4022 N. Figueroa ,  Los Angeles ,  CA",-118.2098174,34.0925723,"4022 n figueroa st, los angeles, ca 90065, usa","Geocoded"
542,"Basgo's","Bars/Clubs","3909 Sunset Blvd.","Los Angeles","CA","664-1929 Latino","(*),(D),(E),(S)",NA,1991,NA,"","4/25/2023 9:34pm","3909 Sunset Blvd. ,  Los Angeles ,  CA",-118.2796587,34.0922208,"3909 sunset blvd, los angeles, ca 90029, usa","Geocoded"
547,"Cuff’s","Bars/Clubs","1941 HyperionAve.","Los Angeles","CA","660-2649 4pm- 2am Mon-Thurs, til 4am Fri & Sat, 2pm-2am Sun","(*),(LV),(L),(AH),(NH)",NA,1991,NA,"","4/25/2023 9:34pm","1941 HyperionAve. ,  Los Angeles ,  CA",-118.2750682,34.0982672,"1941 hyperion ave, los angeles, ca 90027, usa","Geocoded"
546,"Club 3626","Bars/Clubs","3626 Sunset Blvd.","Los Angeles","CA","665-3573 9pm- 2am","(MW),(D)",NA,1991,NA,"","4/25/2023 9:34pm","3626 Sunset Blvd. ,  Los Angeles ,  CA",-118.2775804,34.0901197,"3626 sunset blvd, los angeles, ca 90026, usa","Geocoded"
544,"Bunkhouse","Bars/Clubs","4519 Santa Monica Blvd.","Los Angeles","CA","667-9766 1pm-2am Mon-Fri, from 10am Sat & Sun","(LV),(CW),(V)",NA,1991,NA,"","4/25/2023 9:34pm","4519 Santa Monica Blvd. ,  Los Angeles ,  CA",-118.2870226,34.0910081,"4519 santa monica blvd, los angeles, ca 90029, usa","Geocoded"
545,"Circle West","Bars/Clubs","1514 Hillhurst","Los Angeles","CA","668-0415 Latino","(D),(NH),(S),(OC)",NA,1991,NA,"","4/25/2023 9:34pm","1514 Hillhurst ,  Los Angeles ,  CA",-118.2872796,34.0987689,"1514 hillhurst ave, los angeles, ca 90027, usa","Geocoded"
551,"The Hyperion","Bars/Clubs","2810 Hyperion Ave.","Los Angeles","CA","660-1503 11:30am-2am, til 4am Sat","(*),(D),(S),(AH)",NA,1991,NA,"","4/25/2023 9:34pm","2810 Hyperion Ave. ,  Los Angeles ,  CA",-118.2715372,34.108327,"2810 hyperion ave, los angeles, ca 90027, usa","Geocoded"
549,"Gauntlet II","Bars/Clubs","4219 Santa Monica Blvd.","Los Angeles","CA","669-9472 uniforms","(LV),(L),(*)",NA,1991,NA,"","4/25/2023 9:34pm","4219 Santa Monica Blvd. ,  Los Angeles ,  CA",-118.2840632,34.0912127,"4219 santa monica blvd, los angeles, ca 90029, usa","Geocoded"
548,"Detour","Bars/Clubs","1087 Manzanita","Los Angeles","CA","664-1189 2pm-2am","(LV),(L)",NA,1991,NA,"","4/25/2023 9:34pm","1087 Manzanita ,  Los Angeles ,  CA",-118.2814012,34.0929432,"1087 manzanita st, los angeles, ca 90029, usa","Geocoded"
550,"Houston's","Bars/Clubs","2538 Hyperion Ave.","Los Angeles","CA","661-4233  1pm- 2am, piano bar Fri & Sat","(F),(E),(NH)",NA,1991,NA,"","4/25/2023 9:34pm","2538 Hyperion Ave. ,  Los Angeles ,  CA",-118.2726261,34.1053378,"2538 hyperion ave, los angeles, ca 90027, usa","Geocoded"
