"ID","title","description","streetaddress","unclear_address","city","state","amenityfeatures","type","uncleartype","notes","Year","Last.Modified","full.address","lon","lat","geoAddress","status"
2,"Royal Oaks B&B","334/368-8722, 800/308-8762 full brkfst","5415 Hwy 21 N",NA,"Atmore","AL","GS,(SW)","Accommodations","","",1999,"3/23/2023 7:30am","5415 Hwy 21 N ,  Atmore ,  AL",-87.4810772,31.0988085,"5415 al-21, atmore, al 36502, usa","Geocoded"
3,"Birmingham Gay & Lesbian Info Line","205/326-8600 7pm-10pm Mon-Fri","205 32nd St S #201",NA,"Birmingham","AL","","Info Lines & Services","","",1999,"3/23/2023 7:31am","205 32nd St S #201 ,  Birmingham ,  AL",-86.786444,33.5185487,"205 32nd st s #201, birmingham, al 35233, usa","Geocoded"
29,"Pleasure Books","(at 77th St) 205/836-7379","7606 1st Ave N",NA,"Birmingham","AL","","Erotica","","",1999,"3/23/2023 7:59am","7606 1st Ave N ,  Birmingham ,  AL",-86.7301122,33.5608404,"7606 1st ave n, birmingham, al 35206, usa","Geocoded"
22,"Terrific New Theater","205/328-0868","2821 2nd Ave S",NA,"Birmingham","AL","","Entertainment & Recreation","","",1999,"3/23/2023 7:53am","2821 2nd Ave S ,  Birmingham ,  AL",-86.7909213,33.5162953,"2821 2nd ave s, birmingham, al 35233, usa","Geocoded"
20,"PT's Sports Grill","(at Hwy 280 S) 205/879-8519 from 11am daily","350 Hollywood",NA,"Birmingham","AL","(WC)","Restaurants","","",1999,"3/23/2023 7:50am","350 Hollywood ,  Birmingham ,  AL",NA,NA,"NA","Geocoded"
11,"Tool Box","(at 51st) 205/595-5120 2pm-2am, patio","5120 5th Ave S",NA,"Birmingham","AL","(M),(NH),(D),(CW),(WC)","Bars","","",1999,"3/23/2023 7:39am","5120 5th Ave S ,  Birmingham ,  AL",-86.7567022,33.5324438,"5120 5th ave s, birmingham, al 35212, usa","Geocoded"
14,"The Club Latroy","205/322-8338 11pm-close, clsd Mon-Th","316 20th St S",NA,"Birmingham","AL","(MW),(D),MR,(S)","Nightclubs","","",1999,"3/23/2023 7:43am","316 20th St S ,  Birmingham ,  AL",-86.8023986,33.5092794,"316 20th st s, birmingham, al 35233, usa","Geocoded"
8,"Misconceptions Tavern","(at 6th Ave S) 205/322-1210 noon-3am, patio","600 32nd St S",NA,"Birmingham","AL","(M),(V)","Bars","","",1999,"3/23/2023 7:36am","600 32nd St S ,  Birmingham ,  AL",-86.7842212,33.5146322,"600 32nd st s, birmingham, al 35233, usa","Geocoded"
24,"Bad Seed","(btwn 20th & 21st) 205/933-7333 noon-8pm, music, videos & gifts","2030 11th Ave S",NA,"Birmingham","AL","GO","Retail Shops","","",1999,"3/23/2023 7:55am","2030 11th Ave S ,  Birmingham ,  AL",-86.7949271,33.5008856,"2030 11th ave s, birmingham, al 35205, usa","Geocoded"
4,"Common Ground","(at Covenant MCC) 205/599-3363, 205/836-0300 coffeehouse for youthful gays & lesbians","5117 1st Ave N",NA,"Birmingham","AL","","Info Lines & Services","","",1999,"3/23/2023 7:32am","5117 1st Ave N ,  Birmingham ,  AL",-86.7589977,33.5363629,"5117 1st ave n, birmingham, al 35212, usa","Geocoded"
9,"Southside Pub","(at 29th St) 205/324-0997 open from 3pm","2830 7th Ave S",NA,"Birmingham","AL","(GF),(F),(WC)","Bars","","",1999,"3/23/2023 7:37am","2830 7th Ave S ,  Birmingham ,  AL",-86.7876034,33.5117093,"2830 7th ave s, birmingham, al 35233, usa","Geocoded"
15,"The Quest Club","(at 5th Ave S) 205/251-4313 24hrs, patio","416 24th St S",NA,"Birmingham","AL","(MW),(D),(PC),(WC)","Nightclubs","","",1999,"3/23/2023 7:44am","416 24th St S ,  Birmingham ,  AL",-86.7962584,33.5108515,"416 24th st s, birmingham, al 35233, usa","Geocoded"
23,"Lodestar Books","(btwn 20th & 21st) 205/939-3356 10am-7pm, 1pm-6pm Sun, lesbigay","2020-B 11th Ave S",NA,"Birmingham","AL","(WC)","Bookstores","","",1999,"3/23/2023 7:54am","2020-B 11th Ave S ,  Birmingham ,  AL",-86.7950963,33.500939,"2020 11th ave s b, birmingham, al 35205, usa","Geocoded"
12,"22 Street Jazz Cafe","(at 7th Ave S) 205/525-0407 open from 5pm, clsd Sun-Tue","710 22nd St S",NA,"Birmingham","AL","(GF),(F),(E)","Nightclubs","","",1999,"3/23/2023 7:40am","710 22nd St S ,  Birmingham ,  AL",-86.796787,33.5062057,"710 22nd st s, birmingham, al 35233, usa","Geocoded"
7,"The Tutwiler","(at 21st St N) 205/322-2100, 800/845-1787 also restaurant & lounge","2021 Park Pl N",NA,"Birmingham","AL","(GF)","Accommodations","","",1999,"3/23/2023 7:35am","2021 Park Pl N ,  Birmingham ,  AL",-86.808033,33.5201897,"2021 park pl, birmingham, al 35203, usa","Geocoded"
6,"The Ranch House Motel","(btwn 21st & 22nd) 205/322-0691","2127 27th Ave S",NA,"Birmingham","AL","GS,33+","Accommodations","","",1999,"3/23/2023 7:34am","2127 27th Ave S ,  Birmingham ,  AL",-86.7885728,33.4832677,"2127 27th ave s, homewood, al 35209, usa","Geocoded"
10,"The Station","(at 21st) 205/254-3750 10pm-4am, Fri & Sat, patio","2025 Morris Ave",NA,"Birmingham","AL","(MW),(D),(WC)","Bars","","",1999,"3/23/2023 7:38am","2025 Morris Ave ,  Birmingham ,  AL",-86.8040176,33.5143285,"2025 morris ave, birmingham, al 35203, usa","Geocoded"
17,"Bottega Cafe & Restaurant","205/939-1000 lunch & dinner, clsd Sun, full bar","2240 Highland Ave",NA,"Birmingham","AL","","Restaurants","","",1999,"3/23/2023 7:47am","2240 Highland Ave ,  Birmingham ,  AL",-86.789974,33.5024605,"2240 highland ave, birmingham, al 35205, usa","Geocoded"
30,"Top Hat Cinema","205/833-8221","9221 Todd Dr",NA,"Birmingham","AL","","Erotica","","",1999,"3/23/2023 8:00am","9221 Todd Dr ,  Birmingham ,  AL",-86.700455,33.5878074,"9221 todd ave, birmingham, al 35206, usa","Geocoded"
27,"Birmingham Adult Books","205/836-1580 24hrs","7610 1st Ave N",NA,"Birmingham","AL","(*)","Erotica","","",1999,"3/23/2023 7:58am","7610 1st Ave N ,  Birmingham ,  AL",-86.7298765,33.5607905,"7610 1st ave n, birmingham, al 35206, usa","Geocoded"
21,"Sarvac's","(btwn 4th & 5th) 205/251-0347 10:30am-3pm, clsd Sat, Southern cuisine","401 18th St S",NA,"Birmingham","AL","(WC)","Restaurants","","",1999,"3/23/2023 7:52am","401 18th St S ,  Birmingham ,  AL",-86.8047846,33.507856,"401 18th st s, birmingham, al 35233, usa","Geocoded"
16,"Anthony's","(at 20th) 205/324-1215 6pm-midnight, clsd Sun-Mon, full bar","2131 7th Ave S",NA,"Birmingham","AL","(WC)","Restaurants","","",1999,"3/23/2023 7:45am","2131 7th Ave S ,  Birmingham ,  AL",-86.797088,33.5068572,"2131 7th ave s, birmingham, al 35233, usa","Geocoded"
19,"John's","(at 1st Ave N) 205/322-6014 11am-10pm, clsd Sun, full bar","112 21st St N",NA,"Birmingham","AL","(WC)","Restaurants","","",1999,"3/23/2023 7:50am","112 21st St N ,  Birmingham ,  AL",-86.822209,33.5425441,"21st st n, birmingham, al, usa","Geocoded"
18,"Highlands Bar & Grill","(20th St) 205/939-1400 6pm-midnight, bar from 4pm, clsd Sun-Mon","2011 11th Ave S",NA,"Birmingham","AL","(WC)","Restaurants","","",1999,"3/23/2023 7:48am","2011 11th Ave S ,  Birmingham ,  AL",-86.7954871,33.5005864,"2011 11th ave s, birmingham, al 35205, usa","Geocoded"
26,"Alabama Adult Books","205/322-7323 24hrs","901 5th Ave N",NA,"Birmingham","AL","","Erotica","","",1999,"3/23/2023 7:57am","901 5th Ave N ,  Birmingham ,  AL",-86.8232546,33.5108847,"901 5th ave n, birmingham, al 35203, usa","Geocoded"
28,"The Downtown Bookstore","205/328-5525","2731 8th Ave N",NA,"Birmingham","AL","","Erotica","","",1999,"3/23/2023 7:59am","2731 8th Ave N ,  Birmingham ,  AL",-86.799534,33.5265168,"2731 reverend abraham woods jr boulevard, birmingham, al 35203, usa","Geocoded"
13,"Club 21","(at 2nd Ave N) 205/322-0469 10pm-4am Th-Sat","117-1/2 21st St N",NA,"Birmingham","AL","(GF),(D),MR-AF,(E)","Nightclubs","","",1999,"3/23/2023 7:42am","117-1/2 21st St N ,  Birmingham ,  AL",-86.9499727,33.4040991,"117 21st st n, bessemer, al 35020, usa","Geocoded"
33,"Day Inn","(at Church) 205/355-3520, 800/DAYS-INN","810 6th Ave NE",NA,"Decatur","AL","(GF)","Accommodations","","",1999,"3/23/2023 8:03am","810 6th Ave NE ,  Decatur ,  AL",-86.978019,34.608006,"810 6th ave ne, decatur, al 35601, usa","Geocoded"
34,"The Waffle House","(btw Layfayette & Walnut) 205/355-2871 24hrs, popular after hours","710 6th Ave NE",NA,"Decatur","AL","","Restaurants","","",1999,"3/23/2023 8:04am","710 6th Ave NE ,  Decatur ,  AL",-86.9789689,34.6076248,"710 6th ave ne, decatur, al 35601, usa","Geocoded"
35,"The Vault","(at Troy St) 334/794-0230 9pm-6am Th-Sun","137 N St Andrews St",NA,"Dothan","AL","(MW),(D),(S)","Nightclubs","","",1999,"3/23/2023 8:05am","137 N St Andrews St ,  Dothan ,  AL",-85.3915383,31.2249197,"137 n st andrews st, dothan, al 36303, usa","Geocoded"
36,"Nitro","205/492-9724 opens 8pn, clsd Sun-Tue","2461 E Meighan",NA,"Gadsden","AL","GS,(D),(TG),(S)","Nightclubs","","",1999,"3/23/2023 8:07am","2461 E Meighan ,  Gadsden ,  AL",-85.9634515,33.9848364,"2461 e meighan blvd, gadsden, al 35903, usa","Geocoded"
38,"Vieux Carre","(at Larkin) 205/534-5970 7pm-2am, DJ Fri-Sat, shows Sun, patio","1204 Posey",NA,"Huntsville","AL","(MW),(NH),(D),(E),(WC)","Bars","","",1999,"3/23/2023 8:11am","1204 Posey ,  Huntsville ,  AL",-86.6005067,34.7379893,"1204 posey st nw, huntsville, al 35816, usa","Geocoded"
39,"La Boheme","256/539-5282 hrs vary, brunch Sun, patio","511 Pratt Ave",NA,"Huntsville","AL","(S)","Cafes","","",1999,"3/23/2023 8:22am","511 Pratt Ave ,  Huntsville ,  AL",-86.5784961,34.7391647,"511 pratt ave ne, huntsville, al 35801, usa","Geocoded"
40,"Rainbow's Ltd","256/536-5900 11am-7pm Tue-Sat, clsd Sun-Mon, lesbigay","522 Jordan Ln",NA,"Huntsville","AL","(WC)","Bookstores","","",1999,"3/23/2023 8:13am","522 Jordan Ln ,  Huntsville ,  AL",-86.6275091,34.7268284,"522 jordan ln nw, huntsville, al 35805, usa","Geocoded"
42,"B-Bob's","334/341-0102 5pm-close, CW Th; also lesbigay giftshop","6157 Airport Blvd #201",NA,"Mobile","AL","(MW),(D),(S),(YC),(PC),(WC)","Bars","","",1999,"3/23/2023 8:16am","6157 Airport Blvd #201 ,  Mobile ,  AL",-88.1834797,30.6749486,"6157 airport blvd unit 201, mobile, al 36608, usa","Geocoded"
45,"On The Roxx","334/432-9056 5pm-close, clsd Mon-Tue","20 S Conception",NA,"Mobile","AL","(W),(D),(E)","Nightclubs","","",1999,"3/23/2023 8:19am","20 S Conception ,  Mobile ,  AL",-88.0428469,30.6908403,"20 s conception st, mobile, al 36602, usa","Geocoded"
47,"Big E's","(at S Jackson St) 334/694-0585 brkfst & lunch Mon-Fri, dinner Th-Sat, clsd Sun","274 Dauphin St",NA,"Mobile","AL","(WC)","Cafes","","",1999,"3/23/2023 8:22am","274 Dauphin St ,  Mobile ,  AL",-88.0446568,30.6910876,"274 dauphin st, mobile, al 36602, usa","Geocoded"
41,"Pink Triangle AA Group","334/438-1679 call for mtg times","2500 Dauphin St",NA,"Mobile","AL","","Info Lines & Services","","",1999,"3/23/2023 8:14am","2500 Dauphin St ,  Mobile ,  AL",-88.0992155,30.6875382,"2500 dauphin st, mobile, al 36606, usa","Geocoded"
44,"Society Lounge","(at Conti) 334/433-9141 noon-close","51 S Conception",NA,"Mobile","AL","(*),(MW),(D),(S),(PC),(WC)","Bars","","",1999,"3/23/2023 8:18am","51 S Conception ,  Mobile ,  AL",-88.0424123,30.6906949,"51 s conception st, mobile, al 36602, usa","Geocoded"
46,"Troopers","(nr Joachim) 334/433-7436 8pm-close","215 Conti St",NA,"Mobile","AL","(MW),(D),(S)","Nightclubs","","",1999,"3/23/2023 8:20am","215 Conti St ,  Mobile ,  AL",-88.0433046,30.690341,"215 conti st, mobile, al 36602, usa","Geocoded"
43,"Gabriel's Downtown","(at Government) 334/432-4900 5pm-close, from 3pm Sun","55 S Joachim St",NA,"Mobile","AL","(MW),(V),(PC)","Bars","","",1999,"3/23/2023 8:17am","55 S Joachim St ,  Mobile ,  AL",-88.0433197,30.6901695,"55 s joachim st, mobile, al 36602, usa","Geocoded"
49,"Lattice Inn B&B","334/832-9931 full brkfst, hot tub","1414 S Hull St",NA,"Montgomery","AL","(GF),(SW)","Accommodations","","",1999,"3/23/2023 8:25am","1414 S Hull St ,  Montgomery ,  AL",-86.3032629,32.3601194,"1414 s hull st, montgomery, al 36104, usa","Geocoded"
51,"The Plex","(at Madison Ave) 334/269-9672 8pm-close, till 2am Sat","121 Coosa St",NA,"Montgomery","AL","(MW),(D),(S),(PC)","Nightclubs","","",1999,"3/23/2023 8:28am","121 Coosa St ,  Montgomery ,  AL",-86.310477,32.3800868,"121 coosa st, montgomery, al 36104, usa","Geocoded"
50,"Area 51","(nr Civic Ctr) 334/264-5933 7pm-close","211 Lee St",NA,"Montgomery","AL","(MW),(D),(PC)","Nightclubs","","",1999,"3/23/2023 8:26am","211 Lee St ,  Montgomery ,  AL",-86.3107825,32.3772197,"211 lee st, montgomery, al 36104, usa","Geocoded"
52,"Michael's","(at 22nd Ave) 205/758-9223 6pm-close, clsd Sun","2201 6th St",NA,"Tuscaloosa","AL","(MW),(D),(S)","Bars","","",1999,"3/23/2023 8:29am","2201 6th St ,  Tuscaloosa ,  AL",-87.5651985,33.2096394,"2201 6th st, tuscaloosa, al 35401, usa","Geocoded"
58,"Aurora Winds Resort B&B","907/346-2533 on a hillside above Anchorage","7501 Upper O'Malley",NA,"Anchorage","AK","(MW)","Accommodations","","",1999,"3/23/2023 8:37am","7501 Upper O'Malley ,  Anchorage ,  AK",-149.7420846,61.1246881,"7501 upper o'malley rd, anchorage, ak 99507, usa","Geocoded"
66,"Kodiak Kafe & Dinner House","907/258-5233","225 E 5th Ave",NA,"Anchorage","AK","","Restaurants","","",1999,"3/23/2023 8:44am","225 E 5th Ave ,  Anchorage ,  AK",-149.8801505,61.2177897,"225 e 5th ave, anchorage, ak 99501, usa","Geocoded"
62,"The Wave","907/561-9283 call for hrs, clsd Sun-Tue, patio; also espresso bar upstairs","3103 Spenard Rd",NA,"Anchorage","AK","(MW),(D),(CW),(S),(WC)","Bars","","",1999,"3/23/2023 8:41am","3103 Spenard Rd ,  Anchorage ,  AK",-149.9050958,61.1921972,"3103 spenard rd, anchorage, ak 99503, usa","Geocoded"
67,"O'Brady's Burgers & Brews","(at Patterson) 907/338-1080 11am-midnight, noon-10pm Sun","6901 E Tudor Rd",NA,"Anchorage","AK","","Restaurants","","",1999,"3/23/2023 8:45am","6901 E Tudor Rd ,  Anchorage ,  AK",-149.7503016,61.1821371,"6901 e tudor rd, anchorage, ak 99507, usa","Geocoded"
72,"Ace's","907/522-1987 24hrs","305 W Diamond Blvd",NA,"Anchorage","AK","","Erotica","","",1999,"3/23/2023 8:49am","305 W Diamond Blvd ,  Anchorage ,  AK",-149.8847755,61.1449671,"305 w dimond blvd, anchorage, ak 99515, usa","Geocoded"
64,"China Lights","Eagle River 907/694-8080 10:30am-10pm","12110 Business Blvd",NA,"Anchorage","AK","","Restaurants","","",1999,"3/23/2023 8:43am","12110 Business Blvd ,  Anchorage ,  AK",-149.5698511,61.330285,"12110 business blvd, eagle river, ak 99577, usa","Geocoded"
54,"AA Gay/Lesbian","(btw E&F) 907/272-2312 call for mtg times","523 W 8th Ave #101",NA,"Anchorage","AK","","Info Lines & Services","","",1999,"3/23/2023 8:32am","523 W 8th Ave #101 ,  Anchorage ,  AK",-149.892352,61.2148415,"523 w 8th ave #101, anchorage, ak 99501, usa","Geocoded"
61,"Raven","(at 6th) 907/276-9672 11am-2:30am","618 Gambell",NA,"Anchorage","AK","(MW),(NH),(WC)","Bars","","",1999,"3/23/2023 8:40am","618 Gambell ,  Anchorage ,  AK",-149.8716273,61.2162443,"618 gambell st, anchorage, ak 99501, usa","Geocoded"
63,"At Last A Deli","907/563-3354 7:30am-6pm, 11am-4pm Sat, clsd Sun","701 W 36th Ave",NA,"Anchorage","AK","","Restaurants","","",1999,"3/23/2023 8:42am","701 W 36th Ave ,  Anchorage ,  AK",-149.8963972,61.1888341,"701 w 36th ave, anchorage, ak 99503, usa","Geocoded"
60,"Gallery B&B","(at 12th) 907/274-2567","1229 'G' St",NA,"Anchorage","AK","(GF)","Accommodations","","",1999,"3/23/2023 8:39am","1229 'G' St ,  Anchorage ,  AK",-149.8949009,61.2101276,"1229 g st, anchorage, ak 99501, usa","Geocoded"
69,"Cyrano's Bookstore & Cafe","(btw 1st & 5th) 907/274-2599 10am-6pm","413 'D' St",NA,"Anchorage","AK","(F),(S),(BW),(WC)","Bookstores","","",1999,"3/23/2023 8:47am","413 'D' St ,  Anchorage ,  AK",-149.889225,61.2182137,"413 d st, anchorage, ak 99501, usa","Geocoded"
57,"Arctic Feather B&B","907-277-3862","211 W Cook",NA,"Anchorage","AK","(MW)","Accommodations","","",1999,"3/23/2023 8:37am","211 W Cook ,  Anchorage ,  AK",-149.8858671,61.2297067,"211 w cook ave, anchorage, ak 99501, usa","Geocoded"
59,"Cheney Lake B&B","(at Baxter) 907/337-4391, 888/337-4391","6333 Colgate Dr",NA,"Anchorage","AK","(GF),NS","Accommodations","","",1999,"3/23/2023 8:37am","6333 Colgate Dr ,  Anchorage ,  AK",-149.7622436,61.1991615,"6333 colgate dr, anchorage, ak 99504, usa","Geocoded"
73,"Swingers Books & Gifts","907/561-5039 24hrs","710 W Northern Lights Blvd",NA,"Anchorage","AK","","Erotica","","",1999,"3/23/2023 8:50am","710 W Northern Lights Blvd ,  Anchorage ,  AK",-149.897326,61.1951308,"710 w northern lights blvd, anchorage, ak 99503, usa","Geocoded"
56,"IMRU2","(back lounge) 907/566-4678 5:30pm-7:30pm Wed, lesbigay youth group","1057 W Fireweed Ln #102",NA,"Anchorage","AK","","Info Lines & Services","","",1999,"3/23/2023 8:34am","1057 W Fireweed Ln #102 ,  Anchorage ,  AK",-149.9033671,61.1992037,"1057 w fireweed ln suite 102, anchorage, ak 99503, usa","Geocoded"
68,"Simon & Seafort's","907/274-3502 seafood & prime rib","420 'L' St",NA,"Anchorage","AK","","Restaurants","","",1999,"3/23/2023 8:46am","420 'L' St ,  Anchorage ,  AK",-149.9043855,61.2179832,"420 l st, anchorage, ak 99501, usa","Geocoded"
81,"Fantasyland Video","907/488-0879 24hrs","1765 Richardson Hwy",NA,"Fairbanks","AK","","Erotica","","",1999,"3/23/2023 9:00am","1765 Richardson Hwy ,  Fairbanks ,  AK",-147.5150134,64.7879453,"1765 richardson hwy, north pole, ak 99705, usa","Geocoded"
80,"Palace Saloon","(Alaskaland) 907/451-1858, 907/456-5960 till 3am Fri-Sat (seasonal), gay after 11pm Fri-Say only","3175 College Rd",NA,"Fairbanks","AK","(GF),(D),(S)","Bars","","",1999,"3/23/2023 9:00am","3175 College Rd ,  Fairbanks ,  AK",-147.7945307,64.8588131,"3175 college rd, fairbanks, ak 99709, usa","Geocoded"
75,"Ah, Rose Marie B&B","907/456-2040 full bkfst","302 Cowles St",NA,"Fairbanks","AK","GS,GO","Accommodations","","",1999,"3/23/2023 8:53am","302 Cowles St ,  Fairbanks ,  AK",-147.7299693,64.8438216,"302 cowles st, fairbanks, ak 99701, usa","Geocoded"
77,"Billie's Backpackers Hostel","907/457-2034 B&B, hostel & campsites","2895 Mack Rd",NA,"Fairbanks","AK","(GF),(F)","Accommodations","","",1999,"3/23/2023 8:56am","2895 Mack Rd ,  Fairbanks ,  AK",-147.7868412,64.8593395,"2895 mack blvd, fairbanks, ak 99709, usa","Geocoded"
83,"The Shorebird Guest House","907/235-2107 cottage rental, beach access","4774 Kachemak Dr",NA,"Homer","AK","GS,(WC)","Accommodations","","",1999,"3/23/2023 9:03am","4774 Kachemak Dr ,  Homer ,  AK",-151.4421641,59.6609763,"4774 kachemak dr, homer, ak 99603, usa","Geocoded"
87,"Pearson's Pond Luxury Inn","907/789-3772 hot tub","4541 Sawa Cir",NA,"Juneau","AK","(GF)","Accommodations","","",1999,"3/23/2023 9:07am","4541 Sawa Cir ,  Juneau ,  AK",-134.5902398,58.4002312,"4541 sawa cir, juneau, ak 99801, usa","Geocoded"
88,"Inn at the Summit Waterfront Cafe","907/586-2050 5pm-10pm, full bar","455 S Franklin St",NA,"Juneau","AK","","Restaurants","","",1999,"3/23/2023 9:08am","455 S Franklin St ,  Juneau ,  AK",-134.400941,58.297064,"455 s franklin st, juneau, ak 99801, usa","Geocoded"
89,"Millar Street House","907/225-1258, 800/287-1607","430 Millar St",NA,"Ketchikan","AK","(GF)","Accommodations","","",1999,"3/23/2023 9:08am","430 Millar St ,  Ketchikan ,  AK",-131.6580558,55.3465763,"millar st, ketchikan, ak 99901, usa","Geocoded"
91,"A Crescent Harbor Hideaway","907/747-4900 restored historic waterfront home, wildlife & marine tours","709 Lincoln St",NA,"Sitka","AK","(GF)","Accommodations","","",1999,"3/23/2023 9:10am","709 Lincoln St ,  Sitka ,  AK",-135.327029,57.0513057,"709 lincoln st, sitka, ak 99835, usa","Geocoded"
254,"Ermilio's","501/253-8806 5pm-8:30pm, clsd Th, Italian","26 White",NA,"Eureka Springs","AR","","Restaurants","","",1999,"3/24/2023 5:36am","26 White ,  Eureka Springs ,  AR",-93.7418626,36.4053795,"26 white st, eureka springs, ar 72632, usa","Geocoded"
247,"Singleton House B&B","501/253-9111, 800/833-3394 restored 1890s Victorian, full brkfst","11 Singleton",NA,"Eureka Springs","AR","(GF)","Accommodations","","",1999,"3/24/2023 5:26am","11 Singleton ,  Eureka Springs ,  AR",NA,NA,"NA","Geocoded"
257,"The Emerald Rainbow","501/253-5445 10:30am-5:30pm","45-1/2 Spring St",NA,"Eureka Springs","AR","","Retail Shops","","",1999,"3/24/2023 5:39am","45-1/2 Spring St ,  Eureka Springs ,  AR",-93.7367055,36.4030065,"45 spring st, eureka springs, ar 72632, usa","Geocoded"
255,"Jim & Brent's Bistro","501/253-7457 5pm-11pm, clsd Wed-Th","173 S Main",NA,"Eureka Springs","AR","(BYOB)","Restaurants","","",1999,"3/24/2023 5:37am","173 S Main ,  Eureka Springs ,  AR",-93.7426957,36.3958506,"173 s main st, eureka springs, ar 72632, usa","Geocoded"
244,"Palace Hotel & Bath House","501/253-7474 bath house open to all","135 Spring St",NA,"Eureka Springs","AR","(GF),(WC)","Accommodations","","",1999,"3/24/2023 5:22am","135 Spring St ,  Eureka Springs ,  AR",-93.7372014,36.4049126,"135 spring st, eureka springs, ar 72632, usa","Geocoded"
246,"Rock Cottage Gardens","501/253-8659, 800/624-6646 full brkfst, hot tub","10 Eugenia St",NA,"Eureka Springs","AR","(MW),GO","Accommodations","","",1999,"3/24/2023 5:25am","10 Eugenia St ,  Eureka Springs ,  AR",-93.7456216,36.4001201,"10 eugenia st, eureka springs, ar 72632, usa","Geocoded"
236,"Cedarberry Cottage B&B","501/253-6115, 800/590-2424 full brkfst, jacuzzis","3 Kings Hwy",NA,"Eureka Springs","AR","(GF)","Accommodations","","",1999,"3/24/2023 5:11am","3 Kings Hwy ,  Eureka Springs ,  AR",-93.7909848,36.4035425,"3rd st, arkansas 72631, usa","Geocoded"
250,"Center Street Bar & Grille","501/253-8102 6pm-2am, kitchen open till 10pm Th-Mon, clsd Sun, Mexican","10 Center St",NA,"Eureka Springs","AR","(GF),(D),(F),(E)","Bars","","",1999,"3/24/2023 5:30am","10 Center St ,  Eureka Springs ,  AR",-93.7366351,36.4027674,"10 center st, eureka springs, ar 72632, usa","Geocoded"
237,"Cliff Cottage B&B Inn","501/253-7409, 800/799-7409 full brkfst, gourmet dinner & dinner cruises","42 Armstrong St",NA,"Eureka Springs","AR","(GF),NS","Accommodations","","",1999,"3/24/2023 5:13am","42 Armstrong St ,  Eureka Springs ,  AR",-93.7391947,36.400173,"42 armstrong, eureka springs, ar 72632, usa","Geocoded"
241,"Maple Leaf Inn","501/253-6876, 800/372-6542 full brkfst, hot tub, restored Victorian","6 Kings Hwy",NA,"Eureka Springs","AR","GS,GO","Accommodations","","",1999,"3/24/2023 5:19am","6 Kings Hwy ,  Eureka Springs ,  AR",-93.7392889,36.4006499,"eureka springs, ar, usa","Geocoded"
256,"The Plaza","501/253-8866 lunch & dinner, French","55 S Main",NA,"Eureka Springs","AR","","Restaurants","","",1999,"3/24/2023 5:38am","55 S Main ,  Eureka Springs ,  AR",-93.738927,36.4009944,"55 s main st, eureka springs, ar 72632, usa","Geocoded"
238,"Crescent Dragonwagon's Dairy Hollow House B&B","501/253-7444, 800/562-8650 full brkfst, hot tub","516 Spring St",NA,"Eureka Springs","AR","(GF)","Accommodations","","",1999,"3/24/2023 5:14am","516 Spring St ,  Eureka Springs ,  AR",-93.74029,36.4103273,"516 spring st, eureka springs, ar 72632, usa","Geocoded"
248,"Villa DuBois Tourist Lodge","501/253-6965 cottage, full kitchen, private deck, jacuzzi","2 Kings Hwy",NA,"Eureka Springs","AR","(M)","Accommodations","","",1999,"3/24/2023 5:27am","2 Kings Hwy ,  Eureka Springs ,  AR",-93.7392889,36.4006499,"eureka springs, ar, usa","Geocoded"
235,"Arbour Glen Victorian Inn B&B","501/253-9010, 800/515-4536 full brkfst, historic Victoriam home w/ guesthouse, jacuzzis, fireplaces","7 Lema",NA,"Eureka Springs","AR","(GF)","Accommodations","","",1999,"3/24/2023 5:10am","7 Lema ,  Eureka Springs ,  AR",-93.7450761,36.4019426,"7 lema st, eureka springs, ar 72632, usa","Geocoded"
251,"Chelsea's Corner Cafe","501/253-6723 11am-2am, clsd Sun, patio","10 Mountain St",NA,"Eureka Springs","AR","(GF)","Bars","","",1999,"3/24/2023 5:32am","10 Mountain St ,  Eureka Springs ,  AR",-93.7370427,36.403904,"10 mountain st, eureka springs, ar 72632, usa","Geocoded"
242,"Mark E Cook Historic Guest House","(at Kings Hwy) 501/253-6555, 800/210-5683 suites & cottages","27 Paxos",NA,"Eureka Springs","AR","(GF)","Accommodations","","",1999,"3/24/2023 5:21am","27 Paxos ,  Eureka Springs ,  AR",-93.7459489,36.400226,"27 paxos st, eureka springs, ar 72632, usa","Geocoded"
259,"Ron's Place","501/442-3052 9pm-2am Th-Sun","523 W Poplar",NA,"Fayetteville","AR","(M)","Bars","","",1999,"3/24/2023 5:41am","523 W Poplar ,  Fayetteville ,  AR",-94.165694,36.087881,"523 w poplar st, fayetteville, ar 72703, usa","Geocoded"
260,"Passages","501/442-5845 10am-6pm, till 8pm Fri, 1pm-6pm Sun, new age/metaphysical","200 W Dickson",NA,"Fayetteville","AR","","Bookstores","","",1999,"3/24/2023 5:42am","200 W Dickson ,  Fayetteville ,  AR",-94.1616543,36.0666097,"200 w dickson st, fayetteville, ar 72701, usa","Geocoded"
263,"Burnzee's on the Hill","501/494-7300 6pm-2am, clsd Mon","1217 South W",NA,"Fort Smith","AR","(*),(MW),(D),(S),(PC)","Nightclubs","","",1999,"3/24/2023 5:45am","1217 South W ,  Fort Smith ,  AR",-94.4200175,35.361782,"1217 s w st, fort smith, ar 72901, usa","Geocoded"
264,"Foxglove B&B","501/338-9391, 800/863-1926","229 Beech",NA,"Helena","AR","(GF)","Accommodations","","",1999,"3/24/2023 5:46am","229 Beech ,  Helena ,  AR",-90.592668,34.524022,"229 beech st, helena, ar 72342, usa","Geocoded"
265,"Our House Lounge & Restaurant","501/624-6868 7pm-3am, shows monthly","660 E Grand Ave",NA,"Hot Springs","AR","(*),(MW),(D),(WC)","Nightclubs","","",1999,"3/24/2023 5:48am","660 E Grand Ave ,  Hot Springs ,  AR",-93.0411394,34.5099026,"660 e grand ave, hot springs, ar 71901, usa","Geocoded"
275,"Discovery III","(btwn Cantrell & Riverfront) 501/664-4784 9pm-5am Fri & Sat","1021 Jessie Rd",NA,"Little Rock","AR","(*),(M),(D),(TG),(S),(PC),(WC)","Bars","","",1999,"3/24/2023 6:00am","1021 Jessie Rd ,  Little Rock ,  AR",-92.3002408,34.75858,"1021 jessie rd, little rock, ar 72202, usa","Geocoded"
274,"C.O.A.D.","501/372-3070 7pm-1am, clsd Sun","412 S Louisiana St",NA,"Little Rock","AR","(M)","Bars","","",1999,"3/24/2023 5:59am","412 S Louisiana St ,  Little Rock ,  AR",-92.2723208,34.744885,"412 s louisiana st, little rock, ar 72201, usa","Geocoded"
279,"Wild Card","(at Maralynn) 501/223-9071 10am-8pm, noon-6pm Sun, novelties & gifts","400 N Bowman",NA,"Little Rock","AR","","Retail Shops","","",1999,"3/24/2023 6:06am","400 N Bowman ,  Little Rock ,  AR",-92.4065321,34.756888,"400 n bowman rd, little rock, ar 72211, usa","Geocoded"
278,"A Twisted Gift Shop","501/376-7723 11am-10pm, clsd Tue, gift shop","1007 West 7th St",NA,"Little Rock","AR","","Retail Shops","","",1999,"3/24/2023 6:05am","1007 West 7th St ,  Little Rock ,  AR",-92.2826124,34.743488,"1007 w 7th st, little rock, ar 72201, usa","Geocoded"
276,"Vino's Pizza","(at Chester) 501/375-8466 11am-midnight, until 10pm Tue & Wed","923 W 7th St",NA,"Little Rock","AR","(BW)","Restaurants","","",1999,"3/24/2023 6:01am","923 W 7th St ,  Little Rock ,  AR",-92.2821356,34.7433654,"923 w 7th st, little rock, ar 72201, usa","Geocoded"
273,"Backstreet","(btwn Cantrell & Riverfront) 501/664-2744 9pm-5am","1021 Jessie Rd #Q",NA,"Little Rock","AR","(MW),(D),(S),(PC),(WC)","Bars","","",1999,"3/24/2023 5:58am","1021 Jessie Rd #Q ,  Little Rock ,  AR",-92.2999022,34.7588409,"1021 jessie rd # q, little rock, ar 72202, usa","Geocoded"
92,"The Airport Video (Adult Resort)","(exit Crismon Rd off I-60 east, 30 min from Pheonix) 602/380-9843 24hrs","10145 E Apache Tr",NA,"Apache Junction","AZ","(SW),(AYOR)","Erotica","","",1999,"3/23/2023 9:15am","10145 E Apache Tr ,  Apache Junction ,  AZ",-111.6114659,33.4145398,"10145 e apache trail, apache junction, az 85120, usa","Geocoded"
93,"St Elmo's","520/432-5578 10am-1am, live bands Fri-Sat","36 Brewery Gulch Ave",NA,"Bisbee","AZ","(GF)","Bars","","",1999,"3/23/2023 9:16am","36 Brewery Gulch Ave ,  Bisbee ,  AZ",-109.9133562,31.448586,"36 brewery gulch, bisbee, az 85603, usa","Geocoded"
94,"The Lariat Saloon","520/758-8479","1161 Hancock Rd",NA,"Bullhead City","AZ","(MW),(NH),MR,(WC)","Bars","","",1999,"3/23/2023 9:16am","1161 Hancock Rd ,  Bullhead City ,  AZ",-114.607297,35.1082907,"1161 hancock rd, bullhead city, az 86442, usa","Geocoded"
103,"Aradia Books","520/779-3817 10:30am-5:30pm, clsd Sun, some gay men's titles","116 W Cottage",NA,"Flagstaff","AZ","","Restaurants","","",1999,"3/23/2023 9:23am","116 W Cottage ,  Flagstaff ,  AZ",-111.6517029,35.1962402,"116 w cottage ave, flagstaff, az 86001, usa","Geocoded"
98,"Hotel Monte Vista","520/779-6971, 800/545-3068 full bar, cafe, historic 1927 lodging","100 N San Francisco St",NA,"Flagstaff","AZ","(GF),(F)","Accommodations","","",1999,"3/23/2023 9:18am","100 N San Francisco St ,  Flagstaff ,  AZ",-111.6473011,35.1982704,"100 n san francisco st, flagstaff, az 86001, usa","Geocoded"
102,"Pasto","520/779-1937 dinner only, Italian","19 E Aspen",NA,"Flagstaff","AZ","(BW),(WC)","Restaurants","","",1999,"3/23/2023 9:22am","19 E Aspen ,  Flagstaff ,  AZ",-111.6481046,35.1981305,"19 e aspen ave, flagstaff, az 86001, usa","Geocoded"
100,"Monte Vista Lounge","520/779-6971 10am-1am, cafe from 6am","100 N San Francisco St",NA,"Flagstaff","AZ","(GF),(E)","Bars","","",1999,"3/23/2023 9:20am","100 N San Francisco St ,  Flagstaff ,  AZ",-111.6473011,35.1982704,"100 n san francisco st, flagstaff, az 86001, usa","Geocoded"
99,"Charlie's","520/779-1919 noon-1am, Sun brunch","23 N Leroux",NA,"Flagstaff","AZ","(GF),(F),(WC)","Bars","","",1999,"3/23/2023 9:19am","23 N Leroux ,  Flagstaff ,  AZ",-111.6490479,35.1984555,"23 n leroux st, flagstaff, az 86001, usa","Geocoded"
101,"Cafe Ole","520/774-8272 till 8pm","119 S San Francisco",NA,"Flagstaff","AZ","(BW)","Restaurants","","",1999,"3/23/2023 9:22am","119 S San Francisco ,  Flagstaff ,  AZ",-111.6494088,35.1947557,"119 s san francisco st, flagstaff, az 86001, usa","Geocoded"
104,"Karen's Adult Bookstore & Ladies Lingerie","520/763-5600","4350 Hwy 95 #1",NA,"Fort Mohave","AZ","","Erotica","","",1999,"3/23/2023 9:24am","4350 Hwy 95 #1 ,  Fort Mohave ,  AZ",-114.5974016,35.0304866,"4350 s hwy 95 #1, fort mohave, az 86426, usa","Geocoded"
105,"Kings Inn Best Western","520/753-6101, 800/528-1234 non-smoking rms available, bakery on premises","2930 E Andy Devine",NA,"Kingman","AZ","(GF),(SW),(F)","Accommodations","","",1999,"3/23/2023 9:25am","2930 E Andy Devine ,  Kingman ,  AZ",-114.0148392,35.2121662,"2930 e andy devine ave, kingman, az 86401, usa","Geocoded"
106,"Castle Superstore","602/986-6114 24hrs","8315 E Apache Trail",NA,"Mesa","AZ","","Erotica","","",1999,"3/23/2023 9:26am","8315 E Apache Trail ,  Mesa ,  AZ",-111.6518659,33.4148495,"8315 e apache trail, mesa, az 85207, usa","Geocoded"
107,"Eros Adult Emporium","520/768-6300","10185 Harbor Ave",NA,"Mohave Valley","AZ","","Erotica","","",1999,"3/23/2023 9:27am","10185 Harbor Ave ,  Mohave Valley ,  AZ",-114.6040493,34.8607145,"10185 harbor ave, mohave valley, az 86440, usa","Geocoded"
126,"Cash Inn","(at 22nd St) 602/244-9943 4pm-1am, from 2pm Sat, from noon Sun","2140 E McDowell Rd 9",NA,"Phoenix","AZ","(MW),(D),(CW),(WC)","Bars","","",1999,"3/23/2023 9:46am","2140 E McDowell Rd 9 ,  Phoenix ,  AZ",-112.0353024,33.466092,"2140 e mcdowell rd #9, phoenix, az 85006, usa","Geocoded"
146,"Katz's Deli","(at Camelback) 602/277-8814 7am-3pm, till 7pm Tue-Fri, from 8am Sun, kosher","5144 N Central",NA,"Phoenix","AZ","","Restaurants","","",1999,"3/23/2023 8:01pm","5144 N Central ,  Phoenix ,  AZ",-112.074115,33.5126536,"5144 n central ave, phoenix, az 85012, usa","Geocoded"
162,"Castle Superstore","602/995-1641","8802 N Black Canyon Fwy",NA,"Phoenix","AZ","","Erotica","","",1999,"3/23/2023 8:18pm","8802 N Black Canyon Fwy ,  Phoenix ,  AZ",-112.1179648,33.5654929,"8802 n black cyn hwy, phoenix, az 85051, usa","Geocoded"
114,"Valley One In Ten","602/264-5437 7pm Wed, youth group, HIV peer education","3136 N 3rd Ave",NA,"Phoenix","AZ","","Info Lines & Services","","",1999,"3/23/2023 9:33am","3136 N 3rd Ave ,  Phoenix ,  AZ",-112.0784697,33.4856865,"3136 n 3rd ave, phoenix, az 85013, usa","Geocoded"
151,"Movies on Central","602/274-0994 11am-10pm, lesbigay video rentals & sales","4700 N Central #121",NA,"Phoenix","AZ","(WC)","Retail Shops","","",1999,"3/23/2023 8:07pm","4700 N Central #121 ,  Phoenix ,  AZ",-112.0739947,33.5065759,"4700 n central ave ste. 121, phoenix, az 85012, usa","Geocoded"
113,"Valley of the Sun Gay/Lesbian Center","602/265-7283","24 W Camelback",NA,"Phoenix","AZ","","Info Lines & Services","","",1999,"3/23/2023 9:32am","24 W Camelback ,  Phoenix ,  AZ",-112.0758149,33.5097773,"24 w camelback rd, phoenix, az 85013, usa","Geocoded"
154,"Powerhouse Fitness Center","(at Rural) 602/921-9551","1301 E University",NA,"Phoenix","AZ","(GF)","Gyms & Health Clubs","","",1999,"3/23/2023 8:11pm","1301 E University ,  Phoenix ,  AZ",-112.0576892,33.4229789,"1301 e university dr, phoenix, az 85034, usa","Geocoded"
143,"Foster's","(at Indian School Rd) 602/263-8313 7pm-1am, 'Trash Disco' Sun","4343 N 7th Ave",NA,"Phoenix","AZ","(MW),(D),(L),(YC),(WC)","Nightclubs","","",1999,"3/23/2023 7:58pm","4343 N 7th Ave ,  Phoenix ,  AZ",-112.0822656,33.4998139,"4343 n 7th ave, phoenix, az 85013, usa","Geocoded"
130,"Harley's 155","(btwn 3rd Ave & Central Ave) 602/274-8505 noon-1am","155 W Camelback Rd",NA,"Phoenix","AZ","(MW),(D)","Bars","","",1999,"3/23/2023 9:51am","155 W Camelback Rd ,  Phoenix ,  AZ",-112.0770364,33.5089721,"155 w camelback rd, phoenix, az 85013, usa","Geocoded"
132,"JC's Fun One Lounge","Glendale (at Missouri) 602/939-0528 noon-1am, from 11am wknds","5543 N 43rd Ave",NA,"Phoenix","AZ","(MW),(D),(S),(WC)","Bars","","",1999,"3/23/2023 9:52am","5543 N 43rd Ave ,  Phoenix ,  AZ",-112.1511594,33.5182262,"5543 n 43rd ave, phoenix, az 85019, usa","Geocoded"
148,"Vincent Guerithault on Camelback","(at 40th St) 602/224-0225 French w/Southwest flair","3930 E Camelback Rd",NA,"Phoenix","AZ","(WC)","Restaurants","","",1999,"3/23/2023 8:03pm","3930 E Camelback Rd ,  Phoenix ,  AZ",-111.9962639,33.5102829,"3930 e camelback rd, phoenix, az 85018, usa","Geocoded"
156,"Flex Complex","(btwn 19th Ave & I-17) 602/271-9011 24hrs","1517 S Black Canyon Hwy",NA,"Phoenix","AZ","(MO),(SW),(PC)","Men's Services","","",1999,"3/24/2023 7:57am","1517 S Black Canyon Hwy ,  Phoenix ,  AZ",-112.1072675,33.4337502,"1517 s black canyon hwy, phoenix, az 85009, usa","Geocoded"
138,"Pookie's Cafe","602/277-2121 11am-midnight, Sun brunch","4540 N 7th St",NA,"Phoenix","AZ","(MW),(E),(V),(WC)","Bars","","",1999,"3/23/2023 9:58am","4540 N 7th St ,  Phoenix ,  AZ",-112.0652458,33.5033207,"4540 n 7th st, phoenix, az 85014, usa","Geocoded"
159,"The Barn","(at 51st Ave) 602/245-3008 24hrs","5021 W Indian School Rd",NA,"Phoenix","AZ","","Erotica","","",1999,"3/23/2023 8:16pm","5021 W Indian School Rd ,  Phoenix ,  AZ",-112.1678749,33.4945557,"5021 w indian school rd, phoenix, az 85031, usa","Geocoded"
150,"Energy Tanning","602/285-2861","4700 N Central #116",NA,"Phoenix","AZ","(WC)","Retail Shops","","",1999,"3/23/2023 8:05pm","4700 N Central #116 ,  Phoenix ,  AZ",-112.0744693,33.506282,"4700 n central ave unit 116, phoenix, az 85012, usa","Geocoded"
111,"Lesbian/Gay Community Switchboard","602/234-2752","3136 N 3rd Ave",NA,"Phoenix","AZ","","Info Lines & Services","","",1999,"3/23/2023 9:31am","3136 N 3rd Ave ,  Phoenix ,  AZ",-112.0784697,33.4856865,"3136 n 3rd ave, phoenix, az 85013, usa","Geocoded"
112,"TDD","10am-10pm (volunteers permitting)","3136 N 3rd Ave",NA,"Phoenix","AZ","","Info Lines & Services","","",1999,"3/23/2023 9:32am","3136 N 3rd Ave ,  Phoenix ,  AZ",-112.0784697,33.4856865,"3136 n 3rd ave, phoenix, az 85013, usa","Geocoded"
125,"The Bunkhouse","602/200-9154 1pm-1am, patio","4428 N 7th Ave",NA,"Phoenix","AZ","(MO),(YC)","Bars","","",1999,"3/23/2023 9:45am","4428 N 7th Ave ,  Phoenix ,  AZ",-112.0828245,33.5012491,"4428 n 7th ave, phoenix, az 85013, usa","Geocoded"
152,"Unique on Central","(at Camelback) 602/279-9691, 800/269-4840 (MAIL ORDER) 10am-9pm, till 6pm Sun, cards, gifts & more","4700 N Central Ave #105",NA,"Phoenix","AZ","(WC)","Retail Shops","","",1999,"3/23/2023 8:09pm","4700 N Central Ave #105 ,  Phoenix ,  AZ",-112.0745341,33.506001,"4700 n central ave #105, phoenix, az 85012, usa","Geocoded"
109,"Arizona Office of Tourism","602/230-7733, 800/842-8257","2702 N 3rd St #4015",NA,"Phoenix","AZ","","Info Lines & Services","","",1999,"3/23/2023 9:29am","2702 N 3rd St #4015 ,  Phoenix ,  AZ",-112.0710089,33.4776612,"2702 n 3rd st #4015, phoenix, az 85004, usa","Geocoded"
136,"Nu Towne","(at 48th St) 602/267-9959 10am-1am, popular Sun & Tue","5002 E Van Buren",NA,"Phoenix","AZ","(M),(WC)","Bars","","",1999,"3/23/2023 9:57am","5002 E Van Buren ,  Phoenix ,  AZ",-111.9739771,33.4514023,"5002 e van buren st, phoenix, az 85008, usa","Geocoded"
141,"Trax","(at 16th St) 602-254-0231 2pm-1am, till 3am Fri-Sat","1724 E McDowell",NA,"Phoenix","AZ","(M),(D),(A),(L),(YC),(WC)","Bars","","",1999,"3/23/2023 7:56pm","1724 E McDowell ,  Phoenix ,  AZ",-112.0445398,33.4660592,"1724 e mcdowell rd, phoenix, az 85006, usa","Geocoded"
149,"Obelisk the Bookstore","(at Central) 602/266-2665 10am-10pm, from 9am wknds, lesbigay","24 W Camelback #A",NA,"Phoenix","AZ","(WC)","Bookstores","","",1999,"3/23/2023 8:05pm","24 W Camelback #A ,  Phoenix ,  AZ",-112.0758149,33.5097773,"24 w camelback rd a, phoenix, az 85013, usa","Geocoded"
133,"Johnny Mc's","(btwn 3rd & Central Aves) 602/266-0875 10am-1am","138 W Camelback Rd",NA,"Phoenix","AZ","(M),(NH)","Bars","","",1999,"3/23/2023 9:53am","138 W Camelback Rd ,  Phoenix ,  AZ",-112.077151,33.5096739,"138 w camelback rd, phoenix, az 85013, usa","Geocoded"
120,"Stewart's B&B","(btwn 13th & Northern) 602/861-2500","1319 E Hayward",NA,"Phoenix","AZ","(MO),(L),(N),(WC)","Accommodations","","",1999,"3/23/2023 9:40am","1319 E Hayward ,  Phoenix ,  AZ",-112.0533658,33.5497457,"1319 e hayward ave, phoenix, az 85020, usa","Geocoded"
163,"Castle Superstore","602/986-6114","8315 E Apache Trl",NA,"Phoenix","AZ","","Erotica","","",1999,"3/23/2023 8:18pm","8315 E Apache Trl ,  Phoenix ,  AZ",-112.0564428,33.4304536,"e apache st, phoenix, az 85034, usa","Geocoded"
134,"Marly's","(btwn Greenway Pkwy & Greenway Rd) 602/867-2463 3pm-1am","15615 N Cave Creek Rd",NA,"Phoenix","AZ","(MW),(NH),(E)","Bars","","",1999,"3/23/2023 9:55am","15615 N Cave Creek Rd ,  Phoenix ,  AZ",-112.0301479,33.6284058,"15615 n cave creek rd, phoenix, az 85032, usa","Geocoded"
119,"Larry's B&B","(btwn Maryland & Bethany Home) 602/249-2974 full brkfst, hot tub","502 W Claremont Ave",NA,"Phoenix","AZ","(M),(SW),(N)","Accommodations","","",1999,"3/23/2023 9:39am","502 W Claremont Ave ,  Phoenix ,  AZ",-112.0807286,33.5290172,"502 w claremont st, phoenix, az 85013, usa","Geocoded"
137,"Paco Paco's","602/263-8424 4pm-1am Wed-Sun","3045 N 16th St",NA,"Phoenix","AZ","","Bars","","",1999,"3/23/2023 9:57am","3045 N 16th St ,  Phoenix ,  AZ",-112.047311,33.4837143,"3045 n 16th st, phoenix, az 85016, usa","Geocoded"
124,"Apollos","(south of Bethany Home) 602/277-9373 8am-1am, diverse crowd","5749 N 7th St",NA,"Phoenix","AZ","(M),(NH),(K)","Bars","","",1999,"3/23/2023 9:44am","5749 N 7th St ,  Phoenix ,  AZ",-112.0647068,33.5217741,"5749 n 7th st, phoenix, az 85014, usa","Geocoded"
155,"Chute","602/234-1654 24hrs","1440 E Indian School Rd",NA,"Phoenix","AZ","(M),(B),(L)","Men's Services","","",1999,"3/24/2023 7:57am","1440 E Indian School Rd ,  Phoenix ,  AZ",-112.0505031,33.4950323,"1440 e indian school rd, phoenix, az 85014, usa","Geocoded"
115,"Arizona Royal Villa Resort","602/266-6883 jacuzzi","1110 E Turney Ave #8",NA,"Phoenix","AZ","(MO),(SW),(N)","Accommodations","","",1999,"3/23/2023 9:34am","1110 E Turney Ave #8 ,  Phoenix ,  AZ",-112.0578372,33.5002655,"1110 e turney ave #8, phoenix, az 85014, usa","Geocoded"
108,"AA Lambda Club","602/264-1341 6pm & 8pm","2622 N 16th St",NA,"Phoenix","AZ","","Info Lines & Services","","",1999,"3/23/2023 9:28am","2622 N 16th St ,  Phoenix ,  AZ",-112.047963,33.4764329,"2622 north 16th street (at virginia ave) phoenix, az 85006, 2622 n 16th st, phoenix, az 85006, usa","Geocoded"
147,"Los Dos Molinos","602/243-9113 11am-9pm Tue-Sun, home cooking","8646 S Central Ave",NA,"Phoenix","AZ","","Restaurants","","",1999,"3/23/2023 8:02pm","8646 S Central Ave ,  Phoenix ,  AZ",-112.0736703,33.367174,"8646 s central ave, phoenix, az 85041, usa","Geocoded"
140,"Roscoe's on 7th","(at Coolidge) 602/285-0833 3pm-1am, from 11am Sun, sports bar","4531 N 7th",NA,"Phoenix","AZ","(M),(F)","Bars","","",1999,"3/23/2023 10:00am","4531 N 7th ,  Phoenix ,  AZ",-112.064637,33.5027088,"minnezona, 4531 n 7th st, phoenix, az 85014, usa","Geocoded"
129,"Cruisin' Central","(at Roosevelt) 602/253-3376 6am-1am, hustlers","1011 N Central Ave",NA,"Phoenix","AZ","(M),(S),(OC),(WC)","Bars","","",1999,"3/23/2023 9:49am","1011 N Central Ave ,  Phoenix ,  AZ",-112.0735561,33.4593182,"1011 n central ave, phoenix, az 85004, usa","Geocoded"
121,"Windsor Cottage B&B","(btwn 3rd Ave & Thomas) 602/264-6309, 888/568-7015 patio","62 W Windsor",NA,"Phoenix","AZ","(MW),(SW),(N),GO","Accommodations","","",1999,"3/23/2023 9:41am","62 W Windsor ,  Phoenix ,  AZ",-112.076304,33.4787031,"62 w windsor ave, phoenix, az 85003, usa","Geocoded"
127,"Charlie's","(at 7th Ave) 602/265-0224 noon-1am, Sun BBQ","727 W Camelback Rd",NA,"Phoenix","AZ","(M),(D),(CW)","Bars","","",1999,"3/23/2023 9:47am","727 W Camelback Rd ,  Phoenix ,  AZ",-112.0836713,33.5089763,"727 w camelback rd, phoenix, az 85013, usa","Geocoded"
161,"Castle Superstore","602/231-9837","5501 E Washington",NA,"Phoenix","AZ","","Erotica","","",1999,"3/23/2023 8:18pm","5501 E Washington ,  Phoenix ,  AZ",-111.9630151,33.4450894,"5501 e washington st, phoenix, az 85034, usa","Geocoded"
142,"Winks","602/265-9002 11am-1am","5707 N 7th St",NA,"Phoenix","AZ","(*),(MW),(E)","Bars","","",1999,"3/23/2023 7:57pm","5707 N 7th St ,  Phoenix ,  AZ",-112.064718,33.5205184,"5707 n 7th st, phoenix, az 85014, usa","Geocoded"
160,"Castle Superstore","602/266-3348 24hrs","300 E Camelback",NA,"Phoenix","AZ","","Erotica","","",1999,"3/23/2023 8:18pm","300 E Camelback ,  Phoenix ,  AZ",-112.0697602,33.5094927,"300 e camelback rd, phoenix, az 85012, usa","Geocoded"
135,"Nasty Habits","602/231-9427","3108 E McDowell Rd",NA,"Phoenix","AZ","(MW),(K)","Bars","","",1999,"3/23/2023 9:56am","3108 E McDowell Rd ,  Phoenix ,  AZ",-112.0154762,33.4660818,"3108 e mcdowell rd, phoenix, az 85008, usa","Geocoded"
145,"Eddie's Grill","(1 blk south of Camelback) 602/241-1188 lunch wkdays, dinner nightly, clsd Sun, full bar, patio","4747 N 7th St",NA,"Phoenix","AZ","(WC)","Restaurants","","",1999,"3/23/2023 8:00pm","4747 N 7th St ,  Phoenix ,  AZ",-112.063752,33.5072433,"4747 n 7th st, phoenix, az 85014, usa","Geocoded"
116,"Arizona Sunburst Inn","(at Rose Ln) 602/274-1474, 800/974-1474","6245 N 12th Pl",NA,"Phoenix","AZ","(MO),(SW),(N)","Accommodations","","",1999,"3/23/2023 9:35am","6245 N 12th Pl ,  Phoenix ,  AZ",-112.0542973,33.5289378,"mesa vista, 6245 n 12th pl, phoenix, az 85014, usa","Geocoded"
118,"Casa de mis Padres","602/675-0247 luxury guest stes, 5 minutes to Old Town Scottsdale","5965 E Orange Blossom Ln",NA,"Phoenix","AZ","(M),(SW)","Accommodations","","",1999,"3/23/2023 9:37am","5965 E Orange Blossom Ln ,  Phoenix ,  AZ",-111.9523889,33.4837078,"5965 e orange blossom ln, phoenix, az 85018, usa","Geocoded"
123,"Ain't Nobody's Bizness","(at 32nd St) 602/224-9977 2pm-1am","3031 E Indian School #7",NA,"Phoenix","AZ","(W),(D),(WC)","Bars","","",1999,"3/23/2023 9:43am","3031 E Indian School #7 ,  Phoenix ,  AZ",-112.0162916,33.4940696,"manhasset mart shopping center, 3031 e indian school rd #7, phoenix, az 85016, usa","Geocoded"
164,"International Bookstore","(at 36th St) 602-955-2000","3640 E Thomas Rd",NA,"Phoenix","AZ","","Erotica","","",1999,"3/23/2023 8:19pm","3640 E Thomas Rd ,  Phoenix ,  AZ",-112.0026216,33.4807299,"3640 e thomas rd, phoenix, az 85018, usa","Geocoded"
165,"Tuff Stuff","(at 17th St) 254-9651 10am-6pm, till 4pm Sat, clsd Sun-Mon, leather shop","1714 E McDowell Rd",NA,"Phoenix","AZ","","Erotica","","",1999,"3/23/2023 8:20pm","1714 E McDowell Rd ,  Phoenix ,  AZ",-112.0449202,33.4660117,"1714 e mcdowell rd, phoenix, az 85006, usa","Geocoded"
139,"The Pumphouse","(at 41st St) 602/275-3509 1pm-1am, from 11am wknds","4132 E McDowell Rd",NA,"Phoenix","AZ","(M),(NH)","Bars","","",1999,"3/23/2023 9:59am","4132 E McDowell Rd ,  Phoenix ,  AZ",-111.9919091,33.4661066,"4132 e mcdowell rd, phoenix, az 85008, usa","Geocoded"
158,"Adult Shoppe","(at Jefferson) 602/306-1130 24hrs","111 S 24th St",NA,"Phoenix","AZ","","Erotica","","",1999,"3/23/2023 8:15pm","111 S 24th St ,  Phoenix ,  AZ",-112.0296822,33.4467149,"111 s 24th st, phoenix, az 85034, usa","Geocoded"
122,"307 Lounge","(at 3rd St) 602/252-0001 6am-1am, Sun brunch","222 Roosevelt",NA,"Phoenix","AZ","(MW),(NH),(TG),(S),(WC)","Bars","","",1999,"3/23/2023 9:42am","222 Roosevelt ,  Phoenix ,  AZ",-112.0701571,33.4588061,"222 e roosevelt st, phoenix, az 85004, usa","Geocoded"
144,"Alexi's","(in 'Valley Bank Bldg' at Osborn) 602/279-0982 dinner only, clsd Sun, patio, int'l, full bar","3550 N Central",NA,"Phoenix","AZ","(WC)","Restaurants","","",1999,"3/23/2023 7:59pm","3550 N Central ,  Phoenix ,  AZ",-112.0742463,33.4890471,"3550 n central ave, phoenix, az 85012, usa","Geocoded"
131,"The Cell","(btwn 3rd Ave & Central Ave) in back","155 W Camelback Rd",NA,"Phoenix","AZ","(M),(L)","Bars","","",1999,"3/23/2023 9:51am","155 W Camelback Rd ,  Phoenix ,  AZ",-112.0770364,33.5089721,"155 w camelback rd, phoenix, az 85013, usa","Geocoded"
128,"The Crowbar","(north of Van Buren) 602/258-8343 3pm-1am, till 4am Fri & Sat","702 N Central",NA,"Phoenix","AZ","(M),(D),(S)","Bars","","",1999,"3/23/2023 9:48am","702 N Central ,  Phoenix ,  AZ",-112.1501944,33.4590061,"n c, phoenix, az 85009, usa","Geocoded"
175,"AZ-88","602/994-5576 11am-midnight, some veggie","7535 Scottsdale Mall",NA,"Scottsdale","AZ","","Restaurants","","",1999,"3/24/2023 12:45am","7535 Scottsdale Mall ,  Scottsdale ,  AZ",-111.9240206,33.4920044,"7535 e scottsdale mall, scottsdale, az 85251, usa","Geocoded"
174,"BS West","(in pedestrian mall) 602/945-9028 1pm-1am, Sun BBQ","7125 5th Ave",NA,"Scottsdale","AZ","(MW),(D),(V),(WC)","Bars","","",1999,"3/24/2023 12:44am","7125 5th Ave ,  Scottsdale ,  AZ",-111.9274101,33.4978332,"7125 e 5th ave, scottsdale, az 85251, usa","Geocoded"
173,"Southwestern Inn at Eagle Mountain","Fountain Hills 602/816-3000, 800/992-8083 on 18-hole golf course","9800 N Summer Hill Blvd",NA,"Scottsdale","AZ","(GF)","Accommodations","","",1999,"3/24/2023 12:43am","9800 N Summer Hill Blvd ,  Scottsdale ,  AZ",-111.7627295,33.5736233,"9800 n summer hill blvd, fountain hills, az 85268, usa","Geocoded"
176,"Malee's","602/947-6042 lunch & dinner, Thai, full bar","7131 E Main",NA,"Scottsdale","AZ","","Restaurants","","",1999,"3/24/2023 12:46am","7131 E Main ,  Scottsdale ,  AZ",-111.9277962,33.4928473,"7131 e main st, scottsdale, az 85251, usa","Geocoded"
177,"Zorba's Adult Book Shop","602/941-9891 24hrs","2924 N Scottsdale Rd",NA,"Scottsdale","AZ","","Erotica","","",1999,"3/24/2023 12:47am","2924 N Scottsdale Rd ,  Scottsdale ,  AZ",-111.9266551,33.4812099,"2924 n scottsdale rd, scottsdale, az 85251, usa","Geocoded"
178,"Apple Orchard Inn","520/282-5328, 800/663-6968 full brkfst","656 Jordan Rd",NA,"Sedona","AZ","(GF),(WC)","Accommodations","","",1999,"3/24/2023 12:48am","656 Jordan Rd ,  Sedona ,  AZ",-111.7601177,34.8771898,"656 jordan rd, sedona, az 86336, usa","Geocoded"
184,"Shugrue's West","520/282-2943 full bar","2250 W Hwy 89-A",NA,"Sedona","AZ","(WC)","Restaurants","","",1999,"3/24/2023 12:56am","2250 W Hwy 89-A ,  Sedona ,  AZ",-111.799197,34.864113,"2250 az-89a, sedona, az 86336, usa","Geocoded"
181,"Mustang B&B","Cottonwood 520/646-5929 25 min from Sedona, full brkfst, movie theater, 1 RV hookup","4257 Mustang Dr",NA,"Sedona","AZ","(MW),(N),NS","Accommodations","","",1999,"3/24/2023 12:52am","4257 Mustang Dr ,  Sedona ,  AZ",-111.8162158,34.8690217,"mustang rd, sedona, az 86336, usa","Geocoded"
182,"Southwest Inn at Sedona","520/282-3344, 800/483-7422 Santa Fri-style b&b/ luxury hotel, AAA 4-diamond","3250 W Hwy 89-A",NA,"Sedona","AZ","(GF),NS","Accommodations","","",1999,"3/24/2023 12:54am","3250 W Hwy 89-A ,  Sedona ,  AZ",-111.8173233,34.8609101,"3250 az-89a, sedona, az 86336, usa","Geocoded"
180,"Iris Garden Inn","520/282-2552, 800/321-8988 motel, jacuzzi","390 Jordan Rd",NA,"Sedona","AZ","(GF),NS,(WC)","Accommodations","","",1999,"3/24/2023 12:51am","390 Jordan Rd ,  Sedona ,  AZ",-111.7607907,34.8724347,"390 jordan rd, sedona, az 86336, usa","Geocoded"
183,"Judi's","520/282-4449 11:30am-9pm, full bar","40 Soldier Pass Rd",NA,"Sedona","AZ","","Restaurants","","",1999,"3/24/2023 12:55am","40 Soldier Pass Rd ,  Sedona ,  AZ",-111.7827292,34.8633154,"40 soldiers pass rd, sedona, az 86336, usa","Geocoded"
186,"Changing Hands","602/966-0203 10am-9pm, till 10pm Fri-Sat, noon-5pm Sun, general, lesibgay section","414 S Mill",NA,"Tempe","AZ","","Bookstores","","",1999,"3/24/2023 1:00am","414 S Mill ,  Tempe ,  AZ",-111.9404792,33.4263376,"414 s mill ave, tempe, az 85281, usa","Geocoded"
187,"Modern World","602/967-9052 24hrs","1812 E Apache",NA,"Tempe","AZ","","Erotica","","",1999,"3/24/2023 1:02am","1812 E Apache ,  Tempe ,  AZ",-111.9083036,33.4150236,"1812 e apache blvd, tempe, az 85281, usa","Geocoded"
219,"Blue Willow","520/795-8736 brkfst served all day","2616 N Campbell",NA,"Tucson","AZ","","Restaurants","","",1999,"3/24/2023 4:51am","2616 N Campbell ,  Tucson ,  AZ",-110.9435241,32.254416,"2616 n campbell ave, tucson, az 85719, usa","Geocoded"
221,"Cafe Terra Cotta","520/577-8100 dinner till 10:30pm, full bar","4310 N Campbell Ave",NA,"Tucson","AZ","(WC)","Restaurants","","",1999,"3/24/2023 4:53am","4310 N Campbell Ave ,  Tucson ,  AZ",-110.9423656,32.2855425,"4310 n campbell ave, tucson, az 85718, usa","Geocoded"
191,"Adobe Rose Inn B&B","520/318-4644, 800/328-4122 full brkfst, hot tub","940 N Olsen Ave",NA,"Tucson","AZ","(GF),(SW)","Accommodations","","",1999,"3/24/2023 1:06am","940 N Olsen Ave ,  Tucson ,  AZ",-110.9407676,32.2335917,"940 n olsen ave, tucson, az 85719, usa","Geocoded"
213,"Venture-N","(at Stone) 520/882-8224 6am-1am, from 10am Sun, patio","1239 N 6th Ave",NA,"Tucson","AZ","(M),(L),(F)","Bars","","",1999,"3/24/2023 1:35am","1239 N 6th Ave ,  Tucson ,  AZ",-110.9690512,32.2382423,"1239 n 6th ave, tucson, az 85705, usa","Geocoded"
226,"The Bookstore Southwest","520/790-1550","5754 E Speedway Blvd",NA,"Tucson","AZ","","Erotica","","",1999,"3/24/2023 5:00am","5754 E Speedway Blvd ,  Tucson ,  AZ",-110.8691063,32.235824,"5754 e speedway blvd, tucson, az 85712, usa","Geocoded"
217,"The Cottage Bakery Cafe","520/325-5549 7am-5:30pm, 8am-4:30pm Sat, clsd Sun","3022 E Broadway",NA,"Tucson","AZ","","Cafes","","",1999,"3/24/2023 1:38am","3022 E Broadway ,  Tucson ,  AZ",-110.927213,32.2211625,"3022 e broadway blvd, tucson, az 85716, usa","Geocoded"
216,"Cafe Quebec","520/798-3552","121 E Broadway",NA,"Tucson","AZ","(WC)","Cafes","","",1999,"3/24/2023 1:37am","121 E Broadway ,  Tucson ,  AZ",-110.967941,32.2214663,"121 e broadway blvd, tucson, az 85701, usa","Geocoded"
212,"Stonewall Eagle","520/624-8805 noon-1am, 'Stonewall' from 9pm, patio","2921 N 1st Ave",NA,"Tucson","AZ","(M),(D),(L),(WC)","Bars","","",1999,"3/24/2023 1:34am","2921 N 1st Ave ,  Tucson ,  AZ",-110.9614239,32.2607871,"2921 n 1st ave, tucson, az 85719, usa","Geocoded"
198,"Elysian Grove Market B&B","520/628-1522 full brkfst, renovated historic adobe, kitchen in suite","400 W Simpson",NA,"Tucson","AZ","(GF),NS","Accommodations","","",1999,"3/24/2023 1:16am","400 W Simpson ,  Tucson ,  AZ",-110.9752991,32.2154519,"400 w simpson st, tucson, az 85701, usa","Geocoded"
215,"Cafe Magritte","520/884-8004","254 E Congress",NA,"Tucson","AZ","","Cafes","","",1999,"3/24/2023 1:37am","254 E Congress ,  Tucson ,  AZ",-110.9679318,32.2219417,"254 e congress st, tucson, az 85701, usa","Geocoded"
210,"IBT's (It's About Time)","520/882-3053 noon-1am","616 N 4th Ave",NA,"Tucson","AZ","(MW),(D),(S),(WC)","Bars","","",1999,"3/24/2023 1:32am","616 N 4th Ave ,  Tucson ,  AZ",-110.9654055,32.2295467,"616 n 4th ave, tucson, az 85705, usa","Geocoded"
204,"Natural B&B","520/881-4582 message available","3150 E Presidio Rd",NA,"Tucson","AZ","(M),NS","Bars","","",1999,"3/24/2023 1:25am","3150 E Presidio Rd ,  Tucson ,  AZ",-110.9250039,32.2629219,"3150 e presidio rd, tucson, az 85716, usa","Geocoded"
209,"Hours","520/327-3390 noon-1am","3455 E Grant",NA,"Tucson","AZ","(*),(MW),(NH),(D),(CW),(WC)","Bars","","",1999,"3/24/2023 1:31am","3455 E Grant ,  Tucson ,  AZ",-110.9188336,32.2509259,"3455 e grant rd, tucson, az 85716, usa","Geocoded"
228,"Hydra","520/791-3711 SM gear","145 E Congress",NA,"Tucson","AZ","","Erotica","","",1999,"3/24/2023 5:02am","145 E Congress ,  Tucson ,  AZ",-110.9688025,32.2222277,"145 e congress st, tucson, az 85701, usa","Geocoded"
194,"Casa Tierra Adobe B&B Inn","520/578-3058 3o min from Tucson, patio","11155 W Calle Pima",NA,"Tucson","AZ","(GF),NS","Accommodations","","",1999,"3/24/2023 1:10am","11155 W Calle Pima ,  Tucson ,  AZ",-111.2038794,32.2403415,"11155 w calle pima, tucson, az 85743, usa","Geocoded"
207,"Congress Tap Room","(at Hotel Congress) 520/622-8848, 11am-1am, dance club from 9pm, theme nights","311 E Congress",NA,"Tucson","AZ","(GF),(NH),(D),(A),(E)","Bars","","",1999,"3/24/2023 1:28am","311 E Congress ,  Tucson ,  AZ",-110.9668233,32.222337,"311 e congress st, tucson, az 85701, usa","Geocoded"
201,"Hotel Congress","520/622-8848, 800/722-8848","311 E Congress",NA,"Tucson","AZ","(GF),(F)","Accommodations","","",1999,"3/24/2023 1:23am","311 E Congress ,  Tucson ,  AZ",-110.9668233,32.222337,"311 e congress st, tucson, az 85701, usa","Geocoded"
218,"Rainbow Planet Coffee House","520/620-1770 9am-10pm","606 N 4th Ave",NA,"Tucson","AZ","(MW)","Cafes","","",1999,"3/24/2023 1:40am","606 N 4th Ave ,  Tucson ,  AZ",-110.9653875,32.2293157,"606 n 4th ave, tucson, az 85705, usa","Geocoded"
223,"Antigone Books","520/792-3715 10am-6pm, till 5pm Sat, noon-5pm Sun, lesbigay","411 N 4th Ave",NA,"Tucson","AZ","(WC)","Bookstores","","",1999,"3/24/2023 4:57am","411 N 4th Ave ,  Tucson ,  AZ",-110.9658919,32.226732,"411 n 4th ave, tucson, az 85705, usa","Geocoded"
211,"Neon Moon","(at Rosemont) 520/881-7500","5150 E Speedway Blvd",NA,"Tucson","AZ","(D),(CW)","Bars","","",1999,"3/24/2023 1:32am","5150 E Speedway Blvd ,  Tucson ,  AZ",-110.8821379,32.2354836,"5150 e speedway blvd, tucson, az 85712, usa","Geocoded"
222,"The Grill on Congress","520/623-7621","100 E Congress",NA,"Tucson","AZ","(BW)","Restaurants","","",1999,"3/24/2023 4:55am","100 E Congress ,  Tucson ,  AZ",-110.9695397,32.2218548,"100 e congress st, tucson, az 85701, usa","Geocoded"
227,"Caesar's Bookstore","520/622-9479","2540 N Oracle Rd",NA,"Tucson","AZ","","Erotica","","",1999,"3/24/2023 5:01am","2540 N Oracle Rd ,  Tucson ,  AZ",-110.977744,32.2529397,"2540 n oracle rd, tucson, az 85705, usa","Geocoded"
195,"Catalina Park Inn","520/792-4541, 800/792-4885","309 E 1st St",NA,"Tucson","AZ","(GF),NS","Accommodations","","",1999,"3/24/2023 1:12am","309 E 1st St ,  Tucson ,  AZ",-110.9668466,32.2345053,"309 e 1st st, tucson, az 85705, usa","Geocoded"
196,"Desert Trails B&B","520/885-7295 adobe hacienda on 3 acres bordering Saguaro Nat'l Park","12851 E Speedway Blvd",NA,"Tucson","AZ","(GF),(SW)","Accommodations","","",1999,"3/24/2023 1:14am","12851 E Speedway Blvd ,  Tucson ,  AZ",-110.718253,32.2363937,"12851 e speedway blvd, tucson, az 85748, usa","Geocoded"
202,"Cup Cafe","bar","311 E Congress",NA,"Tucson","AZ","","Bars","","",1999,"3/24/2023 1:23am","311 E Congress ,  Tucson ,  AZ",-110.9668233,32.222337,"311 e congress st, tucson, az 85701, usa","Geocoded"
214,"The Fineline","520/882-4953 6pm-1am, till 4am Fri-Sat, clsd Sun","101 W Drachman",NA,"Tucson","AZ","(GF),(D),(18+)","Nightclubs","","",1999,"3/24/2023 1:36am","101 W Drachman ,  Tucson ,  AZ",-110.9745539,32.2386972,"101 w drachman st, tucson, az 85705, usa","Geocoded"
220,"Cafe Sweetwater","520/622-6464 lunch & dinner","340 E 6th St",NA,"Tucson","AZ","","Restaurants","","",1999,"3/24/2023 4:52am","340 E 6th St ,  Tucson ,  AZ",-110.9659406,32.227622,"340 e 6th st, tucson, az 85705, usa","Geocoded"
190,"Wingspan Community Center","520/624-1779 lesbigay & youth info, lesbigay AA, call for events","422 N 4th Ave",NA,"Tucson","AZ","","Info Lines & Services","","",1999,"3/24/2023 1:05am","422 N 4th Ave ,  Tucson ,  AZ",-110.9652763,32.2270604,"422 n 4th ave, tucson, az 85705, usa","Geocoded"
199,"Gateway Villas B&B","520/740-0767 rms & suites","228 N 4th Ave",NA,"Tucson","AZ","(GF),(SW)","Accommodations","","",1999,"3/24/2023 1:18am","228 N 4th Ave ,  Tucson ,  AZ",-110.9652399,32.2245583,"228 n 4th ave, tucson, az 85705, usa","Geocoded"
206,"Tortuga Roja B&B","520/577-6922, 800/467-6822 hot tub","2800 E River Rd",NA,"Tucson","AZ","(MW),(SW),(N),NS,(WC),TA","Bars","","",1999,"3/24/2023 1:27am","2800 E River Rd ,  Tucson ,  AZ",-110.9310346,32.2841244,"2800 e river rd, tucson, az 85718, usa","Geocoded"
197,"Dillinger House B&B","520/622-4306 2 cottages. historic home & place of John Dillinger's 1934 arrest, spa","927 N 2nd Ave",NA,"Tucson","AZ","GS","Accommodations","","",1999,"3/24/2023 1:16am","927 N 2nd Ave ,  Tucson ,  AZ",-110.9628881,32.2337078,"927 n 2nd ave, tucson, az 85705, usa","Geocoded"
200,"Hacienda del Sol Guest Ranch Resort","520/299-1501, 800/728-6514 rms & casitas","5601 N Hacienda del Sol Rd",NA,"Tucson","AZ","(GF),(F),(SW),(WC)","Accommodations","","",1999,"3/24/2023 1:20am","5601 N Hacienda del Sol Rd ,  Tucson ,  AZ",-110.9152664,32.3043956,"5601 n hacienda del sol rd, tucson, az 85718, usa","Geocoded"
208,"The Graduate","520/622-9233 11am-1am, cruisy, game room","23 W University Ave",NA,"Tucson","AZ","(M),(D),(S),(WC)","Bars,Cruisy Areas","","",1999,"3/24/2023 1:29am","23 W University Ave ,  Tucson ,  AZ",-110.9724985,32.231604,"23 w university blvd, tucson, az 85705, usa","Geocoded"
192,"Armory Park Guesthouse","520/206-9252 renovated 1896 owner's residence w/ 2 detached guest units","219 S 5th Ave",NA,"Tucson","AZ","(GF)","Accommodations","","",1999,"3/24/2023 1:07am","219 S 5th Ave ,  Tucson ,  AZ",-110.966763,32.2193807,"219 s 5th ave, tucson, az 85701, usa","Geocoded"
193,"Casa Alegre B&B Inn","520/628-1800, 800/628-5654 full brkfst, hot tub","316 E Speedway Blvd",NA,"Tucson","AZ","(GF),(SW),NS","Accommodations","","",1999,"3/24/2023 1:09am","316 E Speedway Blvd ,  Tucson ,  AZ",-110.9669566,32.2356853,"316 e speedway blvd, tucson, az 85705, usa","Geocoded"
232,"Sombrero Ranch","520/684-0222 50 acres of peace & beauty","31910 W Bralliar Rd",NA,"Wickenburg","AZ","(GF)","Accommodations","","",1999,"3/24/2023 5:05am","31910 W Bralliar Rd ,  Wickenburg ,  AZ",-112.7479603,33.9813636,"31910 w bralliar rd, wickenburg, az 85390, usa","Geocoded"
233,"Bargain Box","520/782-6742 24hrs","408 E 16th St",NA,"Yuma","AZ","","Erotica","","",1999,"3/24/2023 5:07am","408 E 16th St ,  Yuma ,  AZ",-114.6170862,32.6990193,"408 e 16th st, yuma, az 85364, usa","Geocoded"
283,"Gay/Lesbian Community Services Center","714/534-0862 10am-10pm","12832 Garden Grove Blvd #A",NA,"Anaheim","CA","","Info Lines & Services","","",1999,"3/24/2023 6:10am","12832 Garden Grove Blvd #A ,  Anaheim ,  CA",-117.9086842,33.7741041,"12832 garden grove blvd a, garden grove, ca 92843, usa","Geocoded"
290,"Victor Victoria's","760/240-8018 6pm-2am, from 2pm Sun, patio","22581 Outer Hwy 18",NA,"Apple Valley","CA","(MW),(D)","Bars","","",1999,"3/24/2023 6:19am","22581 Outer Hwy 18 ,  Apple Valley ,  CA",-117.1709284,34.5001265,"22581 outer hwy 18 s, apple valley, ca 92308, usa","Geocoded"
291,"Jambalaya","707/822-4796","916 'H' St",NA,"Arcata","CA","(GF)","Bars","","",1999,"3/24/2023 6:21am","916 'H' St ,  Arcata ,  CA",-124.0866417,40.8691577,"916 h st, arcata, ca 95521, usa","Geocoded"
292,"The Pleasure Center","707/822-1702, 800/314-0863 also piercing","1731 'G' St #D",NA,"Arcata","CA","","Erotica","","",1999,"3/24/2023 6:22am","1731 'G' St #D ,  Arcata ,  CA",-124.0836658,40.8755307,"1731 g st d, arcata, ca 95521, usa","Geocoded"
293,"Dorrington Inn","Dorrington (at Boards Crossing) 209/795-2164, 888/874-2164 cottages & suites, 3 hrs from San Francisco, 18 miles from Bear Valley","3450 Hwy 4",NA,"Arnold","CA","(GF),GO","Accommodations","","",1999,"3/24/2023 6:24am","3450 Hwy 4 ,  Arnold ,  CA",-120.2760834,38.3016056,"3450 ca-4, arnold, ca 95223, usa","Geocoded"
294,"Diamond Adult World","805/462-0404","5915 El Camino Real",NA,"Atascadero","CA","","Erotica","","",1999,"3/24/2023 6:24am","5915 El Camino Real ,  Atascadero ,  CA",-120.6706543,35.4897418,"5915 el camino real, atascadero, ca 93422, usa","Geocoded"
295,"Wolf Mountain Cafe","(in Raly's shopping center) 530/885-2026 5:30am-10pm, till 11pm Fri-Sat","13428 Lincoln Way",NA,"Auburn","CA","","Cafes","","",1999,"3/24/2023 6:28am","13428 Lincoln Way ,  Auburn ,  CA",-121.0557874,38.9243636,"13428 lincoln way, auburn, ca 95603, usa","Geocoded"
298,"Casablanca Club","805/324-1384 7pm-2am, clsd Mon","1030 20th St",NA,"Bakersfield","CA","(MW),(NH),(D)","Bars","","",1999,"3/24/2023 6:31am","1030 20th St ,  Bakersfield ,  CA",-119.0137612,35.3773617,"1030 20th st, bakersfield, ca 93301, usa","Geocoded"
299,"The Mint","805/325-4048 6pm-2am, more gay wknds","1207 19th St",NA,"Bakersfield","CA","(GF),(NH)","Bars","","",1999,"3/24/2023 6:32am","1207 19th St ,  Bakersfield ,  CA",-119.0156796,35.3760182,"1207 19th st, bakersfield, ca 93301, usa","Geocoded"
297,"Rio Bravo Resort","805/872-5000, 888/517-5500","11200 Lake Ming Rd",NA,"Bakersfield","CA","(GF),(WC)","Accommodations","","",1999,"3/24/2023 6:30am","11200 Lake Ming Rd ,  Bakersfield ,  CA",-118.8664463,35.4326607,"11200 lake ming rd, bakersfield, ca 93306, usa","Geocoded"
300,"Town Casino Lounge","(at Padre Hotel) 805/324-2594 10am-2am, live piano Th-Sun","1813 'H' St",NA,"Bakersfield","CA","(GF),(E)","Bars","","",1999,"3/24/2023 6:33am","1813 'H' St ,  Bakersfield ,  CA",-119.0211957,35.3757689,"1813 h st, bakersfield, ca 93301, usa","Geocoded"
302,"Wildcat Books","805/324-4243","2620 Chester Ave",NA,"Bakersfield","CA","","Erotica","","",1999,"3/24/2023 6:35am","2620 Chester Ave ,  Bakersfield ,  CA",-119.017902,35.383569,"2620 chester ave, bakersfield, ca 93301, usa","Geocoded"
304,"Le Sex Shoppe","213/560-9473 24hrs","6816 Eastern Ave",NA,"Bakersfield","CA","","Erotica","","",1999,"3/24/2023 6:37am","6816 Eastern Ave ,  Bakersfield ,  CA",-119.0543115,35.3886574,"6816 east dr, bakersfield, ca 93308, usa","Geocoded"
301,"Deja Vu","805/322-7300","1524 Golden State Hwy",NA,"Bakersfield","CA","","Erotica","","",1999,"3/24/2023 6:35am","1524 Golden State Hwy ,  Bakersfield ,  CA",-121.6873255,39.3603606,"1524 golden state hwy, gridley, ca 95948, usa","Geocoded"
305,"Captain Walsh House","707/747-5653 gracious gothic charm, full brkfst","235 E 'L' St",NA,"Benicia","CA","(GF),NS,(WC)","Accommodations","","",1999,"3/24/2023 6:38am","235 E 'L' St ,  Benicia ,  CA",-122.1526511,38.0527281,"235 e l st, benicia, ca 94510, usa","Geocoded"
309,"Hillcrest Lodge","909/866-6040, 800/843-4449 motel, non-smoking rms available, cabins, jacuzzi suites","40241 Big Bear Blvd",NA,"Big Bear Lake","CA","GS,GO,(WC)","Accommodations","","",1999,"3/24/2023 6:42am","40241 Big Bear Blvd ,  Big Bear Lake ,  CA",-116.9241539,34.2389417,"40241 big bear blvd, big bear lake, ca 92315, usa","Geocoded"
312,"Che Faccia","909/878-3222 dinner 7 nights, lunch Fri-Sun only, Italian","607 Pine Knot Ave",NA,"Big Bear Lake","CA","(BW)","Restaurants","","",1999,"3/24/2023 6:46am","607 Pine Knot Ave ,  Big Bear Lake ,  CA",-116.9112436,34.2415454,"607 pine knot ave, big bear lake, ca 92315, usa","Geocoded"
311,"Smoke Tree Resort","909/866-2415, 800/352-8581 cabins, hot tub","40154 Big Bear Blvd",NA,"Big Bear Lake","CA","GS,GO,(WC)","Accommodations","","",1999,"3/24/2023 6:45am","40154 Big Bear Blvd ,  Big Bear Lake ,  CA",-116.9259642,34.2396981,"40154 big bear blvd, big bear lake, ca 92315, usa","Geocoded"
307,"Eagles' Nest B&B","909/866-6465 5 cottages","41675 Big Bear Blvd",NA,"Big Bear Lake","CA","(GF)","Accommodations","","",1999,"3/24/2023 6:40am","41675 Big Bear Blvd ,  Big Bear Lake ,  CA",-116.8928056,34.2431094,"41675 big bear blvd, big bear lake, ca 92315, usa","Geocoded"
314,"Starlite Motel","760/873-4912","192 Short St",NA,"Bishop","CA","(GF),(SW)","Accommodations","","",1999,"3/24/2023 6:47am","192 Short St ,  Bishop ,  CA",-118.3928276,37.3599288,"192 short st, bishop, ca 93514, usa","Geocoded"
315,"Spellbinder Books","(at Line) 760/873-4511 9am-5:30pm, clsd Sun","124 S Main",NA,"Bishop","CA","(WC)","Bookstores","","",1999,"3/24/2023 6:49am","124 S Main ,  Bishop ,  CA",-118.3950467,37.3611547,"124 s main st, bishop, ca 93514, usa","Geocoded"
316,"Ozz Supper Club","714/522-1542 6pm-2am, clsd Mon, call for events","6231 Manchester Blvd",NA,"Buena Park","CA","(MW),(D),(F),(E)","Bars","","",1999,"3/24/2023 6:50am","6231 Manchester Blvd ,  Buena Park ,  CA",-118.2312923,33.9578451,"ca 42, california, usa","Geocoded"
317,"The J Patrick House B&B","805/927-3812, 800/341-5258 authentic log cabin, fireplaces","2990 Burton Dr",NA,"Cambria","CA","(GF),NS","Accommodations","","",1999,"3/24/2023 6:52am","2990 Burton Dr ,  Cambria ,  CA",-121.0778705,35.5575952,"2990 burton dr, cambria, ca 93428, usa","Geocoded"
318,"Capistrano Seaside Inn","949/496-1399, 800/252-3224 outdoor jacuzzi, ocean views","34862 Pacific Coast Hwy",NA,"Capistrano Beach","CA","(GF)","Accommodations","","",1999,"3/24/2023 6:54am","34862 Pacific Coast Hwy ,  Capistrano Beach ,  CA",-117.6693582,33.4568003,"34862 pacific coast hwy, dana point, ca 92624, usa","Geocoded"
321,"Inn at Shallow Creek Farm","Orland 530/865-4093, 800/865-4093","4712 Road DD",NA,"Chico","CA","(GF),NS","Accommodations","","",1999,"3/24/2023 6:58am","4712 Road DD ,  Chico ,  CA",NA,NA,"NA","Geocoded"
320,"Stonewall Alliance Center","530/893-3338, 530/893-3336 hotline, social 6pm-10pm Fri, Gay AA 7pm Tue","820 W 7th St",NA,"Chico","CA","","Info Lines & Services","","",1999,"3/24/2023 6:57am","820 W 7th St ,  Chico ,  CA",-121.8435647,39.7223778,"820 w 7th st, chico, ca 95928, usa","Geocoded"
322,"Club 2201","892-1742 opens 9pm","2201 Pillsbury",NA,"Chico","CA","","Nightclubs","","",1999,"3/24/2023 6:59am","2201 Pillsbury ,  Chico ,  CA",-121.848344,39.7566136,"2201 pillsbury rd, chico, ca 95926, usa","Geocoded"
323,"F St Bookstore","(at Naples) 619/585-3314 24hrs","1141 3rd Ave",NA,"Chula Vista","CA","(WC)","Erotica","","",1999,"3/24/2023 6:59am","1141 3rd Ave ,  Chula Vista ,  CA",-117.0683524,32.612434,"1141 3rd ave, chula vista, ca 91911, usa","Geocoded"
326,"Lake Vacations Reservations","Lakeport 707/263-7188 vacation-home rental service","1855 S Main St",NA,"Clearlake","CA","","Accommodations","","",1999,"3/24/2023 7:04am","1855 S Main St ,  Clearlake ,  CA",-122.9163392,39.0289176,"1855 s main st, lakeport, ca 95453, usa","Geocoded"
329,"Kathy's Inn","707/994-9933 lunch Wed-Fri, open from 4pm wknds, clsd Mon-Tue, full bar","4677 Lake Shore Dr",NA,"Clearlake","CA","(WC)","Restaurants","","",1999,"3/24/2023 7:06am","4677 Lake Shore Dr ,  Clearlake ,  CA",-122.65967,38.9697029,"lakeshore dr, clearlake, ca 95422, usa","Geocoded"
325,"Edgewater Resort","Kelseyville 707/279-0208 'gay-owned, straight friendly,' also camping","6420 Soda Bay Rd",NA,"Clearlake","CA","(SW)","Accommodations","","",1999,"3/24/2023 7:03am","6420 Soda Bay Rd ,  Clearlake ,  CA",-122.7922937,39.0019221,"6420 soda bay rd, kelseyville, ca 95451, usa","Geocoded"
324,"Blue Fish Cove Resort","Clearlake Oaks 707/998-1769 lakeside resort cottages, boat facilities & rentals, fishing","10573 E Hwy 20",NA,"Clearlake","CA","(GF),(SW)","Accommodations","","",1999,"3/24/2023 7:01am","10573 E Hwy 20 ,  Clearlake ,  CA",-122.775756,39.0430008,"10573 e hwy 20, lucerne, ca 95458, usa","Geocoded"
328,"The Brentwood","Lucerne 707/274-2301","6271 E Hwy 20",NA,"Clearlake","CA","","Restaurants","","",1999,"3/24/2023 7:06am","6271 E Hwy 20 ,  Clearlake ,  CA",-122.7940463,39.0874675,"6271 e hwy 20, lucerne, ca 95458, usa","Geocoded"
327,"Sea Breeze Resort","Glenhaven 707/998-3327 cottage","9595 Harbor Dr",NA,"Clearlake","CA","GS,(SW),GO","Accommodations","","",1999,"3/24/2023 7:05am","9595 Harbor Dr ,  Clearlake ,  CA",-122.7309528,39.0248407,"9595 harbor dr, glenhaven, ca 95443, usa","Geocoded"
331,"Pleasant Hill Adult Books & Videos","510/676-2962","2294 Monument",NA,"Concord","CA","","Entertainment & Recreation","","",1999,"3/24/2023 7:08am","2294 Monument ,  Concord ,  CA",-122.0356689,37.958286,"2294 monument blvd, concord, ca 94520, usa","Geocoded"
332,"Backstreet Cafe","909/737-8025 8:30am-5pm, 10am-3pm Sat, clsd Sun","430 River Rd Ste E",NA,"Corona","CA","","Cafes","","",1999,"3/24/2023 7:10am","430 River Rd Ste E ,  Corona ,  CA",-117.5684325,33.8913497,"430 river rd e, corona, ca 92878, usa","Geocoded"
333,"Marin Suites Hotel","(at Lucky Dr) 415/924-3608 variety of apt-style rms","45 Tamal Vista Blvd",NA,"Corte Madera","CA","(GF)","Accommodations","","",1999,"3/24/2023 7:11am","45 Tamal Vista Blvd ,  Corte Madera ,  CA",-122.5173772,37.9330307,"45 tamal vista blvd, corte madera, ca 94925, usa","Geocoded"
337,"Newport Station","714/631-0031 9pm-2am Th-Sat","1945 Placentia",NA,"Costa Mesa","CA","(*),(MW),(D),(S),(V),(YC),(WC)","Nightclubs","","",1999,"3/24/2023 7:16am","1945 Placentia ,  Costa Mesa ,  CA",-117.9332755,33.6439303,"1945 placentia ave, costa mesa, ca 92627, usa","Geocoded"
334,"Tin Lizzie Saloon","714/966-2029 11am-2am","752 St Clair",NA,"Costa Mesa","CA","(M),(NH)","Bars","","",1999,"3/24/2023 7:12am","752 St Clair ,  Costa Mesa ,  CA",-117.8881252,33.6777276,"752 st clair st, costa mesa, ca 92626, usa","Geocoded"
336,"Metropolis","Irvine 714/751-1145 7pm-2am, clsd Mon-Wed, more gay Sun, 18+ Fri & Sun, dress code wknds","4255 Campus Dr",NA,"Costa Mesa","CA","(GF),(D),MR-L,(F),(S),(18+)","Nightclubs","","",1999,"3/24/2023 7:15am","4255 Campus Dr ,  Costa Mesa ,  CA",-117.8409191,33.6509853,"4100-4255 campus dr, irvine, ca 92612, usa","Geocoded"
335,"Lion's Den","714/645-3830","719 W 19th St",NA,"Costa Mesa","CA","(MW),(D),(S),(YC)","Nightclubs","","",1999,"3/24/2023 7:13am","719 W 19th St ,  Costa Mesa ,  CA",-117.929065,33.6427852,"719 w 19th st, costa mesa, ca 92627, usa","Geocoded"
339,"Silver Fox","408/255-3673 2pm-2am","10095 Saich Wy",NA,"Cupertino","CA","(M),(NH),(S),(WC)","Bars","","",1999,"3/24/2023 7:18am","10095 Saich Wy ,  Cupertino ,  CA",-122.0375373,37.3241175,"10095 saich way, cupertino, ca 95014, usa","Geocoded"
342,"Cafe Roma","(btwn 2nd & 3rd) 916/756-1615 6:30am-11pm","231 'E' St",NA,"Davis","CA","(*),(YC)","Cafes","","",1999,"3/24/2023 7:24am","231 'E' St ,  Davis ,  CA",-121.7416533,38.5441876,"231 e st, davis, ca 95616, usa","Geocoded"
341,"LGBT Resource Center","UC Davis 916/752-2452 info, referrals, mtgs, call for hours","105 University House",NA,"Davis","CA","(WC)","Info Lines & Services","","",1999,"3/24/2023 7:22am","105 University House ,  Davis ,  CA",-121.7346059,38.546601,"320 k st, davis, ca 95616, usa","Geocoded"
369,"L'Amour Shoppe","Oakland 510/465-4216","1905 San Pablo Ave",NA,"East Bay","CA","","Erotica","","",1999,"3/24/2023 8:00am","1905 San Pablo Ave ,  East Bay ,  CA",-122.2731564,37.8091454,"1905 san pablo ave, oakland, ca 94612, usa","Geocoded"
367,"Good Vibrations","Berkeley (at Dwight Way) 510/841-8987 clean, well-lighted sex toy store, also mail order","2504 San Pablo",NA,"East Bay","CA","","Erotica","","",1999,"3/24/2023 7:58am","2504 San Pablo ,  East Bay ,  CA",-122.3455263,37.9621457,"san pablo, ca, usa","Geocoded"
353,"Betty's To Go","Berkeley 510/548-9494 6:30am-5pm, from 8am wknds, sandwiches","1807 4th St",NA,"East Bay","CA","","Restaurants","","",1999,"3/24/2023 7:37am","1807 4th St ,  East Bay ,  CA",-122.3904666,37.7653456,"1807 4th st, san francisco, ca 94158, usa","Geocoded"
344,"Pacific Center","Berkeley 510/548-8283 10am-10pm, from noon Sat, 6pm-9pm Sun","2712 Telegraph Ave",NA,"East Bay","CA","","Info Lines & Services","","",1999,"3/24/2023 7:26am","2712 Telegraph Ave ,  East Bay ,  CA",-122.2593404,37.8611143,"2712 telegraph ave, berkeley, ca 94705, usa","Geocoded"
365,"Steamworks","Berkeley 510/845-8992 24hrs, call for recorded info","2107 4th St",NA,"East Bay","CA","","Men's Clubs","","",1999,"3/24/2023 7:53am","2107 4th St ,  East Bay ,  CA",-122.390467,37.7652158,"2107 4th st, san francisco, ca 94158, usa","Geocoded"
354,"Bison Brewery","Berkeley (at Parker) 510/841-7734 11am-1am, live music, sandwiches","2598 Telegraph",NA,"East Bay","CA","(BW),(WC)","Restaurants","","",1999,"3/24/2023 7:38am","2598 Telegraph ,  East Bay ,  CA",-122.2589859,37.8633443,"2598 telegraph ave, berkeley, ca 94704, usa","Geocoded"
351,"The Edible Complex","Oakland 510/658-2172 7:30am-midnight, 8:30am-1am Fri-Sat, mostly students","5600 College",NA,"East Bay","CA","(*)","Cafes","","",1999,"3/24/2023 7:35am","5600 College ,  East Bay ,  CA",-117.0584595,32.7694208,"college east, san diego, ca, usa","Geocoded"
368,"Hollywood Adult Books","Oakland 510/654-1169","5686 Telegraph Ave",NA,"East Bay","CA","","Erotica","","",1999,"3/24/2023 7:59am","5686 Telegraph Ave ,  East Bay ,  CA",-122.2612636,37.8428422,"5686 telegraph ave, oakland, ca 94609, usa","Geocoded"
352,"Mimosa Cafe","Oakland 510/465-2948 11am-9pm, from 9am wknds, till 2pm Sun, clsd Mon","462 Santa Clara",NA,"East Bay","CA","(BW)","Cafes","","",1999,"3/24/2023 7:36am","462 Santa Clara ,  East Bay ,  CA",-121.8804046,37.3406083,"462 e santa clara st, san jose, ca 95112, usa","Geocoded"
348,"White Horse","Oakland 510/652-3820 1pm-2am, from 3pm Mon-Tue, popular Fri night","6551 Telegraph Ave",NA,"East Bay","CA","(MW),(D),(WC)","Bars","","",1999,"3/24/2023 7:30am","6551 Telegraph Ave ,  East Bay ,  CA",-122.2605418,37.851828,"6551 telegraph ave, oakland, ca 94609, usa","Geocoded"
349,"Cafe Sorrento","(at Telegraph), Berkeley 510/548-8220 7am-8pm, 9am-4pm Sat, clsd Sun, Italian","2510 Channing",NA,"East Bay","CA","MR","Cafes","","",1999,"3/24/2023 7:32am","2510 Channing ,  East Bay ,  CA",-122.2582962,37.8667454,"2510 channing, 2510 channing way, berkeley, ca 94720, usa","Geocoded"
345,"Elmwood House","Berkeley 510/540-5123, 800/540-3050","2609 College Ave",NA,"East Bay","CA","GS,GO","Accommodations","","",1999,"3/24/2023 7:27am","2609 College Ave ,  East Bay ,  CA",-122.2534024,37.8634885,"2609 college ave, berkeley, ca 94704, usa","Geocoded"
360,"Easy Going","Berkeley (at Rose) 510/843-3533 10am-7pm, till 6pm Sat, noon-6pm Sun, travel books & accessories","1385 Shattuck",NA,"East Bay","CA","","Bookstores","","",1999,"3/24/2023 7:47am","1385 Shattuck ,  East Bay ,  CA",-122.2691549,37.8822454,"1385 shattuck ave., berkeley, ca 94709, usa","Geocoded"
357,"Mama Royale","Oakland 510/547-7600 7am-3pm, from 8am wknds, come early for excellent weekend brunch","4012 Broadway",NA,"East Bay","CA","(*),(W),(BW),(WC)","Restaurants","","",1999,"3/24/2023 7:41am","4012 Broadway ,  East Bay ,  CA",-122.4464582,37.7928115,"4012 broadway, san francisco, ca 94115, usa","Geocoded"
356,"La Mediterranee","Berkeley (at Ashby) 510/540-7773 10am-10pm","2936 College Ave",NA,"East Bay","CA","(BW)","Restaurants","","",1999,"3/24/2023 7:40am","2936 College Ave ,  East Bay ,  CA",-122.2533803,37.8575954,"2936 college ave, berkeley, ca 94705, usa","Geocoded"
362,"Shambhala Booksellers","Berkeley 510/848-8443 11am-8pm, spiritual","2482 Telegraph Ave",NA,"East Bay","CA","(WC)","Bookstores","","",1999,"3/24/2023 7:49am","2482 Telegraph Ave ,  East Bay ,  CA",-122.2587666,37.8653114,"2482 telegraph ave, berkeley, ca 94704, usa","Geocoded"
370,"Passion Flower","Oakland (at Piedmont) 510/601-7750","4 Yosemite Ave",NA,"East Bay","CA","","Erotica","","",1999,"3/24/2023 8:00am","4 Yosemite Ave ,  East Bay ,  CA",-121.9142782,37.3276803,"yosemite ave, san jose, ca 95126, usa","Geocoded"
363,"Ancient Ways","Oakland 510/653-3244 11am-7pm, extensive occult supplies, classes, readings","4075 Telegraph Ave",NA,"East Bay","CA","","Retail Shops","","",1999,"3/24/2023 7:50am","4075 Telegraph Ave ,  East Bay ,  CA",-122.2644329,37.8298576,"4075 telegraph ave, oakland, ca 94609, usa","Geocoded"
350,"Cafe Strada","Berkeley (at Bancroft) 510/843-5282 6:30am-midnight, students, great patio & white mochas","2300 College Ave",NA,"East Bay","CA","(*),(WC)","Cafes","","",1999,"3/24/2023 7:34am","2300 College Ave ,  East Bay ,  CA",-122.2548648,37.869071,"2300 college ave, berkeley, ca 94704, usa","Geocoded"
347,"Cabel's Reef","Oakland 510/451-3777 noon-2am","2272 Telegraph Ave",NA,"East Bay","CA","(MW),(D),MR","Bars","","",1999,"3/24/2023 7:29am","2272 Telegraph Ave ,  East Bay ,  CA",-122.2686011,37.8123739,"2272 telegraph ave, oakland, ca 94612, usa","Geocoded"
359,"Cody's","Berkeley (at Haste) 510/845-7852 10am-10pm, frequent readings & lectures, lesbigay section","2454 Telegraph Ave",NA,"East Bay","CA","(WC)","Bookstores","","",1999,"3/24/2023 7:44am","2454 Telegraph Ave ,  East Bay ,  CA",-122.2587955,37.8658739,"2454 telegraph ave, berkeley, ca 94704, usa","Geocoded"
355,"Chez Panisse","Berkeley (at Cedar) 510/548-5525 upscale nouvelle California","1517 Shattuck Ave",NA,"East Bay","CA","(BW)","Restaurants","","",1999,"3/24/2023 7:39am","1517 Shattuck Ave ,  East Bay ,  CA",-122.2688226,37.8796123,"1517 shattuck ave., berkeley, ca 94709, usa","Geocoded"
358,"Boadecia's Books","Kensington 510/559-9184 11am-8pm, lesbigay","398 Colusa Ave",NA,"East Bay","CA","","Bookstores","","",1999,"3/24/2023 7:43am","398 Colusa Ave ,  East Bay ,  CA",-122.2872369,37.8993382,"398 colusa ave, kensington, ca 94707, usa","Geocoded"
346,"Bench & Bar","Oakland 510/444-2266 3pm-2am, Fri, Sat, Latin night Mon","120 11th St",NA,"East Bay","CA","(*),(M),(D),(P),(S),(YC),(WC)","Bars","","",1999,"3/24/2023 7:28am","120 11th St ,  East Bay ,  CA",-122.2586843,37.7972518,"120 e 11th st, oakland, ca 94606, usa","Geocoded"
371,"F St Bookstore","(at Magnolia) 619/447-0381 24hrs","158 E Main",NA,"El Cajon","CA","(WC)","Erotica","","",1999,"3/24/2023 8:01am","158 E Main ,  El Cajon ,  CA",-116.9609898,32.7951953,"158 e main st, el cajon, ca 92020, usa","Geocoded"
377,"Club Triangle (Club West)","(at 'G' St) 707/444-2582 8pm-2am, gay Sun","535 5th St",NA,"Eureka","CA","(GF),(D),(A),(CW),(F),(E),(18+),(WC)","Nightclubs","","",1999,"3/24/2023 8:07am","535 5th St ,  Eureka ,  CA",-124.1651737,40.8023005,"535 5th st, eureka, ca 95501, usa","Geocoded"
376,"Lost Cause Brewery Pub","707/445-4480 11am-midnight, kitchen open till midnight","617 4th St",NA,"Eureka","CA","(GF),(F),(BW),(WC)","Bars","","",1999,"3/24/2023 8:06am","617 4th St ,  Eureka ,  CA",-124.1647365,40.8032429,"617 4th st, eureka, ca 95501, usa","Geocoded"
379,"Seafood Grotto","(at 6th) 707/443-2075 lunch & dinner, informal, also a fish market","605 Broadway",NA,"Eureka","CA","","Restaurants","","",1999,"3/24/2023 8:12am","605 Broadway ,  Eureka ,  CA",-124.1748338,40.7997044,"605 broadway st, eureka, ca 95501, usa","Geocoded"
378,"Folie Deuce","Arcata 707/822-1042 dinner only, clsd Sun-Mon, bistro","1551 'G' St",NA,"Eureka","CA","(BW),(WC)","Restaurants","","",1999,"3/24/2023 8:08am","1551 'G' St ,  Eureka ,  CA",-124.1625586,40.7933092,"1551 g st, eureka, ca 95501, usa","Geocoded"
373,"A Weaver's Inn","707/443-8119, 800/992-8119 stately Queen Anne w/ beautiful gardens","1440 'B' St",NA,"Eureka","CA","(GF)","Accommodations","","",1999,"3/24/2023 8:04am","1440 'B' St ,  Eureka ,  CA",-124.1699961,40.7933731,"1440 b st, eureka, ca 95501, usa","Geocoded"
375,"Carter House Victorians","707/444-8062, 800/404-1390 enclave of 4 unique inns, full brkfst","301 'L' St",NA,"Eureka","CA","(GF),NS,(WC)","Accommodations","","",1999,"3/24/2023 8:05am","301 'L' St ,  Eureka ,  CA",-124.1596305,40.8043278,"301 l st, eureka, ca 95501, usa","Geocoded"
380,"Booklegger","707/445-1344 10am-5:30pm Mon-Sat, 11am-4pm Sun, mostly used, lesbigay section","402 2nd St",NA,"Eureka","CA","(WC)","Bookstores","","",1999,"3/24/2023 8:13am","402 2nd St ,  Eureka ,  CA",-124.1674998,40.8041861,"402 2nd st, eureka, ca 95501, usa","Geocoded"
374,"An Elegant Victorian Mansion","707/444-3144 full brkfst","406 'C' St",NA,"Eureka","CA","(GF),NS","Accommodations","","",1999,"3/24/2023 8:04am","406 'C' St ,  Eureka ,  CA",-124.1693707,40.802217,"406 c st, eureka, ca 95501, usa","Geocoded"
381,"The Gingerbread Mansion Inn","707/786-4000, 800/952-4136 a grand Victorian lady, afternoon tea, full brkfst","400 Berding St",NA,"Ferndale","CA","(*),(GF),NS","Accommodations","","",1999,"3/24/2023 8:14am","400 Berding St ,  Ferndale ,  CA",-124.2626101,40.5757165,"400 berding st, ferndale, ca 95536, usa","Geocoded"
382,"Le Sex Shoppe","909/350-4717 24hrs","14589 Valley Blvd",NA,"Fontana","CA","","Erotica","","",1999,"3/24/2023 8:15am","14589 Valley Blvd ,  Fontana ,  CA",-117.4871179,34.0685283,"14589 valley blvd, fontana, ca 92335, usa","Geocoded"
385,"Cleone Lodge In","707/964-2788, 800/400-2189 country garden retreat on 9-1/2 acres, cottages, hot tub","24600 N Hwy 1",NA,"Fort Bragg","CA","(GF)","Accommodations","","",1999,"3/24/2023 8:18am","24600 N Hwy 1 ,  Fort Bragg ,  CA",-123.7817346,39.4934416,"24600 ca-1, fort bragg, ca 95437, usa","Geocoded"
383,"Annie's Jug Handle Beach B&B","707/964-1415, 800/964-9957 full brkfst","32980 Gibney Ln",NA,"Fort Bragg","CA","(GF)","Accommodations","","",1999,"3/24/2023 8:16am","32980 Gibney Ln ,  Fort Bragg ,  CA",-123.8133232,39.3834579,"32980 gibney ln, fort bragg, ca 95437, usa","Geocoded"
387,"Windsong Books & Records","707/964-2050 10am-5:30pm, till 4pm Sun, mostly used","324 N Main",NA,"Fort Bragg","CA","","Bookstores","","",1999,"3/24/2023 8:19am","324 N Main ,  Fort Bragg ,  CA",-123.805667,39.4447881,"324 n main st, fort bragg, ca 95437, usa","Geocoded"
384,"Aslan House","707/964-2788 cottages, hot tub, romantic & private, partial ocean view","24600 N Hwy 1",NA,"Fort Bragg","CA","(GF)","Accommodations","","",1999,"3/24/2023 8:17am","24600 N Hwy 1 ,  Fort Bragg ,  CA",-123.7817346,39.4934416,"24600 ca-1, fort bragg, ca 95437, usa","Geocoded"
388,"L'Amour Shoppe","(at Fremont) 510/659-8161 24hrs","40555 Grimmer Blvd",NA,"Fremont","CA","","Erotica","","",1999,"3/24/2023 8:21am","40555 Grimmer Blvd ,  Fremont ,  CA",-121.9659519,37.5362965,"40555 grimmer blvd, fremont, ca 94538, usa","Geocoded"
389,"Central Park aka Lake Elizabeth","trails right of lake and parking lot","Pasoe Padre & Stevenson",NA,"Fremont","CA","Cruisy Area","Cruisy Areas","","",1999,"3/24/2023 8:21am","Pasoe Padre & Stevenson ,  Fremont ,  CA",NA,NA,"NA","Geocoded"
402,"Wildcat Book Store","(at 'G' St) 209/237-4525","1535 Fresno St",NA,"Fresno","CA","","Erotica","","",1999,"3/24/2023 8:33am","1535 Fresno St ,  Fresno ,  CA",-119.7965455,36.733269,"1535 fresno st, fresno, ca 93706, usa","Geocoded"
396,"The Express","209/233-2791 hrs vary, 3 bars, cafe, patio","708 N Blackstone",NA,"Fresno","CA","(*),(MW),(D),(E),(V),(WC)","Bars","","",1999,"3/24/2023 8:28am","708 N Blackstone ,  Fresno ,  CA",-119.7902844,36.7526634,"708 n blackstone ave, fresno, ca 93701, usa","Geocoded"
397,"Palace","209/264-8283 3pm-2am","4030 E Belmont Ave",NA,"Fresno","CA","(W),(NH),(D),(CW),(S)","Bars","","",1999,"3/24/2023 8:28am","4030 E Belmont Ave ,  Fresno ,  CA",-119.7573238,36.7502101,"4030 e belmont ave, fresno, ca 93702, usa","Geocoded"
398,"Red Lantern","209/251-5898 2pm-2am","4618 E Belmont Ave",NA,"Fresno","CA","(M),(NH),(WC)","Bars","","",1999,"3/24/2023 8:29am","4618 E Belmont Ave ,  Fresno ,  CA",-119.7446313,36.7502867,"4618 e belmont ave, fresno, ca 93702, usa","Geocoded"
391,"GUS (Gay United Service)","209/268-3541 8pm-5pm Mon-Fri, counseling & referrals","1999 Tuolumne #625",NA,"Fresno","CA","","Info Lines & Services","","",1999,"3/24/2023 8:24am","1999 Tuolumne #625 ,  Fresno ,  CA",-119.7950348,36.7378176,"1999 tuolumne st #625, fresno, ca 93721, usa","Geocoded"
392,"Serenity Fellowship AA","209/221-6907 8pm Th","2812 N Blackstone",NA,"Fresno","CA","","Info Lines & Services","","",1999,"3/24/2023 8:24am","2812 N Blackstone ,  Fresno ,  CA",-119.7901967,36.7760999,"2812 n blackstone ave, fresno, ca 93703, usa","Geocoded"
394,"The Cave","209/251-5972 2pm-2am","4538 E Belmont Ave",NA,"Fresno","CA","(M),(NH),(L),(BW)","Bars","","",1999,"3/24/2023 8:26am","4538 E Belmont Ave ,  Fresno ,  CA",-119.7482733,36.7502773,"4538 e belmont ave, fresno, ca 93702, usa","Geocoded"
400,"Cafe Express","209/233-1791 6pm-9pm, champagne brunch 10am-3pm Sun, clsd Mon, fine dining","708 N Blackstone",NA,"Fresno","CA","","Restaurants","","",1999,"3/24/2023 8:31am","708 N Blackstone ,  Fresno ,  CA",-119.7902844,36.7526634,"708 n blackstone ave, fresno, ca 93701, usa","Geocoded"
395,"El Sombrero","209/442-1818","3848 E Belmont Ave",NA,"Fresno","CA","","Bars","","",1999,"3/24/2023 8:27am","3848 E Belmont Ave ,  Fresno ,  CA",-119.759863,36.7501689,"3848 e belmont ave, fresno, ca 93702, usa","Geocoded"
401,"Only For You","209/498-0284 noon-9pm, till 10pm Th-Sat, lesbigay","1460 N Van Ness Ave",NA,"Fresno","CA","","Erotica","","",1999,"3/24/2023 8:33am","1460 N Van Ness Ave ,  Fresno ,  CA",-119.7987008,36.7625174,"1460 n van ness ave, fresno, ca 93728, usa","Geocoded"
399,"Java Cafe","(at Wishon) 209/237-5282 6:30am-11pm, till midnight Fri-Sat, bohemian","805 E Olive",NA,"Fresno","CA","(*),(S),(WC)","Bars","","",1999,"3/24/2023 8:30am","805 E Olive ,  Fresno ,  CA",-119.8016313,36.757772,"805 e olive ave, fresno, ca 93728, usa","Geocoded"
408,"Midnights Videos","714/534-9823","8745 Garden Grove Blvd",NA,"Garden Grove","CA","","Erotica","","",1999,"3/24/2023 8:39am","8745 Garden Grove Blvd ,  Garden Grove ,  CA",-117.9798593,33.7741573,"8745 garden grove blvd, garden grove, ca 92841, usa","Geocoded"
409,"Party House","714/534-9996","8751 Garden Grove Blvd",NA,"Garden Grove","CA","","Erotica","","",1999,"3/24/2023 8:39am","8751 Garden Grove Blvd ,  Garden Grove ,  CA",-117.9797208,33.7740767,"8751 garden grove blvd, garden grove, ca 92844, usa","Geocoded"
405,"Frat House","714/897-3431 9am-2am","8112 Garden Grove Blvd",NA,"Garden Grove","CA","(*),(MW),(D),MR,(S),(YC),(WC)","Bars","","",1999,"3/24/2023 8:36am","8112 Garden Grove Blvd ,  Garden Grove ,  CA",-117.9906412,33.7735475,"8112 garden grove blvd, garden grove, ca 92844, usa","Geocoded"
407,"Hip Pocket","714/638-8595","12686 Garden Grove Blvd",NA,"Garden Grove","CA","","Erotica","","",1999,"3/24/2023 8:38am","12686 Garden Grove Blvd ,  Garden Grove ,  CA",-117.9116727,33.7739824,"12686 garden grove blvd, garden grove, ca 92843, usa","Geocoded"
410,"Video Rental & Preview Center","(at Magnolia) 714/534-9922","8743 Garden Grove Blvd",NA,"Garden Grove","CA","","Erotica","","",1999,"3/24/2023 8:40am","8743 Garden Grove Blvd ,  Garden Grove ,  CA",-117.9798364,33.7741473,"8743 garden grove blvd, garden grove, ca 92844, usa","Geocoded"
406,"A-Z Bookstore","714/534-9349 24hrs wknds","8192 Garden Grove Blvd",NA,"Garden Grove","CA","","Erotica","","",1999,"3/24/2023 8:37am","8192 Garden Grove Blvd ,  Garden Grove ,  CA",-117.9891194,33.7735548,"8192 garden grove blvd, garden grove, ca 92844, usa","Geocoded"
412,"Friar Tucks","Nevada City 916/265-9093 dinner from 5pm, American/fondue, full bar","111 N Paine St",NA,"Grass Valley","CA","(WC)","Restaurants","","",1999,"3/24/2023 8:42am","111 N Paine St ,  Grass Valley ,  CA",-121.0568619,39.2113956,"pine st, grass valley, ca 95945, usa","Geocoded"
411,"Murphy's Inn","916/273-6873 full brkfst","318 Neal St",NA,"Grass Valley","CA","(GF),NS","Accommodations","","",1999,"3/24/2023 8:41am","318 Neal St ,  Grass Valley ,  CA",-121.0646651,39.2182416,"318 neal st, grass valley, ca 95945, usa","Geocoded"
955,"Mill St Grill","Guerneville (at Triple 'R' Resort') 707/869-0691 full bar, patio","16390 4th St",NA,"Guerneville","CA","","Restaurants","","",1999,"4/4/2023 7:33am","16390 4th St ,  Guerneville ,  CA",-123.000029,38.5035064,"16390 4th st, guerneville, ca 95446, usa","Geocoded"
946,"Mr T's Bullpen","Guerneville (at Church) 707/869-3377 6pm-2am, patio","16246 1st St",NA,"Guerneville","CA","(MW),(NH),(WC)","Bars","","",1999,"4/3/2023 7:41am","16246 1st St ,  Guerneville ,  CA",-122.9980756,38.5015627,"16246 first st, guerneville, ca 95446, usa","Geocoded"
927,"Bunkhouse","Guerneville (at Brookside Lane) cruise bar","16467 River Rd",NA,"Guerneville","CA","(D)","Bars,Cruisy Areas","","",1999,"4/3/2023 7:22am","16467 River Rd ,  Guerneville ,  CA",-123.0036144,38.5011061,"16467 river rd, guerneville, ca 95446, usa","Geocoded"
960,"Up the River","Guerneville (at Armstrong Woods Rd) 707/869-3167 cards, gifts, T-shirts & more","16212 Main St",NA,"Guerneville","CA","","Retail Shops","","",1999,"4/4/2023 7:38am","16212 Main St ,  Guerneville ,  CA",-122.9974944,38.5021821,"16212 main st, guerneville, ca 95446, usa","Geocoded"
959,"River Reader","Guerneville (at Mill) 707/869-2240 10am-6pm, extended hrs during summer","16355 Main St",NA,"Guerneville","CA","(WC)","Bookstores","","",1999,"4/4/2023 7:37am","16355 Main St ,  Guerneville ,  CA",-122.9993944,38.5018679,"16355 main st, guerneville, ca 95446, usa","Geocoded"
953,"Flavors Unlimited","River Rd, Guerneville 707/869-0425 hrs vary, custom-blended ice cream","16450 Main Street",NA,"Guerneville","CA","","Restaurants","","",1999,"4/4/2023 7:31am","16450 Main Street ,  Guerneville ,  CA",-123.0010848,38.502145,"16450 main st, guerneville, ca 95446, usa","Geocoded"
924,"Faerie Ring Campground","Guerneville 707/869-2746","16747 Armstrong Woods Rd",NA,"Guerneville","CA","(GF)","Accommodations","","",1999,"4/3/2023 7:19am","16747 Armstrong Woods Rd ,  Guerneville ,  CA",-122.997866,38.526623,"16747 armstrong woods rd, guerneville, ca 95446, usa","Geocoded"
922,"Avalon","Guerneville 707/869-9566","4th & Mill St",NA,"Guerneville","CA","(GF),(SW)","Accommodations","","",1999,"4/3/2023 7:17am","4th & Mill St ,  Guerneville ,  CA",NA,NA,"NA","Geocoded"
926,"Fife's Resort","Guerneville (at Brookside Lane) 707/869-0656, 800/734-3371 cabins & campsites","16467 River Rd",NA,"Guerneville","CA","(MW),(F),(SW),(WC)","Accommodations","","",1999,"4/3/2023 7:21am","16467 River Rd ,  Guerneville ,  CA",-123.0036144,38.5011061,"16467 river rd, guerneville, ca 95446, usa","Geocoded"
948,"River Business","Guerneville (at Armstrong Woods Rd) 707/869-3400 noon-2am (seasonal)","16225 Main St",NA,"Guerneville","CA","(M),(NH),(F),(WC)","Bars","","",1999,"4/3/2023 7:43am","16225 Main St ,  Guerneville ,  CA",-122.9974773,38.5018554,"16225 main st, guerneville, ca 95446, usa","Geocoded"
950,"Big Bertha's Burgers","Guerneville 707/869-2239 11am-8pm","16357 Main St",NA,"Guerneville","CA","(BW)","Restaurants","","",1999,"4/3/2023 7:46am","16357 Main St ,  Guerneville ,  CA",-122.9994784,38.501857,"16357 main st, guerneville, ca 95446, usa","Geocoded"
921,"Applewood--An Estate Inn","Guerneville (at Mays Canyon) 707/869-9093, 800/555-8509 21+, full brkfst","13555 Hwy 116",NA,"Guerneville","CA","(GF),(F),(SW),NS,(WC)","Accommodations","","",1999,"4/3/2023 7:16am","13555 Hwy 116 ,  Guerneville ,  CA",-122.9888979,38.499542,"13555 ca-116, guerneville, ca 95446, usa","Geocoded"
951,"Burdon's","Guerneville (at Orchard Rd) 707/869-2615 cont'l/pasta, full bar","15405 River Rd",NA,"Guerneville","CA","(MW),(WC)","Restaurants","","",1999,"4/3/2023 7:47am","15405 River Rd ,  Guerneville ,  CA",-122.9867419,38.5090669,"15405 river rd, guerneville, ca 95446, usa","Geocoded"
944,"The Willows","Guerneville (at Hwy 116) 707/869-2824, 800/953-2828 country lodge, camping","15905 River Rd",NA,"Guerneville","CA","(MW),NS","Accommodations","","",1999,"4/3/2023 7:39am","15905 River Rd ,  Guerneville ,  CA",-122.9929349,38.5040599,"15905 river rd, guerneville, ca 95446, usa","Geocoded"
947,"Rainbow Cattle Co","Guerneville (at Armstrong Woods Rd) 707/869-0206 6am-2am, look up Bruce the Barber in the DJ booth for a treat!","16220 River Rd",NA,"Guerneville","CA","(M),(NH)","Bars","","",1999,"4/3/2023 7:42am","16220 River Rd ,  Guerneville ,  CA",-122.9977675,38.5022174,"16220 river rd, guerneville, ca 95446, usa","Geocoded"
936,"Mountain Lodge","Guerneville (btwn Mill & Church) 707/869-3722 apts, hot tub","16350 First St",NA,"Guerneville","CA","(MW),(SW),(WC)","Accommodations","","",1999,"4/3/2023 7:31am","16350 First St ,  Guerneville ,  CA",-122.9995548,38.5013905,"16350 first st, guerneville, ca 95446, usa","Geocoded"
935,"Mikki's River View Retreat","Guerneville 707/869-3040 vacation home w/deck, hot tub","14603 River Rd",NA,"Guerneville","CA","(GF)","Accommodations","","",1999,"4/3/2023 7:30am","14603 River Rd ,  Guerneville ,  CA",-122.9775015,38.5194368,"14603 river rd, guerneville, ca 95446, usa","Geocoded"
949,"Coffee Bazaar","Guerneville (at River Rd) 707/869-9706 7am-8pm, soups, salads & pastries","14045 Armstrong Woods Rd",NA,"Guerneville","CA","","Cafes","","",1999,"4/3/2023 7:44am","14045 Armstrong Woods Rd ,  Guerneville ,  CA",-122.9972353,38.5026474,"14045 armstrong woods rd, guerneville, ca 95446, usa","Geocoded"
945,"Molly Brown's Saloon","Guerneville (at River Rd) 707/869-0511 4pm-2am, from noon wknds, till midnight Sun-Th","14120 Old Cazadero Rd",NA,"Guerneville","CA","(MW),(F)","Bars","","",1999,"4/3/2023 7:40am","14120 Old Cazadero Rd ,  Guerneville ,  CA",-123.0090034,38.4965572,"14120 old cazadero rd, guerneville, ca 95446, usa","Geocoded"
937,"Paradise Cove Resort","Guerneville 707/869-2706 studio units","14711 Armstrong Woods Rd",NA,"Guerneville","CA","(MW),(SW)","Accommodations","","",1999,"4/3/2023 7:31am","14711 Armstrong Woods Rd ,  Guerneville ,  CA",-122.9950575,38.5118301,"14711 armstrong woods rd, guerneville, ca 95446, usa","Geocoded"
941,"Russian River Resort/Triple 'R' Resort","Guerneville (at Mills) 707/869-0691, 800/417-3767 hot tub; bar, restaurant","16390 4th St",NA,"Guerneville","CA","(MW),(E),(V),(SW),(N),(WC)","Accommodations","","",1999,"4/3/2023 7:36am","16390 4th St ,  Guerneville ,  CA",-123.000029,38.5035064,"16390 4th st, guerneville, ca 95446, usa","Geocoded"
954,"The Hiding Place","Guerneville (at Foothill) 707/869-2887 8am-9pm, homecooking","15025 River Rd",NA,"Guerneville","CA","","Restaurants","","",1999,"4/4/2023 7:32am","15025 River Rd ,  Guerneville ,  CA",-122.9831841,38.514374,"15025 river rd, guerneville, ca 95446, usa","Geocoded"
938,"Redwood Grove RV Park & Campground","Guerneville (at Mays Canyon) 707/869-3670","16140 Neely Rd",NA,"Guerneville","CA","(GF)","Accommodations","","",1999,"4/3/2023 7:33am","16140 Neely Rd ,  Guerneville ,  CA",-122.9945076,38.49852,"16140 neeley rd, guerneville, ca 95446, usa","Geocoded"
930,"Highlands Resort","Guerneville 707/869-0333 hot tub","14000 Woodland Dr",NA,"Guerneville","CA","(MW),(SW),(N)","Accommodations","","",1999,"4/3/2023 7:25am","14000 Woodland Dr ,  Guerneville ,  CA",-122.9963334,38.5046389,"14000 woodland dr, guerneville, ca 95446, usa","Geocoded"
957,"Sweet's River Grill","Guerneville (at Armstrong Woods Rd) 707/869-3383 noon-9pm","16251 Main St",NA,"Guerneville","CA","(*)","Restaurants","","",1999,"4/4/2023 7:35am","16251 Main St ,  Guerneville ,  CA",-122.9981521,38.5018141,"16251 main st, guerneville, ca 95446, usa","Geocoded"
956,"River Inn Restaurant","Guerneville 707/869-0481 seasonal, local favorite","16141 Main St",NA,"Guerneville","CA","(WC)","Restaurants","","",1999,"4/4/2023 7:34am","16141 Main St ,  Guerneville ,  CA",-122.9962014,38.5020388,"16141 main st, guerneville, ca 95446, usa","Geocoded"
416,"San Benito House","650/726-3425 Mediterranean, bar","356 Main St",NA,"Half Moon Bay","CA","(WC)","Restaurants","","",1999,"3/24/2023 8:45am","356 Main St ,  Half Moon Bay ,  CA",-122.4293609,37.4648228,"356 main st, half moon bay, ca 94019, usa","Geocoded"
415,"Pasta Moon","650/726 5125","315 Main St",NA,"Half Moon Bay","CA","(BW),(WC)","Restaurants","","",1999,"3/24/2023 8:44am","315 Main St ,  Half Moon Bay ,  CA",NA,NA,"NA","Geocoded"
413,"Mill Rose Inn","650/726-8750, 800/900-7673 classic European elegance by the sea, full brkfst, hot tub","615 Mill St",NA,"Half Moon Bay","CA","(GF),NS","Accommodations","","",1999,"3/24/2023 8:43am","615 Mill St ,  Half Moon Bay ,  CA",-122.4305272,37.4649778,"615 mill st, half moon bay, ca 94019, usa","Geocoded"
417,"El Capitan","310/675-3436 4pm-2am, from noon Fri-Sun","13825 S Hawthorne Blvd",NA,"Hawthorne","CA","(MW),(NH),(BW)","Bars","","",1999,"3/24/2023 8:46am","13825 S Hawthorne Blvd ,  Hawthorne ,  CA",-118.3530205,33.9058655,"13825 hawthorne blvd, hawthorne, ca 90250, usa","Geocoded"
422,"L'Amour Shoppe","510/886-7777","22553 Main St",NA,"Hayward","CA","","Erotica","","",1999,"3/24/2023 8:49am","22553 Main St ,  Hayward ,  CA",-122.083345,37.6732238,"22553 main st, hayward, ca 94541, usa","Geocoded"
421,"Out of the Closet","510/582-5833 noon-6pm Sun & Wed, till 11pm Th-Sat, clsd Mon-Tue","22544 Main St",NA,"Hayward","CA","","Retail Shops","","",1999,"3/24/2023 8:48am","22544 Main St ,  Hayward ,  CA",-122.0830637,37.6734898,"22544 main st, hayward, ca 94541, usa","Geocoded"
418,"Rainbow Room","(at Sunset) 510/582-8078 noon-2am","21859 Mission Blvd",NA,"Hayward","CA","(MW),(D)","Bars","","",1999,"3/24/2023 8:46am","21859 Mission Blvd ,  Hayward ,  CA",-122.0920372,37.6782749,"21859 mission blvd, hayward, ca 94541, usa","Geocoded"
420,"Turf Club","510/881-9877 10am-2am, patio bar is summer","22517 Mission Blvd",NA,"Hayward","CA","(MW),(D),(CW),(E)","Bars","","",1999,"3/24/2023 8:48am","22517 Mission Blvd ,  Hayward ,  CA",-122.0848244,37.672644,"22517 mission blvd, hayward, ca 94541, usa","Geocoded"
419,"Rumors","510/733-2334 10am-2am","22554 Main St",NA,"Hayward","CA","(M),(NH),(D),(WC)","Bars","","",1999,"3/24/2023 8:47am","22554 Main St ,  Hayward ,  CA",-122.08299,37.673481,"22554 main st, hayward, ca 94541, usa","Geocoded"
428,"Chateau Souverain","Geyserville 707/433-8281 lunch & dinner Fri-Sun only, fine dining","400 Souverain Rd",NA,"Healdsburg","CA","","Restaurants","","",1999,"3/24/2023 10:21pm","400 Souverain Rd ,  Healdsburg ,  CA",NA,NA,"NA","Geocoded"
426,"Twin Towers River Ranch","(at Redwood Hwy) 707/433-4443 1864 Victorian farmhouse on 5 acres, also vacation house","615 Bailhache",NA,"Healdsburg","CA","(GF)","Accommodations","","",1999,"3/24/2023 10:19pm","615 Bailhache ,  Healdsburg ,  CA",-122.8470326,38.6064865,"615 bailhache ave, healdsburg, ca 95448, usa","Geocoded"
424,"Camellia Inn","707/433-8182, 800/727-8182 full brkfst","211 North St",NA,"Healdsburg","CA","(GF)","Accommodations","","",1999,"3/24/2023 8:51am","211 North St ,  Healdsburg ,  CA",-122.8681139,38.6126969,"211 north st, healdsburg, ca 95448, usa","Geocoded"
427,"Vintage Towers B&B","Cloverdale 707/894-4535, 888/886-9377 Queen Anne mansion, full brkfst","302 N Main St",NA,"Healdsburg","CA","(GF),NS","Accommodations","","",1999,"3/24/2023 10:20pm","302 N Main St ,  Healdsburg ,  CA",NA,NA,"NA","Geocoded"
430,"USJ Video & Books","(at 6th) 310/374-9207","544 Pacific Coast Hwy",NA,"Hermosa Beach","CA","","Erotica","","",1999,"3/24/2023 10:23pm","544 Pacific Coast Hwy ,  Hermosa Beach ,  CA",-118.3911764,33.8591709,"544 pacific coast hwy, hermosa beach, ca 90254, usa","Geocoded"
429,"Tender Box","310/318-2882","809 Pacific Coast Hwy",NA,"Hermosa Beach","CA","","Erotica","","",1999,"3/24/2023 10:22pm","809 Pacific Coast Hwy ,  Hermosa Beach ,  CA",-118.3921368,33.8608502,"809 pacific coast hwy, hermosa beach, ca 90254, usa","Geocoded"
431,"Paradise Specialties","714/898-0400","7344 Center",NA,"Huntington Beach","CA","","Erotica","","",1999,"3/24/2023 10:24pm","7344 Center ,  Huntington Beach ,  CA",NA,NA,"NA","Geocoded"
432,"The Pine Cove Inn","909/659-5033 full brkfst","23481 Hwy 243",NA,"Idyllwild","CA","(GF)","Accommodations","","",1999,"3/24/2023 10:24pm","23481 Hwy 243 ,  Idyllwild ,  CA",-116.7379736,33.7567567,"23481 ca-243, idyllwild-pine cove, ca 92549, usa","Geocoded"
435,"Palm Avenue Books","619/575-5081 24hrs","1177 Palm Ave",NA,"Imperial Beach","CA","","Erotica","","",1999,"3/24/2023 10:27pm","1177 Palm Ave ,  Imperial Beach ,  CA",-117.1089413,32.583591,"1177 palm ave, imperial beach, ca 91932, usa","Geocoded"
436,"Annex","310/671-7323 noon-2am","835 S La Brea",NA,"Inglewood","CA","(M),(NH)","Bars","","",1999,"3/24/2023 10:27pm","835 S La Brea ,  Inglewood ,  CA",-118.3528465,33.9533782,"835 s la brea ave, inglewood, ca 90301, usa","Geocoded"
