"ID","Title","description","streetaddress","city","state","amenityfeatures","type","unclearaddress","uncleartype","Year","notes","dateadded","lastmodified","full.address","lon","lat","geoAddress","status"
1,"Chisholm Saloon","(Disco)","404 S. Galena","Aspen","CO","(M),(HIP),(YC),(D),(*)","Bars/Clubs","",NA,1980,NA,"3/30/2020 3:32pm","7/23/2020 7:26pm","404 S. Galena, Aspen, CO","-106.8187192","39.1877604","404 s galena st, aspen, co 81611, usa","Geocoded"
2,"Bunk House","(Ski resort guest house) (303) 453-6475","","Breckenridge","CO","(H),(W),(YC),(*)","Hotels","checked",NA,1980,NA,"3/30/2020 3:34pm","7/23/2020 7:26pm",", Breckenridge, CO","-106.0383518","39.4816537","breckenridge, co 80424, usa","Geocoded"
3,"Cellar Baths","(Below Hide & Seek)","512 W. Colorado","Colorado Springs","CO","","Baths","",NA,1980,NA,"3/30/2020 3:35pm","7/23/2020 7:26pm","512 W. Colorado, Colorado Springs, CO","-104.8349175","38.8328865","512 w colorado ave, colorado springs, co 80905, usa","Geocoded"
4,"Exit","","2028 Sheldon Ave.","Colorado Springs","CO","(WE),(*)","Bars/Clubs","",NA,1980,NA,"4/1/2020 2:43pm","7/23/2020 7:26pm","2028 Sheldon Ave., Colorado Springs, CO","-104.8579498","38.8420807","2028 sheldon ave, colorado springs, co 80904, usa","Geocoded"
5,"Denny's ","","I-25 at Bijou","Colorado Springs","CO","(M),(R),(C),(AH)","Restaurant","checked",NA,1980,NA,"4/1/2020 2:44pm","7/23/2020 7:26pm","I-25 at Bijou, Colorado Springs, CO","-104.8606574","38.8492482","w bijou st & 25th st, colorado springs, co 80904, usa","Geocoded"
6,"Hide & Seek Complex","(2 bars) (Disco)","512 W. Colorado","Colorado Springs","CO","(*),(R),(PT),(YC),(D)","Bars/Clubs,Restaurant","",NA,1980,NA,"4/1/2020 2:45pm","7/23/2020 7:26pm","512 W. Colorado, Colorado Springs, CO","-104.8349175","38.8328865","512 w colorado ave, colorado springs, co 80905, usa","Geocoded"
7,"Monarch Magazines","(Books) (Looking better)","","Colorado Springs","CO","","Book Store","",NA,1980,NA,"4/1/2020 2:46pm","7/23/2020 7:26pm",", Colorado Springs, CO","-104.8213634","38.8338816","colorado springs, co, usa","Geocoded"
8,"New Box Car, Ltd.","(Disco) (Looking better)","5939 N. Nevada","Colorado Springs","CO","(D)","Bars/Clubs","",NA,1980,NA,"4/1/2020 2:46pm","7/23/2020 7:26pm","5939 N. Nevada, Colorado Springs, CO","-104.8142891","38.9179472","5939 n nevada ave, colorado springs, co 80918, usa","Geocoded"
9,"The Place in the Back","(Many L) (Occ. S) (Looks promising)","1710 La Crede","Colorado Springs","CO","(L),(S),(PT),(D)","Bars/Clubs","",NA,1980,NA,"4/1/2020 2:47pm","7/23/2020 7:26pm","1710 La Crede, Colorado Springs, CO","-118.2436849","34.0522342","los angeles, ca, usa","Geocoded"
10,"Acacia Park","","","Colorado Springs","CO","Cruisy Area","Cruising Areas","checked",NA,1980,NA,"4/1/2020 2:48pm","7/23/2020 7:26pm",", Colorado Springs, CO","-104.8213634","38.8338816","colorado springs, co, usa","Geocoded"
11,"Buffalo Park","Manitou Springs","","Colorado Springs","CO","Cruisy Area","Cruising Areas","checked",NA,1980,NA,"4/1/2020 2:48pm","7/23/2020 7:26pm",", Colorado Springs, CO","-104.8213634","38.8338816","colorado springs, co, usa","Geocoded"
12,"Act III","(Male Movies)","3480 W. Colfax","Denver","CO","","Theatre","",NA,1980,NA,"4/1/2020 2:48pm","7/23/2020 7:26pm","3480 W. Colfax, Denver, CO","-105.0331139","39.7401612","3480 w colfax ave, denver, co 80204, usa","Geocoded"
13,"Alfie's","(Humpy jocks) (Cruisy) (Disco)","3240 Larimer betw. 32nd & 33rd Sts.","Denver","CO","(*),(YC),(D),(R)","Restaurant,Bars/Clubs","",NA,1980,NA,"4/1/2020 2:49pm","7/23/2020 7:26pm","3240 Larimer betw. 32nd & 33rd Sts., Denver, CO","-105.5943388","40.6955572","larimer county, co, usa","Geocoded"
14,"Alicia's ","(Mexican R)","278 S. Downing ","Denver","CO","(R),(M)","Restaurant","",NA,1980,NA,"4/1/2020 2:50pm","7/23/2020 7:26pm","278 S. Downing , Denver, CO","-104.9732373","39.7115264","278 s downing st, denver, co 80209, usa","Geocoded"
15,"Apartment ","(Hip) ('Teenie-boppers) (3.2 beer only - closes 12 midnight) (May be closing)","1999 Lincoln","Denver","CO","(D)","Bars/Clubs","",NA,1980,NA,"4/1/2020 2:51pm","7/23/2020 7:26pm","1999 Lincoln, Denver, CO","-104.9861307","39.747516","1999 lincoln st, denver, co 80202, usa","Geocoded"
16,"Bachelor Flats","","201 N. Broadway","Denver","CO","","Bars/Clubs","",NA,1980,NA,"4/1/2020 2:51pm","7/23/2020 7:26pm","201 N. Broadway, Denver, CO","-104.9879975","39.7196017","201 n broadway, denver, co 80203, usa","Geocoded"
17,"Ball Park Health Club  ","(Baths) (Some W, SM, YC, FFA) (Use rear entrance thru alley off Bayaud)","107 S. Broadway at Bayaud ","Denver","CO","(*),(W),(SM),(YC),(FFA)","Baths","",NA,1980,NA,"4/1/2020 2:51pm","7/23/2020 7:26pm","107 S. Broadway at Bayaud , Denver, CO","-104.9879527","39.7145318","107 s broadway, denver, co 80209, usa","Geocoded"
18,"B.J.'s Carousel","(Cruisy) (Lunch & Dinner)","1380 S. Broadway","Denver","CO","(*),(R),(E),(PT)","Restaurant,Cruising Areas","",NA,1980,NA,"4/1/2020 2:52pm","7/23/2020 7:26pm","1380 S. Broadway, Denver, CO","-104.987101","39.6914491","1380 s broadway, denver, co 80210, usa","Geocoded"
19,"Broadway Cabaret","(Disco-D in rear)","1260 Broadway","Denver","CO","(M),(YC),(R),(PT),(*)","Restaurant,Bars/Clubs","",NA,1980,NA,"4/1/2020 2:54pm","7/23/2020 7:26pm","1260 Broadway, Denver, CO","-104.987365","39.6937018","1260 broadway, denver, co 80210, usa","Geocoded"
20,"Christi's ","(Looks promising)","1416 Stolt St.","Denver","CO","(S)","Bars/Clubs","",NA,1980,NA,"4/1/2020 2:54pm","7/23/2020 7:26pm","1416 Stolt St., Denver, CO","-105.009853","39.755622","1416 platte st, denver, co 80202, usa","Geocoded"
21,"Court Jester","","1617 Court Pl.","Denver","CO","(*)","Bars/Clubs","",NA,1980,NA,"4/1/2020 2:55pm","7/23/2020 7:26pm","1617 Court Pl., Denver, CO","-104.9882761","39.742858","1617 court pl, denver, co 80202, usa","Geocoded"
22,"Crypt ","(Books, toys, erotica-'peep shows') ","2222 N. Broadway","Denver","CO","(*)","Book Store","",NA,1980,NA,"4/1/2020 3:09pm","7/23/2020 7:26pm","2222 N. Broadway, Denver, CO","-104.987165","39.7533593","2222 n broadway, denver, co 80205, usa","Geocoded"
23,"David's ","(Promising looking little disco)","314 E. 13th St.","Denver","CO","(D)","Bars/Clubs","",NA,1980,NA,"4/1/2020 3:10pm","7/23/2020 7:26pm","314 E. 13th St., Denver, CO","-104.9831572","39.7367895","314 e 13th ave, denver, co 80203, usa","Geocoded"
24,"Den","(Some W, OC)","510 W. Colfax","Denver","CO","(*),(R),(PT),(W),(OC)","Restaurant","",NA,1980,NA,"4/1/2020 3:53pm","7/23/2020 7:26pm","510 W. Colfax, Denver, CO","-104.9945199","39.7392661","510 w colfax ave, denver, co 80204, usa","Geocoded"
25,"Denver Book Barter","","919 E. Colfax","Denver","CO","","Book Store","",NA,1980,NA,"4/1/2020 3:54pm","7/23/2020 7:26pm","919 E. Colfax, Denver, CO","-104.9755079","39.7402087","919 e colfax ave, denver, co 80218, usa","Geocoded"
26,"Denver Book Fair","","416 15th St.","Denver","CO","(M)","Book Store","",NA,1980,NA,"4/1/2020 3:54pm","7/23/2020 7:26pm","416 15th St., Denver, CO","-104.9911856","39.7425704","416 15th st, denver, co 80202, usa","Geocoded"
27,"Door ","(Some RT, OC)","1512 Broadway","Denver","CO","(D),(PT),(RT),(OC),(B)","Bars/Clubs","",NA,1980,NA,"4/1/2020 3:54pm","7/23/2020 7:26pm","1512 Broadway, Denver, CO","-104.9871219","39.740535","1512 broadway, denver, co 80202, usa","Geocoded"
28,"Empire Baths","(Looking 'up' with new management)","6923 E. Colfax","Denver","CO","","Baths","",NA,1980,NA,"4/1/2020 3:55pm","7/23/2020 7:26pm","6923 E. Colfax, Denver, CO","-104.9074492","39.7404134","6923 e colfax ave, denver, co 80220, usa","Geocoded"
29,"Empress Theatre","(All male)","139 Broadway","Denver","CO","","Theatre","",NA,1980,NA,"4/1/2020 3:55pm","7/23/2020 7:26pm","139 Broadway, Denver, CO","-104.9878105","39.7190035","139 broadway, denver, co 80203, usa","Geocoded"
30,"Fox Hole","(Lunch) (Patio-wild Sunday afternoons)","2936 Fox, off 20th St. Viaduct ","Denver","CO","(W),(SM),(*)","Bars/Clubs","",NA,1980,NA,"4/1/2020 3:56pm","7/23/2020 7:26pm","2936 Fox, off 20th St. Viaduct , Denver, CO","-104.991186","39.752071","1123 20th st, denver, co 80202, usa","Geocoded"
31,"Galaxie Theatre & Book Store","","633 E. Colfax","Denver","CO","(*)","Book Store,Theatre","",NA,1980,NA,"4/1/2020 3:56pm","7/23/2020 7:26pm","633 E. Colfax, Denver, CO","-104.9788853","39.7402371","633 e colfax ave, denver, co 80203, usa","Geocoded"
32,"Gentlemen's Quarters Club Baths of Denver","","1359 Court Place","Denver","CO","(*)","Baths","",NA,1980,NA,"4/1/2020 3:57pm","7/23/2020 7:26pm","1359 Court Place, Denver, CO","-104.9918709","39.7404382","1359 court pl, denver, co 80204, usa","Geocoded"
33,"Globe International ","(Disco)","4503 Logan","Denver","CO","(D),(*),(YC),(L)","Bars/Clubs","",NA,1980,NA,"4/1/2020 3:58pm","7/23/2020 7:26pm","4503 Logan, Denver, CO","-104.9825436","39.7785389","4503 logan st, denver, co 80216, usa","Geocoded"
34,"Green Earth Natural Foods","","1014 S. Gaylord","Denver","CO","","Business","",NA,1980,NA,"4/1/2020 3:59pm","7/23/2020 7:26pm","1014 S. Gaylord, Denver, CO","-104.9615828","39.698102","1014 s gaylord st, denver, co 80209, usa","Geocoded"
35,"Grist Mill","","8th & Speer","Denver","CO","(M),(R),(C),(AH)","Restaurant","checked",NA,1980,NA,"4/1/2020 3:59pm","7/23/2020 7:26pm","8th & Speer, Denver, CO","-95.7078383","37.2231187","123 w main st, independence, ks 67301, usa","Geocoded"
36,"Haberdashery","(Men's clothing)","1245 E. Colfax","Denver","CO","","Business","",NA,1980,NA,"4/1/2020 4:04pm","7/23/2020 7:26pm","1245 E. Colfax, Denver, CO","-104.9711492","39.7403289","1245 e colfax ave, denver, co 80218, usa","Geocoded"
37,"Highland Health Studio ","(Gym) (Tues. - Thur. & Sat. only)","3124 W. 34th Ave.","Denver","CO","","Business","",NA,1980,NA,"4/1/2020 4:05pm","7/23/2020 7:26pm","3124 W. 34th Ave., Denver, CO","-105.0282772","39.7644369","3124 w 34th ave, denver, co 80211, usa","Geocoded"
38,"Kitty's Book Store","","735 E. Colfax","Denver","CO","(M)","Book Store","",NA,1980,NA,"4/2/2020 12:09am","7/23/2020 7:26pm","735 E. Colfax, Denver, CO","-104.9780538","39.7402077","735 e colfax ave, denver, co 80203, usa","Geocoded"
39,"Lake Steam Baths","","3540 W. Colfax","Denver","CO","(M)","Baths","",NA,1980,NA,"4/2/2020 12:09am","7/23/2020 7:26pm","3540 W. Colfax, Denver, CO","-105.0341441","39.7401412","3540 w colfax ave, denver, co 80204, usa","Geocoded"
40,"Man to Man","(Escorts) (303) 831-1104","","Denver","CO","","Business","checked",NA,1980,NA,"4/2/2020 12:10am","7/23/2020 7:26pm",", Denver, CO","-104.990251","39.7392358","denver, co, usa","Geocoded"
41,"Matty's Spartan Theatre","","139 S. Broadway ","Denver","CO","","Theatre","",NA,1980,NA,"4/2/2020 12:10am","7/23/2020 7:26pm","139 S. Broadway , Denver, CO","-104.9875392","39.713895","139 s broadway, denver, co 80209, usa","Geocoded"
42,"M.C.C.","","1400 Lafayette","Denver","CO","M.C.C.","Church","",NA,1980,NA,"4/2/2020 12:11am","7/23/2020 7:26pm","1400 Lafayette, Denver, CO","-104.9703734","39.7387375","1400 n lafayette st, denver, co 80218, usa","Geocoded"
43,"1942 Club","(Some W, SM, YC, PT in front - Disco - D in back - 3 bars) (Cruisy) ","1942 Broadway","Denver","CO","(W),(SM),(YC),(PT),(*),(D),(C),(AH),(WE)","Bars/Clubs,Restaurant,Cruising Areas","",NA,1980,NA,"4/2/2020 12:11am","7/23/2020 7:26pm","1942 Broadway, Denver, CO","-104.9873665","39.6813011","1942 broadway, denver, co 80210, usa","Geocoded"
44,"SIR ","(Models & Escorts) (303) 837-0983 ","","Denver","CO","","Business","",NA,1980,NA,"4/2/2020 12:12am","7/23/2020 7:26pm",", Denver, CO","-104.990251","39.7392358","denver, co, usa","Geocoded"
45,"Southtown Cattle Co.","(Teenie-boppers) (On again, off again)","105 N. Broadway","Denver","CO","","Bars/Clubs","",NA,1980,NA,"4/2/2020 12:25am","7/23/2020 7:26pm","105 N. Broadway, Denver, CO","-104.9876919","39.7186363","105 n broadway, denver, co 80203, usa","Geocoded"
46,"Southtown Lumber Co.","(Cruisy) (Snacks) ","255 S. Broadway","Denver","CO","(*),(W),(YC),(R)","Cruising Areas,Restaurant","",NA,1980,NA,"4/2/2020 12:27am","7/23/2020 7:26pm","255 S. Broadway, Denver, CO","-104.9877857","39.7119276","255 s broadway, denver, co 80223, usa","Geocoded"
47,"The Kitchen","","Colfax at Race","Denver","CO","(R),(M)","Restaurant","",NA,1980,NA,"4/2/2020 12:29am","7/23/2020 7:26pm","Colfax at Race, Denver, CO","-104.963461","39.7400105","race st & e colfax ave, denver, co 80206, usa","Geocoded"
48,"Three Sisters","(Disco)","3358 Mariposa","Denver","CO","(L),(D),(*)","Bars/Clubs","",NA,1980,NA,"4/2/2020 12:37am","7/23/2020 7:26pm","3358 Mariposa, Denver, CO","-105.0027349","39.7642829","3358 mariposa st, denver, co 80211, usa","Geocoded"
49,"Triangle","(Cruisy john) (Don's Alley - 'wild' downstairs room)","2036 Broadway","Denver","CO","(SM),(W),(FFA),(PT),(*)","Bars/Clubs,Cruising Areas","",NA,1980,NA,"4/2/2020 12:38am","7/23/2020 7:26pm","2036 Broadway, Denver, CO","-104.9871126","39.7499418","2036 broadway, denver, co 80205, usa","Geocoded"
50,"Two Guys Saloon","","1540 Cleveland Pl.","Denver","CO","(RT),(B)","Bars/Clubs","",NA,1980,NA,"4/2/2020 12:38am","7/23/2020 7:26pm","1540 Cleveland Pl., Denver, CO","-104.987977","39.741311","1540 cleveland pl, denver, co 80202, usa","Geocoded"
51,"Velvet Hammer","","3759 Chestnut Pl.","Denver","CO","(L)","Bars/Clubs","",NA,1980,NA,"4/2/2020 12:40am","7/23/2020 7:26pm","3759 Chestnut Pl., Denver, CO","-104.9776074","39.7742626","3759 chestnut pl, denver, co 80216, usa","Geocoded"
52,"White Spot","","740 W. Colfax","Denver","CO","(M),(R),(C)","Restaurant","",NA,1980,NA,"4/2/2020 12:40am","7/23/2020 7:26pm","740 W. Colfax, Denver, CO","-104.9974398","39.7397837","740 w colfax ave, denver, co 80204, usa","Geocoded"
53,"Zuni Club Baths","","2935 Zuni ","Denver","CO","(*)","Baths","",NA,1980,NA,"4/2/2020 12:41am","7/23/2020 7:26pm","2935 Zuni , Denver, CO","-105.0160648","39.7592192","2935 zuni st, denver, co 80211, usa","Geocoded"
54,"Cheesman Park","","","Denver","CO","Cruisy Area","Cruising Areas","checked",NA,1980,NA,"4/2/2020 12:41am","7/23/2020 7:26pm",", Denver, CO","-104.990251","39.7392358","denver, co, usa","Geocoded"
55,"City Park - E. end of Colorado ","","","Denver","CO","Cruisy Area","Cruising Areas","checked",NA,1980,NA,"4/2/2020 12:41am","7/23/2020 7:26pm",", Denver, CO","-104.990251","39.7392358","denver, co, usa","Geocoded"
56,"Odyssey","(Disco) Inquire locally","","East Alamosa","CO","(YC),(D)","Bars/Clubs","checked",NA,1980,NA,"4/2/2020 12:41am","7/23/2020 7:26pm",", East Alamosa, CO","-105.8466437","37.4762327","alamosa east, co 81101, usa","Geocoded"
57,"Adult Books","","754 North Ave.","Grand Junction","CO","Cruisy Area","Cruising Areas","",NA,1980,NA,"4/2/2020 12:42am","7/23/2020 7:26pm","754 North Ave., Grand Junction, CO","-108.5596045","39.0776459","754 north ave, grand junction, co 81501, usa","Geocoded"
58,"Hawthrone & Lincoln Parks","(Cl. 12 midnight)","","Grand Junction","CO","Cruisy Area","Cruising Areas","checked",NA,1980,NA,"4/2/2020 12:43am","7/23/2020 7:26pm",", Grand Junction, CO","-108.5506486","39.0638705","grand junction, co, usa","Geocoded"
59,"Island Grove Park","nr. T-Rooms","","Greeley","CO","Cruisy Area","Cruising Areas","checked",NA,1980,NA,"4/2/2020 12:43am","7/23/2020 7:26pm",", Greeley, CO","-104.7091322","40.4233142","greeley, co, usa","Geocoded"
60,"U. of N. Colorado","Top floor T-Rooms","","Greeley","CO","Cruisy Area","Cruising Areas","checked",NA,1980,NA,"4/2/2020 12:43am","7/23/2020 7:26pm",", Greeley, CO","-104.7091322","40.4233142","greeley, co, usa","Geocoded"
61,"Turquoise Club","(Disco) (Opens 6pm)","","Pueblo","CO","(D),(*),(WE)","Bars/Clubs","",NA,1980,NA,"4/2/2020 12:44am","7/23/2020 7:26pm",", Pueblo, CO","-104.6091409","38.2544472","pueblo, co, usa","Geocoded"
62,"Las Vegas Cinema","","","Pueblo","CO","Cruisy Area","Cruising Areas","checked",NA,1980,NA,"4/2/2020 12:44am","7/23/2020 7:26pm",", Pueblo, CO","-104.6091409","38.2544472","pueblo, co, usa","Geocoded"
63,"Mineral Palace Park","T-Rooms","","Pueblo","CO","Cruisy Area","Cruising Areas","checked",NA,1980,NA,"4/2/2020 12:44am","7/23/2020 7:26pm",", Pueblo, CO","-104.6091409","38.2544472","pueblo, co, usa","Geocoded"
64,"Pueblo Mall","T-Rooms","","Pueblo","CO","Cruisy Area","Cruising Areas","checked",NA,1980,NA,"4/2/2020 12:45am","7/23/2020 7:26pm",", Pueblo, CO","-104.6091409","38.2544472","pueblo, co, usa","Geocoded"
65,"Slope","Top of Bridge St.","","","CO","(M),(YC)","Bars/Clubs","",NA,1980,NA,"4/2/2020 12:45am","7/23/2020 7:26pm",", , CO","-95.6714121","37.0366406","3804 w 8th st, coffeyville, ks 67337, usa","Geocoded"
66,"Jerry's Place","","404 S. Galena","Aspen","CO","(M),(*),(HIP),(YC)","Bars/Clubs","",NA,1979,NA,"4/2/2020 12:45am","7/23/2020 7:26pm","404 S. Galena, Aspen, CO","-106.8187192","39.1877604","404 s galena st, aspen, co 81611, usa","Geocoded"
67,"Bunk House","(Ski resort - guest house) (303) 453-6475 ","","Breckenridge","CO","(H),(*),(W),(YC)","Hotels","",NA,1979,NA,"4/2/2020 2:17am","7/23/2020 7:26pm",", Breckenridge, CO","-106.0383518","39.4816537","breckenridge, co 80424, usa","Geocoded"
68,"Cellar Baths","(Below Hide & Seek - looks promising)","512 W. Colorado","Colorado Springs","CO","","Baths","",NA,1979,NA,"4/2/2020 2:19am","7/23/2020 7:26pm","512 W. Colorado, Colorado Springs, CO","-104.8349175","38.8328865","512 w colorado ave, colorado springs, co 80905, usa","Geocoded"
69,"Denny's","","I-25 at Bijou","Colorado Springs","CO","(M),(R),(C),(AH)","Restaurant","checked",NA,1979,NA,"4/2/2020 2:20am","7/23/2020 7:26pm","I-25 at Bijou, Colorado Springs, CO","-104.8606574","38.8492482","w bijou st & 25th st, colorado springs, co 80904, usa","Geocoded"
70,"Exit ","(Western night on Thur.)","2028 Sheldon Ave.","Colorado Springs","CO","(WE),(*)","Bars/Clubs","",NA,1979,NA,"4/2/2020 2:20am","7/23/2020 7:26pm","2028 Sheldon Ave., Colorado Springs, CO","-104.8579498","38.8420807","2028 sheldon ave, colorado springs, co 80904, usa","Geocoded"
71,"Hide & Seek Complex","(2 bars) (Disco)","512 W. Colorado","Colorado Springs","CO","(*),(R),(PT),(YC),(D)","Restaurant","",NA,1979,NA,"4/2/2020 2:21am","7/23/2020 7:26pm","512 W. Colorado, Colorado Springs, CO","-104.8349175","38.8328865","512 w colorado ave, colorado springs, co 80905, usa","Geocoded"
72,"Monarch Magazines","(Books)","232 N. Tejon","Colorado Springs","CO","","Book Store","",NA,1979,NA,"4/2/2020 2:21am","7/23/2020 7:26pm","232 N. Tejon, Colorado Springs, CO","-104.8236923","38.8378638","232 n tejon st, colorado springs, co 80903, usa","Geocoded"
73,"New Box Car, Ltd.","(Disco)","5939 N. Nevada","Colorado Springs","CO","(D),(WE),(*)","Bars/Clubs","",NA,1979,NA,"4/2/2020 2:22am","7/23/2020 7:26pm","5939 N. Nevada, Colorado Springs, CO","-104.8142891","38.9179472","5939 n nevada ave, colorado springs, co 80918, usa","Geocoded"
74,"Acacia Park","","","Colorado Springs","CO","Cruisy Area","Cruising Areas","checked",NA,1979,NA,"4/2/2020 2:23am","7/23/2020 7:26pm",", Colorado Springs, CO","-104.8213634","38.8338816","colorado springs, co, usa","Geocoded"
75,"Buffalo Park","Manitou Springs","","Colorado Springs","CO","Cruisy Area","Cruising Areas","checked",NA,1979,NA,"4/2/2020 2:23am","7/23/2020 7:26pm",", Colorado Springs, CO","-104.8213634","38.8338816","colorado springs, co, usa","Geocoded"
76,"Alicia's","(Mexican R)","278 S. Downing ","Denver","CO","(R),(M),(*)","Restaurant","",NA,1979,NA,"4/2/2020 2:23am","7/23/2020 7:26pm","278 S. Downing , Denver, CO","-104.9732373","39.7115264","278 s downing st, denver, co 80209, usa","Geocoded"
77,"Apartment ","('Teenie-boppers) (3.2 beer only - closes 12 midnight)","1999 Lincoln","Denver","CO","(HIP),(*),(D)","Bars/Clubs","",NA,1979,NA,"4/2/2020 2:24am","7/23/2020 7:26pm","1999 Lincoln, Denver, CO","-104.9861307","39.747516","1999 lincoln st, denver, co 80202, usa","Geocoded"
78,"Back Door III","(Use rear entrance)","1512 Broadway","Denver","CO","(S)","","",NA,1979,NA,"4/2/2020 2:25am","7/23/2020 7:26pm","1512 Broadway, Denver, CO","-104.9871219","39.740535","1512 broadway, denver, co 80202, usa","Geocoded"
79,"Ball Park Health Club","(Baths) (Some W, SM, YC, FFA) (Use rear entrance thru alley off Bayaud) ","107 S. Broadway at Bayaud","Denver","CO","(*),(W),(SM),(YC),(FFA)","Baths","",NA,1979,NA,"4/2/2020 2:47am","7/23/2020 7:26pm","107 S. Broadway at Bayaud, Denver, CO","-104.9879527","39.7145318","107 s broadway, denver, co 80209, usa","Geocoded"
80,"Bob's 4444 Club","(Disco) (Could go up or down)","4444 Leetsdale","Denver","CO","(YC),(D),(S)","Bars/Clubs","",NA,1979,NA,"4/2/2020 2:48am","7/23/2020 7:26pm","4444 Leetsdale, Denver, CO","-104.9361019","39.7099495","4444 leetsdale dr, denver, co 80246, usa","Geocoded"
81,"Bond Liquor Store","","622 E. 17th St.","Denver","CO","(M)","Business","",NA,1979,NA,"4/2/2020 2:49am","7/23/2020 7:26pm","622 E. 17th St., Denver, CO","-104.9905143","39.745791","622 17th st, denver, co 80202, usa","Geocoded"
82,"Broadway Cabaret ","","1260 Broadway","Denver","CO","(M),(YC),(R),(PT),(*),(D)","Restaurant","",NA,1979,NA,"4/2/2020 2:51am","7/23/2020 7:26pm","1260 Broadway, Denver, CO","-104.987365","39.6937018","1260 broadway, denver, co 80210, usa","Geocoded"
83,"Climax International Pub","(Opens 6 a.m.)","1339 17th at Market","Denver","CO","(RT)","Bars/Clubs","",NA,1979,NA,"4/2/2020 2:52am","7/23/2020 7:26pm","1339 17th at Market, Denver, CO","-104.9969334","39.7511418","1339 17th st, denver, co 80202, usa","Geocoded"
84,"Court Jester","","1617 Court Pl.","Denver","CO","(*)","Bars/Clubs","",NA,1979,NA,"4/2/2020 2:53am","7/23/2020 7:26pm","1617 Court Pl., Denver, CO","-104.9882761","39.742858","1617 court pl, denver, co 80202, usa","Geocoded"
85,"Cruise Model ","Escort Tel: (303) 777-8100","","Denver","CO","","Business","",NA,1979,NA,"4/2/2020 2:54am","7/23/2020 7:26pm",", Denver, CO","-104.990251","39.7392358","denver, co, usa","Geocoded"
86,"Den","(Some W, OC)","5110 W. Colfax","Denver","CO","(*),(R),(PT),(W),(OC)","Restaurant","",NA,1979,NA,"4/2/2020 2:54am","7/23/2020 7:26pm","5110 W. Colfax, Denver, CO","-105.0524766","39.7401799","5110 w colfax ave, denver, co 80204, usa","Geocoded"
87,"Door","(Some RT, OC)","1512 Broadway","Denver","CO","(D),(PT),(RT),(OC),(*)","Bars/Clubs","",NA,1979,NA,"4/2/2020 2:54am","7/23/2020 7:26pm","1512 Broadway, Denver, CO","-104.9871219","39.740535","1512 broadway, denver, co 80202, usa","Geocoded"
88,"Empire Baths","","6923 E. Colfax","Denver","CO","","Baths","",NA,1979,NA,"4/2/2020 2:56am","7/23/2020 7:26pm","6923 E. Colfax, Denver, CO","-104.9074492","39.7404134","6923 e colfax ave, denver, co 80220, usa","Geocoded"
89,"Empress Theatre","(All male)","139 Broadway","Denver","CO","","Theatre","",NA,1979,NA,"4/2/2020 2:56am","7/23/2020 7:26pm","139 Broadway, Denver, CO","-104.9878105","39.7190035","139 broadway, denver, co 80203, usa","Geocoded"
90,"Fox Hole","(Lunch) (Patio - wild Sunday afternoons)","2936 Fox, off 20th St. Viaduct","Denver","CO","(W),(SM),(*)","Bars/Clubs","",NA,1979,NA,"4/2/2020 2:57am","7/23/2020 7:26pm","2936 Fox, off 20th St. Viaduct, Denver, CO","-104.991186","39.752071","1123 20th st, denver, co 80202, usa","Geocoded"
91,"Galaxie Theatre & Book Store","","633 E. Colfax","Denver","CO","(*)","Book Store,Theatre","",NA,1979,NA,"4/2/2020 2:58am","7/23/2020 7:26pm","633 E. Colfax, Denver, CO","-104.9788853","39.7402371","633 e colfax ave, denver, co 80203, usa","Geocoded"
92,"Gentlemen's Quarters Club Baths of Denver ","","1359 Court Place","Denver","CO","(*)","Baths","",NA,1979,NA,"4/2/2020 2:58am","7/23/2020 7:26pm","1359 Court Place, Denver, CO","-104.9918709","39.7404382","1359 court pl, denver, co 80204, usa","Geocoded"
93,"Grist Mall","","8th & Speer","Denver","CO","(M),(R),(C),(AH)","Restaurant","",NA,1979,NA,"4/2/2020 2:58am","7/23/2020 7:26pm","8th & Speer, Denver, CO","-95.7078383","37.2231187","123 w main st, independence, ks 67301, usa","Geocoded"
94,"Haberdashery ","(Men's clothing)","1245 E. Colfax ","Denver","CO","","Business","",NA,1979,NA,"4/2/2020 2:59am","7/23/2020 7:26pm","1245 E. Colfax , Denver, CO","-104.9711492","39.7403289","1245 e colfax ave, denver, co 80218, usa","Geocoded"
95,"Kitty's Book Store","","735 E. Colfax","Denver","CO","(M)","Book Store","",NA,1979,NA,"4/2/2020 2:59am","7/23/2020 7:26pm","735 E. Colfax, Denver, CO","-104.9780538","39.7402077","735 e colfax ave, denver, co 80203, usa","Geocoded"
96,"Luke Steam Baths","","3540 W. Colfax","Denver","CO","(M)","Baths","",NA,1979,NA,"4/2/2020 3:00am","7/23/2020 7:26pm","3540 W. Colfax, Denver, CO","-105.0341441","39.7401412","3540 w colfax ave, denver, co 80204, usa","Geocoded"
97,"M.C.C.","","1400 Lafayette","Denver","CO","M.C.C.","Church","",NA,1979,NA,"4/2/2020 3:00am","7/23/2020 7:26pm","1400 Lafayette, Denver, CO","-104.9703734","39.7387375","1400 n lafayette st, denver, co 80218, usa","Geocoded"
98,"1942 Club","(Some W, SM, YC, PT in front - Disco - D in back - 3 bars) (Cruisy) ","1942 Broadway ","Denver","CO","(W),(SM),(YC),(PT),(*),(D),(C),(AH),(WE)","Bars/Clubs,Cruising Areas","",NA,1979,NA,"4/2/2020 3:01am","7/23/2020 7:26pm","1942 Broadway , Denver, CO","-104.9873665","39.6813011","1942 broadway, denver, co 80210, usa","Geocoded"
99,"Pearl Street Disco ","(Stables - Some W, SM) (Also C-AH)","1308 Pearl St.","Denver","CO","(YC),(D),(W),(SM),(C),(AH),(*)","Bars/Clubs","",NA,1979,NA,"4/2/2020 3:02am","7/23/2020 7:26pm","1308 Pearl St., Denver, CO","-104.9796955","39.7371081","1308 pearl st, denver, co 80203, usa","Geocoded"
100,"Three Sisters","(Disco)","3358 Mariposa","Denver","CO","(G),(D),(*)","Bars/Clubs","",NA,1979,NA,"4/2/2020 3:03am","7/23/2020 7:26pm","3358 Mariposa, Denver, CO","-105.0027349","39.7642829","3358 mariposa st, denver, co 80211, usa","Geocoded"
101,"Triangle ","(Cruisy john)","2036 Broadway","Denver","CO","(SM),(W),(FFA),(PT),(*)","Cruising Areas,Bars/Clubs","",NA,1979,NA,"4/2/2020 3:03am","7/23/2020 7:26pm","2036 Broadway, Denver, CO","-104.9871126","39.7499418","2036 broadway, denver, co 80205, usa","Geocoded"
102,"White Spot","","740 W. Colfax","Denver","CO","(M),(R),(C)","Restaurant","",NA,1979,NA,"4/2/2020 3:03am","7/23/2020 7:26pm","740 W. Colfax, Denver, CO","-104.9974398","39.7397837","740 w colfax ave, denver, co 80204, usa","Geocoded"
103,"Zuni Club Baths","","2935 Zuni","Denver","CO","(*)","Baths","",NA,1979,NA,"4/2/2020 3:04am","7/23/2020 7:26pm","2935 Zuni, Denver, CO","-105.0160648","39.7592192","2935 zuni st, denver, co 80211, usa","Geocoded"
104,"Cheesman Park","","","Denver","CO","Cruisy Area","Cruising Areas","checked",NA,1979,NA,"4/2/2020 3:04am","7/23/2020 7:26pm",", Denver, CO","-104.990251","39.7392358","denver, co, usa","Geocoded"
105,"City Park ","E. end of Colorado","","Denver","CO","Cruisy Area","Cruising Areas","checked",NA,1979,NA,"4/2/2020 3:04am","7/23/2020 7:26pm",", Denver, CO","-104.990251","39.7392358","denver, co, usa","Geocoded"
106,"Washington Park","","","Denver","CO","Cruisy Area","Cruising Areas","checked",NA,1979,NA,"4/2/2020 3:06am","7/23/2020 7:26pm",", Denver, CO","-104.990251","39.7392358","denver, co, usa","Geocoded"
107,"Adult Books ","North Ave.","","Grand Junction","CO","Cruisy Area","Cruising Areas","checked",NA,1979,NA,"4/2/2020 3:07am","7/23/2020 7:26pm",", Grand Junction, CO","-108.5506486","39.0638705","grand junction, co, usa","Geocoded"
108,"Hawthrone Park","","","Grand Junction","CO","Cruisy Area","Cruising Areas","checked",NA,1979,NA,"4/2/2020 3:07am","7/23/2020 7:26pm",", Grand Junction, CO","-108.5506486","39.0638705","grand junction, co, usa","Geocoded"
109,"Island Grove Park","nr. T-Rooms","","Greeley","CO","Cruisy Area","Cruising Areas","checked",NA,1979,NA,"4/2/2020 3:07am","7/23/2020 7:26pm",", Greeley, CO","-104.7091322","40.4233142","greeley, co, usa","Geocoded"
110,"U. of N. Colo. ","Top floor T-Room","","Greeley","CO","Cruisy Area","Cruising Areas","checked",NA,1979,NA,"4/2/2020 3:08am","7/23/2020 7:26pm",", Greeley, CO","-104.7091322","40.4233142","greeley, co, usa","Geocoded"
111,"Mozarts","","","Pueblo","CO","(M),(OC)","Bars/Clubs","",NA,1979,NA,"4/2/2020 3:08am","7/23/2020 7:26pm",", Pueblo, CO","-104.6091409","38.2544472","pueblo, co, usa","Geocoded"
112,"Turquoise Club ","(Disco)","707 N. Maine","Pueblo","CO","(D),(WE),(*)","Bars/Clubs","",NA,1979,NA,"4/2/2020 3:10am","7/23/2020 7:26pm","707 N. Maine, Pueblo, CO","-104.6089203","38.2736964","707 n main st, pueblo, co 81003, usa","Geocoded"
113,"Las Vegas Cinema ","","","Pueblo","CO","Cruisy Area","Cruising Areas","checked",NA,1979,NA,"4/2/2020 3:10am","7/23/2020 7:26pm",", Pueblo, CO","-104.6091409","38.2544472","pueblo, co, usa","Geocoded"
114,"Mineral Palace Park","T-Rooms","","Pueblo","CO","Cruisy Area","Cruising Areas","checked",NA,1979,NA,"4/2/2020 3:10am","7/23/2020 7:26pm",", Pueblo, CO","-104.6091409","38.2544472","pueblo, co, usa","Geocoded"
115,"Pueblo Mall ","T-Rooms","","Pueblo","CO","Cruisy Area","Cruising Areas","checked",NA,1979,NA,"4/2/2020 3:11am","7/23/2020 7:26pm",", Pueblo, CO","-104.6091409","38.2544472","pueblo, co, usa","Geocoded"
116,"Slope","Top of Bridge St.","","Vail","CO","(M),(YC)","Bars/Clubs","",NA,1979,NA,"4/2/2020 3:11am","7/23/2020 7:26pm",", Vail, CO","-106.3741955","39.6402638","vail, co 81657, usa","Geocoded"
117,"Jerry's Place","","405 So. Galena","Aspen","CO","(M),(HIP),(YC),(*)","Bars/Clubs","",NA,1978,NA,"4/2/2020 3:11am","7/23/2020 7:26pm","405 So. Galena, Aspen, CO","-106.8191518","39.1878489","405 s galena st, aspen, co 81611, usa","Geocoded"
118,"Bunk House ","(Ski resort - guest house) 303-453-6475 Box 6, Breckenridge, Colo.","","Breckenridge","CO","(H),(W),(YC)","Hotels","checked",NA,1978,NA,"4/2/2020 3:17am","7/23/2020 7:26pm",", Breckenridge, CO","-106.0383518","39.4816537","breckenridge, co 80424, usa","Geocoded"
119,"Box Car","","5935 N. Nevada","Colorado Springs","CO","(D),(WE),(*)","Bars/Clubs","",NA,1978,NA,"4/2/2020 3:19am","7/23/2020 7:26pm","5935 N. Nevada, Colorado Springs, CO","-104.8145918","38.918274","5935 n nevada ave, colorado springs, co 80918, usa","Geocoded"
120,"Denny's","","I-25 at Bijou","Colorado Springs","CO","(M),(R),(C),(AH)","Restaurant","checked",NA,1978,NA,"4/2/2020 3:19am","7/23/2020 7:26pm","I-25 at Bijou, Colorado Springs, CO","-104.8606574","38.8492482","w bijou st & 25th st, colorado springs, co 80904, usa","Geocoded"
121,"Exit","(Western night on Thurs.)","2028 Sheldon Ave.","Colorado Springs","CO","","Bars/Clubs","",NA,1978,NA,"4/2/2020 3:19am","7/23/2020 7:26pm","2028 Sheldon Ave., Colorado Springs, CO","-104.8579498","38.8420807","2028 sheldon ave, colorado springs, co 80904, usa","Geocoded"
122,"Hide & Seek","(Disco) (May be opening health club)","512 W. Colorado","Colorado Springs","CO","(YC),(D),(PT),(*)","Bars/Clubs","",NA,1978,NA,"4/2/2020 3:19am","7/23/2020 7:26pm","512 W. Colorado, Colorado Springs, CO","-104.8349175","38.8328865","512 w colorado ave, colorado springs, co 80905, usa","Geocoded"
123,"Monarch Magazines ","(Book store)","232 N. Tejon","Colorado Springs","CO","","Book Store","",NA,1978,NA,"4/2/2020 3:20am","7/23/2020 7:26pm","232 N. Tejon, Colorado Springs, CO","-104.8236923","38.8378638","232 n tejon st, colorado springs, co 80903, usa","Geocoded"
124,"Acacia Park","","","Colorado Springs","CO","Cruisy Area","Cruising Areas","checked",NA,1978,NA,"4/2/2020 3:21am","7/23/2020 7:26pm",", Colorado Springs, CO","-104.8213634","38.8338816","colorado springs, co, usa","Geocoded"
125,"Buffalo Park","Manitou Springs","","Colorado Springs","CO","Cruisy Area","Cruising Areas","checked",NA,1978,NA,"4/2/2020 3:21am","7/23/2020 7:26pm",", Colorado Springs, CO","-104.8213634","38.8338816","colorado springs, co, usa","Geocoded"
126,"Alicia's ","(Mexican R)","","Denver","CO","(R),(M)","Restaurant","",NA,1978,NA,"4/2/2020 3:22am","7/23/2020 7:26pm",", Denver, CO","-104.990251","39.7392358","denver, co, usa","Geocoded"
127,"Apartment ","('Teenie-boppers' - 3.2 beer only - closes 12 midnight) ","1999 Lincoln","Denver","CO","(HIP),(YC),(D),(*)","Bars/Clubs","",NA,1978,NA,"4/2/2020 3:22am","7/23/2020 7:26pm","1999 Lincoln, Denver, CO","-104.9861307","39.747516","1999 lincoln st, denver, co 80202, usa","Geocoded"
128,"Back Door III","(Use rear entrance)","1512 Broadway","Denver","CO","(S),(*)","Bars/Clubs","",NA,1978,NA,"4/2/2020 3:23am","7/23/2020 7:26pm","1512 Broadway, Denver, CO","-104.9871219","39.740535","1512 broadway, denver, co 80202, usa","Geocoded"
129,"Ballpark Health Club","(Baths) (use rear entrance off alley at Bayard & Broadway)","107 So. Broadway","Denver","CO","(*),(SM),(W),(YC),(PT),(FFA)","Baths","",NA,1978,NA,"4/2/2020 3:24am","7/23/2020 7:26pm","107 So. Broadway, Denver, CO","-104.9879527","39.7145318","107 s broadway, denver, co 80209, usa","Geocoded"
130,"Bond Liquor Store","","622 E. 17th Ave.","Denver","CO","(M)","Business","",NA,1978,NA,"4/2/2020 3:25am","7/23/2020 7:26pm","622 E. 17th Ave., Denver, CO","-104.9792318","39.7431433","622 e 17th ave, denver, co 80203, usa","Geocoded"
131,"Boozewazee","(Disco) (Looks promising)","1645 Wazee","Denver","CO","(D)","Bars/Clubs","",NA,1978,NA,"4/2/2020 3:26am","7/23/2020 7:26pm","1645 Wazee, Denver, CO","-104.9994491","39.7520234","1645 wazee st, denver, co 80202, usa","Geocoded"
132,"Broadway Cabaret","(Disco - D in rear)","1260 Broadway","Denver","CO","(D),(YC),(R),(PT),(*)","Restaurant","",NA,1978,NA,"4/2/2020 3:26am","7/23/2020 7:26pm","1260 Broadway, Denver, CO","-104.987365","39.6937018","1260 broadway, denver, co 80210, usa","Geocoded"
133,"Climax International Pub","","17th & Market","Denver","CO","","Bars/Clubs","",NA,1978,NA,"4/2/2020 3:28am","7/23/2020 7:26pm","17th & Market, Denver, CO","-95.9755","36.138466","s peoria ave se & 17th st s, tulsa, ok 74120, usa","Geocoded"
134,"Club Baths of Denver","","1359 Court Pl.","Denver","CO","","Baths","",NA,1978,NA,"4/2/2020 3:28am","7/23/2020 7:26pm","1359 Court Pl., Denver, CO","-104.9918709","39.7404382","1359 court pl, denver, co 80204, usa","Geocoded"
135,"Coffee King ","","3250 W. Colfax","Denver","CO","(R),(AH)","Restaurant","",NA,1978,NA,"4/2/2020 3:28am","7/23/2020 7:26pm","3250 W. Colfax, Denver, CO","-105.0292777","39.7401667","3250 w colfax ave, denver, co 80204, usa","Geocoded"
136,"Den","","5110 W. Colfax","Denver","CO","(W),(R),(PT)","Restaurant","",NA,1978,NA,"4/2/2020 3:29am","7/23/2020 7:26pm","5110 W. Colfax, Denver, CO","-105.0524766","39.7401799","5110 w colfax ave, denver, co 80204, usa","Geocoded"
137,"Door","(Some RT, B)","1512 Broadway","Denver","CO","(RT),(B),(*),(D),(PT)","Bars/Clubs","",NA,1978,NA,"4/2/2020 3:29am","7/23/2020 7:26pm","1512 Broadway, Denver, CO","-104.9871219","39.740535","1512 broadway, denver, co 80202, usa","Geocoded"
138,"Empire Baths","","6923 E. Colfax","Denver","CO","","Baths","",NA,1978,NA,"4/2/2020 3:30am","7/23/2020 7:26pm","6923 E. Colfax, Denver, CO","-104.9074492","39.7404134","6923 e colfax ave, denver, co 80220, usa","Geocoded"
139,"Empress Theatre","(All male)","139 Broadway ","Denver","CO","","Theatre","",NA,1978,NA,"4/2/2020 3:30am","7/23/2020 7:26pm","139 Broadway , Denver, CO","-104.9878105","39.7190035","139 broadway, denver, co 80203, usa","Geocoded"
140,"Fox Hole","(Some W, SM) (Lunch) (Looks promising)","2936 Fox, off 20th St. Viaduct","Denver","CO","(W),(SM)","Bars/Clubs","",NA,1978,NA,"4/2/2020 3:30am","7/23/2020 7:26pm","2936 Fox, off 20th St. Viaduct, Denver, CO","-104.991186","39.752071","1123 20th st, denver, co 80202, usa","Geocoded"
141,"Galaxie Theatre & Book Store","","633 E. Colfax","Denver","CO","","Book Store,Theatre","",NA,1978,NA,"4/2/2020 3:31am","7/23/2020 7:26pm","633 E. Colfax, Denver, CO","-104.9788853","39.7402371","633 e colfax ave, denver, co 80203, usa","Geocoded"
142,"Gin Mill","(Opens 6 a.m.)","1339 17th St.","Denver","CO","(M),(RT)","Bars/Clubs","",NA,1978,NA,"4/2/2020 3:31am","7/23/2020 7:26pm","1339 17th St., Denver, CO","-104.9969334","39.7511418","1339 17th st, denver, co 80202, usa","Geocoded"
143,"Haberdashery ","(Men's clothing)","1245 E. Colfax","Denver","CO","","Business","",NA,1978,NA,"4/2/2020 3:32am","7/23/2020 7:26pm","1245 E. Colfax, Denver, CO","-104.9711492","39.7403289","1245 e colfax ave, denver, co 80218, usa","Geocoded"
144,"Kitty's Book Store & Mini Theatre","","735 E. Colfax","Denver","CO","","Book Store,Theatre","",NA,1978,NA,"4/2/2020 3:33am","7/23/2020 7:26pm","735 E. Colfax, Denver, CO","-104.9780538","39.7402077","735 e colfax ave, denver, co 80203, usa","Geocoded"
145,"Lake Steam Baths","(G only on Thurs. nights)","3540 W. Colfax Ave.","Denver","CO","(M),(G)","Baths","",NA,1978,NA,"4/2/2020 3:33am","7/23/2020 7:26pm","3540 W. Colfax Ave., Denver, CO","-105.0341441","39.7401412","3540 w colfax ave, denver, co 80204, usa","Geocoded"
146,"M.C.C.","","1400 Lafayette","Denver","CO","M.C.C.","Church","",NA,1978,NA,"4/2/2020 3:33am","7/23/2020 7:26pm","1400 Lafayette, Denver, CO","-104.9703734","39.7387375","1400 n lafayette st, denver, co 80218, usa","Geocoded"
147,"Nineteen-Forty-Two Club ","(Some W, SM, PT in front - Disco - D in back room) (also C-AH-WE)","1942 Broadway ","Denver","CO","(W),(SM),(*),(PT),(D),(C),(AH),(WE)","Bars/Clubs,Restaurant","",NA,1978,NA,"4/2/2020 3:34am","7/23/2020 7:26pm","1942 Broadway , Denver, CO","-104.9873665","39.6813011","1942 broadway, denver, co 80210, usa","Geocoded"
148,"P.D. ","('Pirates Den') (Use back door thru parking lot)","1705 Federal Blvd.","Denver","CO","(PT),(*)","Bars/Clubs","",NA,1978,NA,"4/2/2020 3:34am","7/23/2020 7:26pm","1705 Federal Blvd., Denver, CO","-105.0256749","39.7442711","1705 federal blvd, denver, co 80204, usa","Geocoded"
149,"Pear Street Disco","(Also AH)","1308 Pearl St.","Denver","CO","(YC),(D),(*),(AH)","Bars/Clubs","",NA,1978,NA,"4/2/2020 3:35am","7/23/2020 7:26pm","1308 Pearl St., Denver, CO","-104.9796955","39.7371081","1308 pearl st, denver, co 80203, usa","Geocoded"
150,"Poochie's","(3.2. beer)","105 Broadway","Denver","CO","","Bars/Clubs","",NA,1978,NA,"4/2/2020 3:35am","7/23/2020 7:26pm","105 Broadway, Denver, CO","-104.9876919","39.7186363","105 n broadway, denver, co 80203, usa","Geocoded"
151,"Satisfy ","(Books & things)","1431 Ogden ","Denver","CO","","Book Store","",NA,1978,NA,"4/2/2020 3:36am","7/23/2020 7:26pm","1431 Ogden , Denver, CO","-104.9755535","39.7390213","1431 n ogden st, denver, co 80218, usa","Geocoded"
152,"Terrace","","3737 E. Colfax","Denver","CO","(S),(*)","Bars/Clubs","",NA,1978,NA,"4/2/2020 3:36am","7/23/2020 7:26pm","3737 E. Colfax, Denver, CO","-104.9433226","39.7403381","3737 e colfax ave, denver, co 80206, usa","Geocoded"
153,"Three Sisters","","3358 Mariposa","Denver","CO","(G),(D),(*)","Bars/Clubs","",NA,1978,NA,"4/2/2020 3:36am","7/23/2020 7:26pm","3358 Mariposa, Denver, CO","-105.0027349","39.7642829","3358 mariposa st, denver, co 80211, usa","Geocoded"
154,"Triangle ","(Denver Tack & Supply - 'toys & leather shop downstairs was closed, but may be reopening) ","2036 Broadway","Denver","CO","(SM),(W),(PT),(*)","Bars/Clubs","",NA,1978,NA,"4/2/2020 3:36am","7/23/2020 7:26pm","2036 Broadway, Denver, CO","-104.9871126","39.7499418","2036 broadway, denver, co 80205, usa","Geocoded"
155,"White Spot","","740 W. Colfax at Pearl","Denver","CO","(M),(R),(C),(AH)","Restaurant","",NA,1978,NA,"4/2/2020 3:37am","7/23/2020 7:26pm","740 W. Colfax at Pearl, Denver, CO","-104.9782632","39.7400175","740 e colfax ave, denver, co 80203, usa","Geocoded"
156,"Zuni Club Baths","","2935 Zuni","Denver","CO","(*)","Baths","",NA,1978,NA,"4/2/2020 3:38am","7/23/2020 7:26pm","2935 Zuni, Denver, CO","-105.0160648","39.7592192","2935 zuni st, denver, co 80211, usa","Geocoded"
157,"Cheeseman Park","","","Denver","CO","Cruisy Area","Cruising Areas","checked",NA,1978,NA,"4/2/2020 3:38am","7/23/2020 7:26pm",", Denver, CO","-104.990251","39.7392358","denver, co, usa","Geocoded"
158,"City Park ","East end of Colorado","","Denver","CO","Cruisy Area","Cruising Areas","checked",NA,1978,NA,"4/2/2020 3:40am","7/23/2020 7:26pm",", Denver, CO","-104.990251","39.7392358","denver, co, usa","Geocoded"
159,"Sodomy Circle","State Capitol grounds - sure suicide ","","Denver","CO","Cruisy Area","Cruising Areas","checked",NA,1978,NA,"4/2/2020 3:40am","7/23/2020 7:26pm",", Denver, CO","-104.990251","39.7392358","denver, co, usa","Geocoded"
160,"Washington Park","","","Denver","CO","Cruisy Area","Cruising Areas","checked",NA,1978,NA,"4/2/2020 3:40am","7/23/2020 7:26pm",", Denver, CO","-104.990251","39.7392358","denver, co, usa","Geocoded"
161,"Reverse 'R' Bar","","122 So. 5th St.","Grand Junction","CO","(M)","Bars/Clubs","",NA,1978,NA,"4/2/2020 3:41am","7/23/2020 7:26pm","122 So. 5th St., Grand Junction, CO","-108.5640803","39.0667063","122 s 5th st, grand junction, co 81501, usa","Geocoded"
162,"Hawthrone Park","","","Grand Junction","CO","Cruisy Area","Cruising Areas","checked",NA,1978,NA,"4/2/2020 3:41am","7/23/2020 7:26pm",", Grand Junction, CO","-108.5506486","39.0638705","grand junction, co, usa","Geocoded"
163,"Mozarts","","925 No. Main St.","Pueblo","CO","(M),(OC)","Bars/Clubs","",NA,1978,NA,"4/2/2020 3:41am","7/23/2020 7:26pm","925 No. Main St., Pueblo, CO","-104.6086846","38.2754567","925 n main st, pueblo, co 81003, usa","Geocoded"
164,"Turquoise Club","(Disco)","707 No. Main St.","Pueblo","CO","(D),(WE),(*)","Bars/Clubs","",NA,1978,NA,"4/2/2020 3:42am","7/23/2020 7:26pm","707 No. Main St., Pueblo, CO","-104.6181305","38.2592615","707 main st, pueblo, co 81004, usa","Geocoded"
165,"City Park","","","Pueblo","CO","Cruisy Area","Cruising Areas","checked",NA,1978,NA,"4/2/2020 3:42am","7/23/2020 7:26pm",", Pueblo, CO","-104.6091409","38.2544472","pueblo, co, usa","Geocoded"
166,"Mineral Palace Park","","","Pueblo","CO","Cruisy Area","Cruising Areas","checked",NA,1978,NA,"4/2/2020 3:42am","7/23/2020 7:26pm",", Pueblo, CO","-104.6091409","38.2544472","pueblo, co, usa","Geocoded"
167,"Pueblo Mall T-Rooms","","","Pueblo","CO","Cruisy Area","Cruising Areas","checked",NA,1978,NA,"4/2/2020 3:42am","7/23/2020 7:26pm",", Pueblo, CO","-104.6091409","38.2544472","pueblo, co, usa","Geocoded"
168,"Slope","Top of Bridge St.","","Vail","CO","(M),(YC)","Bars/Clubs","",NA,1978,NA,"4/2/2020 3:42am","7/23/2020 7:26pm",", Vail, CO","-106.3741955","39.6402638","vail, co 81657, usa","Geocoded"
169,"Alice's Alley & The Slope ","(Both bars share the same entrance downstairs below the Aspen Mine Company) Both are very M, HIP but can be interesting ","","Aspen","CO","(M),(YC),(R),(HIP)","Restaurant,Bars/Clubs","checked",NA,1977,NA,"4/2/2020 9:06pm","7/23/2020 7:26pm",", Aspen, CO","-106.8175387","39.1910983","aspen, co 81611, usa","Geocoded"
170,"Paragon","(Disco)","","Aspen","CO","(M),(HIP),(YC),(D)","Bars/Clubs","",NA,1977,NA,"4/2/2020 9:11pm","7/23/2020 7:26pm",", Aspen, CO","-106.8175387","39.1910983","aspen, co 81611, usa","Geocoded"
171,"Catacombs ","(Late downstairs - Boulderado Hotel) ","2115 13th St.","Boulder","CO","(M),(HIP),(YC),(R)","Restaurant,Hotels","",NA,1977,NA,"4/2/2020 9:12pm","7/23/2020 7:26pm","2115 13th St., Boulder, CO","-105.2794143","40.0194026","2115 13th st, boulder, co 80302, usa","Geocoded"
172,"Five-O-Seven Club","(Baths)","507 Canyon Blvd.","Boulder","CO","(*)","Baths","",NA,1977,NA,"4/2/2020 9:12pm","7/23/2020 7:26pm","507 Canyon Blvd., Boulder, CO","-105.2886551","40.0153423","507 canyon blvd, boulder, co 80302, usa","Geocoded"
173,"Norlin Library","","","Boulder","CO","Cruisy Area","Cruising Areas","checked",NA,1977,NA,"4/2/2020 9:14pm","7/23/2020 7:26pm",", Boulder, CO","-105.2705456","40.0149856","boulder, co, usa","Geocoded"
174,"Off Campus","around 13th & College","","Boulder","CO","Cruisy Area","Cruising Areas","checked",NA,1977,NA,"4/2/2020 9:15pm","7/23/2020 7:26pm",", Boulder, CO","-105.2705456","40.0149856","boulder, co, usa","Geocoded"
175,"Bunk House","(Ski resort - guest house) Telephone (303) 453-6475; Box 6, Breckenridge, Colorado","","Breckenridge","CO","(H),(W),(YC)","Hotels","checked",NA,1977,NA,"4/2/2020 9:15pm","7/23/2020 7:26pm",", Breckenridge, CO","-106.0383518","39.4816537","breckenridge, co 80424, usa","Geocoded"
176,"Depot Bar","","110 W. Lincoln","Breckenridge","CO","(M),(HIP),(YC)","Bars/Clubs","",NA,1977,NA,"4/2/2020 9:16pm","7/23/2020 7:26pm","110 W. Lincoln, Breckenridge, CO","-106.0453276","39.4823496","110 lincoln ave, breckenridge, co 80424, usa","Geocoded"
177,"Box Car","","5935 N. Nevada","Colorado Springs","CO","(YC),(D),(*)","Bars/Clubs","",NA,1977,NA,"4/2/2020 9:16pm","7/23/2020 7:26pm","5935 N. Nevada, Colorado Springs, CO","-104.8145918","38.918274","5935 n nevada ave, colorado springs, co 80918, usa","Geocoded"
178,"Denny's ","","I-25 at Bijou","Colorado Springs","CO","(M),(R),(C),(AH)","Restaurant","checked",NA,1977,NA,"4/2/2020 9:17pm","7/23/2020 7:26pm","I-25 at Bijou, Colorado Springs, CO","-104.8606574","38.8492482","w bijou st & 25th st, colorado springs, co 80904, usa","Geocoded"
179,"Hide & Seek","","512 W. Colorado","Colorado Springs","CO","(YC),(D)","Bars/Clubs","",NA,1977,NA,"4/2/2020 9:17pm","7/23/2020 7:26pm","512 W. Colorado, Colorado Springs, CO","-104.8349175","38.8328865","512 w colorado ave, colorado springs, co 80905, usa","Geocoded"
180,"Jinx's Place","(Sign says ""Silver Lounge"" Acacia Hotel)","Tejon & Platt","Colorado Springs","CO","(M)","Bars/Clubs,Hotels","checked",NA,1977,NA,"4/2/2020 9:28pm","7/23/2020 7:26pm","Tejon & Platt, Colorado Springs, CO","-118.9417594","34.9851612","5701 outlets at tejon pkwy #170, arvin, ca 93203, usa","Geocoded"
181,"Sappho's ","","2028 Sheldon Ave.","Colorado Springs","CO","(*)","Bars/Clubs","",NA,1977,NA,"4/2/2020 9:28pm","7/23/2020 7:26pm","2028 Sheldon Ave., Colorado Springs, CO","-104.8579498","38.8420807","2028 sheldon ave, colorado springs, co 80904, usa","Geocoded"
182,"Acacia Park","","","Colorado Springs","CO","Cruisy Area","Cruising Areas","checked",NA,1977,NA,"4/2/2020 9:29pm","7/23/2020 7:26pm",", Colorado Springs, CO","-104.8213634","38.8338816","colorado springs, co, usa","Geocoded"
183,"Buffalo Park","Mantou Springs","","Colorado Springs","CO","Cruisy Area","Cruising Areas","checked",NA,1977,NA,"4/2/2020 9:29pm","7/23/2020 7:26pm",", Colorado Springs, CO","-104.8213634","38.8338816","colorado springs, co, usa","Geocoded"
184,"Alicia's","(Mexican)","278 S. Downing","Denver","CO","(M),(R)","Restaurant","",NA,1977,NA,"4/2/2020 9:29pm","7/23/2020 7:26pm","278 S. Downing, Denver, CO","-104.9732373","39.7115264","278 s downing st, denver, co 80209, usa","Geocoded"
185,"Apartment","(Unisex - ""teenie-boppers"") (3.2 beer only - closes 12 midnight)","1999 Lincoln","Denver","CO","(HIP),(YC),(D)","Bars/Clubs","",NA,1977,NA,"4/2/2020 9:30pm","7/23/2020 7:26pm","1999 Lincoln, Denver, CO","-104.9861307","39.747516","1999 lincoln st, denver, co 80202, usa","Geocoded"
186,"Back Door III","(Use rear entrance)","1512 Broadway","Denver","CO","(S),(*)","Bars/Clubs","",NA,1977,NA,"4/2/2020 9:30pm","7/23/2020 7:26pm","1512 Broadway, Denver, CO","-104.9871219","39.740535","1512 broadway, denver, co 80202, usa","Geocoded"
187,"B.B.C.","(""Jazz"" - E)","1128 Grant","Denver","CO","(M),(R),(E)","Restaurant","",NA,1977,NA,"4/2/2020 9:31pm","7/23/2020 7:26pm","1128 Grant, Denver, CO","-104.9832067","39.7344155","1128 grant st, denver, co 80203, usa","Geocoded"
188,"Bond's Liquor Store","","622 E. 17th Ave.","Denver","CO","","Business","",NA,1977,NA,"4/2/2020 9:31pm","7/23/2020 7:26pm","622 E. 17th Ave., Denver, CO","-104.9792318","39.7431433","622 e 17th ave, denver, co 80203, usa","Geocoded"
189,"Brew","(3.2 beer only - closes at 12 midnight)","608 E. 13th Ave.","Denver","CO","(YC),(D)","Bars/Clubs","",NA,1977,NA,"4/2/2020 9:32pm","7/23/2020 7:26pm","608 E. 13th Ave., Denver, CO","-104.9794787","39.7367329","608 e 13th ave, denver, co 80203, usa","Geocoded"
190,"Broadway Cabaret","(Disco) (D in rear) ","1260 Broadway","Denver","CO","(YC),(*),(R),(D),(PT)","Restaurant,Bars/Clubs","",NA,1977,NA,"4/2/2020 9:33pm","7/23/2020 7:26pm","1260 Broadway, Denver, CO","-104.987365","39.6937018","1260 broadway, denver, co 80210, usa","Geocoded"
191,"Club Baths of Denver","","1359 Court Place","Denver","CO","","Baths","",NA,1977,NA,"4/2/2020 9:33pm","7/23/2020 7:26pm","1359 Court Place, Denver, CO","-104.9918709","39.7404382","1359 court pl, denver, co 80204, usa","Geocoded"
192,"Club Steam Baths","","2935 Zuni St.","Denver","CO","(*)","Baths","",NA,1977,NA,"4/2/2020 9:33pm","7/23/2020 7:26pm","2935 Zuni St., Denver, CO","-105.0160648","39.7592192","2935 zuni st, denver, co 80211, usa","Geocoded"
193,"Cock & Bottle","(Disco) (Upstairs - above the ""Court Jester"")","1617 Court Place","Denver","CO","(D),(*)","Bars/Clubs","",NA,1977,NA,"4/2/2020 9:34pm","7/23/2020 7:26pm","1617 Court Place, Denver, CO","-104.9882761","39.742858","1617 court pl, denver, co 80202, usa","Geocoded"
194,"Cook's Baths","","900 S. Monaco","Denver","CO","(M)","Baths","",NA,1977,NA,"4/2/2020 9:34pm","7/23/2020 7:26pm","900 S. Monaco, Denver, CO","-104.9121482","39.6998854","900 s monaco pkwy, denver, co 80224, usa","Geocoded"
196,"Court Jester","(Also C-AH)","1617 Court Place","Denver","CO","(C),(AH),(*)","Bars/Clubs","",NA,1977,NA,"4/2/2020 9:34pm","7/23/2020 7:26pm","1617 Court Place, Denver, CO","-104.9882761","39.742858","1617 court pl, denver, co 80202, usa","Geocoded"
195,"Den","(""Looking up"" again with new ownership)","5110 W. Colfax","Denver","CO","(W),(R),(PT)","Restaurant","",NA,1977,NA,"4/2/2020 9:34pm","7/23/2020 7:26pm","5110 W. Colfax, Denver, CO","-105.0524766","39.7401799","5110 w colfax ave, denver, co 80204, usa","Geocoded"
197,"Denny's","","16th & Federal ","Denver","CO","(M),(R),(C),(AH)","Restaurant","",NA,1977,NA,"4/2/2020 9:35pm","7/23/2020 7:26pm","16th & Federal , Denver, CO","-95.8512268","36.1387711","s garnett rd & e 16th st s sb, tulsa, ok 74128, usa","Geocoded"
198,"Diamond Inn","(Some B) (Disco) (AH - Friday & Saturday)","1308 Pearl St.","Denver","CO","(B),(YC),(*),(D),(PT),(AH)","Bars/Clubs","",NA,1977,NA,"4/2/2020 9:35pm","7/23/2020 7:26pm","1308 Pearl St., Denver, CO","-104.9796955","39.7371081","1308 pearl st, denver, co 80203, usa","Geocoded"
199,"Door","(Some RT)","1512 Broadway","Denver","CO","(D),(PT),(RT),(*)","Bars/Clubs","",NA,1977,NA,"4/2/2020 9:36pm","7/23/2020 7:26pm","1512 Broadway, Denver, CO","-104.9871219","39.740535","1512 broadway, denver, co 80202, usa","Geocoded"
200,"Empire Steam Baths","","6923 E. Colfax","Denver","CO","(*)","Baths","",NA,1977,NA,"4/2/2020 9:37pm","7/23/2020 7:26pm","6923 E. Colfax, Denver, CO","-104.9074492","39.7404134","6923 e colfax ave, denver, co 80220, usa","Geocoded"
201,"Galaxie Theatre & Book Store","","633 E. Colfax","Denver","CO","","Book Store,Theatre","",NA,1977,NA,"4/2/2020 9:37pm","7/23/2020 7:26pm","633 E. Colfax, Denver, CO","-104.9788853","39.7402371","633 e colfax ave, denver, co 80203, usa","Geocoded"
202,"Gin Mill","(Opens 6 a.m.)","1339 17th St.","Denver","CO","(M),(RT)","Bars/Clubs","",NA,1977,NA,"4/2/2020 9:37pm","7/23/2020 7:26pm","1339 17th St., Denver, CO","-104.9969334","39.7511418","1339 17th st, denver, co 80202, usa","Geocoded"
203,"Gourment Coffee Shop","(also cocktail lounge) Harris Hotel ","1540 Cleveland Pl.","Denver","CO","(M),(RT)","Restaurant,Bars/Clubs,Hotels","",NA,1977,NA,"4/2/2020 9:37pm","7/23/2020 7:26pm","1540 Cleveland Pl., Denver, CO","-104.987977","39.741311","1540 cleveland pl, denver, co 80202, usa","Geocoded"
204,"Hayloft Theatre","","11 S. Broadway","Denver","CO","","Theatre","",NA,1977,NA,"4/2/2020 9:38pm","7/23/2020 7:26pm","11 S. Broadway, Denver, CO","-104.987749","39.7163565","11 s broadway, denver, co 80209, usa","Geocoded"
206,"Kitty's Book Store, Mini Theatre & Model Studio","","735 E. Colfax","Denver","CO","","Book Store,Theatre","",NA,1977,NA,"4/2/2020 9:38pm","7/23/2020 7:26pm","735 E. Colfax, Denver, CO","-104.9780538","39.7402077","735 e colfax ave, denver, co 80203, usa","Geocoded"
205,"Kitty's Central","(Books, ect.)","825 15th St.","Denver","CO","","Book Store","",NA,1977,NA,"4/2/2020 9:38pm","7/23/2020 7:26pm","825 15th St., Denver, CO","-104.9943906","39.7453214","825 15th st, denver, co 80202, usa","Geocoded"
207,"Kitty's South","","119 South Broadway","Denver","CO","","Book Store","",NA,1977,NA,"4/2/2020 9:39pm","7/23/2020 7:26pm","119 South Broadway, Denver, CO","-104.9878542","39.7144202","119 s broadway, denver, co 80223, usa","Geocoded"
209,"Lake Steam Baths","(G only on Thursday nights)","3540 W. Colfax Ave.","Denver","CO","(M),(G)","Baths","",NA,1977,NA,"4/2/2020 9:40pm","7/23/2020 7:26pm","3540 W. Colfax Ave., Denver, CO","-105.0341441","39.7401412","3540 w colfax ave, denver, co 80204, usa","Geocoded"
210,"M.C.C.","","14th & Lafayette","Denver","CO","M.C.C.","Church","",NA,1977,NA,"4/2/2020 9:40pm","7/23/2020 7:26pm","14th & Lafayette, Denver, CO","-73.9970975","40.7374754","14 st, new york, ny 10011, usa","Geocoded"
208,"Music Box Lounge","(""Drags"")","717 E. Colfax","Denver","CO","(S)","Bars/Clubs","",NA,1977,NA,"4/2/2020 9:39pm","7/23/2020 7:26pm","717 E. Colfax, Denver, CO","-104.9781499","39.7401722","717 e colfax ave, denver, co 80203, usa","Geocoded"
211,"Nineteen Forty Two Club","(Some W, SM in front PT) (Disco) (D in rear - also C-AH-WE)","1942 Broadway","Denver","CO","(*),(W),(SM),(PT),(D),(C),(AH),(WE)","Bars/Clubs,Restaurant","",NA,1977,NA,"4/2/2020 9:41pm","7/23/2020 7:26pm","1942 Broadway, Denver, CO","-104.9873665","39.6813011","1942 broadway, denver, co 80210, usa","Geocoded"
212,"P.D.","(""Pirates Den"") (Use back door through parking lot)","1705 Federal Blvd.","Denver","CO","(PT),(*)","Bars/Clubs","",NA,1977,NA,"4/2/2020 9:42pm","7/23/2020 7:26pm","1705 Federal Blvd., Denver, CO","-105.0256749","39.7442711","1705 federal blvd, denver, co 80204, usa","Geocoded"
213,"Three Sisters","","3358 Mariposa","Denver","CO","(G),(D),(*)","Bars/Clubs","",NA,1977,NA,"4/2/2020 9:43pm","7/23/2020 7:26pm","3358 Mariposa, Denver, CO","-105.0027349","39.7642829","3358 mariposa st, denver, co 80211, usa","Geocoded"
214,"Triangle Lounge","","2036 Broadway","Denver","CO","(SM),(W),(PT),(*)","Bars/Clubs","",NA,1977,NA,"4/2/2020 9:43pm","7/23/2020 7:26pm","2036 Broadway, Denver, CO","-104.9871126","39.7499418","2036 broadway, denver, co 80205, usa","Geocoded"
215,"White Spot","","Colfax & Pearl","Denver","CO","(M),(R),(C),(AH)","Restaurant","checked",NA,1977,NA,"4/2/2020 9:44pm","7/23/2020 7:26pm","Colfax & Pearl, Denver, CO","-120.9532759","39.1007298","colfax, ca 95713, usa","Geocoded"
216,"Chessman Park","","","Denver","CO","Cruisy Area","Cruising Areas","checked",NA,1977,NA,"4/2/2020 9:44pm","7/23/2020 7:26pm",", Denver, CO","-104.990251","39.7392358","denver, co, usa","Geocoded"
217,"City Park - East end of Colorado","","","Denver","CO","Cruisy Area","Cruising Areas","checked",NA,1977,NA,"4/2/2020 9:44pm","7/23/2020 7:26pm",", Denver, CO","-104.990251","39.7392358","denver, co, usa","Geocoded"
218,"""Sodomy Circle"" ","State Capitol Grounds (HOT)","","Denver","CO","Cruisy Area,(HOT)","Cruising Areas","checked",NA,1977,NA,"4/2/2020 9:44pm","7/23/2020 7:26pm",", Denver, CO","-104.990251","39.7392358","denver, co, usa","Geocoded"
219,"Washington Park","","","Denver","CO","Cruisy Area","Cruising Areas","checked",NA,1977,NA,"4/2/2020 9:45pm","7/23/2020 7:26pm",", Denver, CO","-104.990251","39.7392358","denver, co, usa","Geocoded"
220,"Reverse 'R' Bar & Cafe","","122 S. 5th St.","Grand Junction","CO","(M),(YC)","Restaurant","",NA,1977,NA,"4/2/2020 9:45pm","7/23/2020 7:26pm","122 S. 5th St., Grand Junction, CO","-108.5640803","39.0667063","122 s 5th st, grand junction, co 81501, usa","Geocoded"
221,"Mozart's","","925 N. Main","Pueblo","CO","(M),(OC),(RT)","Bars/Clubs","",NA,1977,NA,"4/2/2020 9:45pm","7/23/2020 7:26pm","925 N. Main, Pueblo, CO","-104.6086846","38.2754567","925 n main st, pueblo, co 81003, usa","Geocoded"
222,"Side Walk Cafe","(Open 24 hours)","Main at 7th St.","Pueblo","CO","(M),(R),(C)","Restaurant","checked",NA,1977,NA,"4/2/2020 9:46pm","7/23/2020 7:26pm","Main at 7th St., Pueblo, CO","-104.6078278","38.2732691","112 w 7th st, pueblo, co 81003, usa","Geocoded"
223,"Turquoise Club","","707 N. Main St.","Pueblo","CO","(S),(*)","Bars/Clubs","",NA,1977,NA,"4/2/2020 9:46pm","7/23/2020 7:26pm","707 N. Main St., Pueblo, CO","-104.6089203","38.2736964","707 n main st, pueblo, co 81003, usa","Geocoded"
224,"Mineral Palace Park","","","Pueblo","CO","Cruisy Area","Cruising Areas","checked",NA,1977,NA,"4/2/2020 9:46pm","7/23/2020 7:26pm",", Pueblo, CO","-104.6091409","38.2544472","pueblo, co, usa","Geocoded"
225,"Slope","Top of Bridge St.","","Vail","CO","(M),(YC)","Bars/Clubs","checked",NA,1977,NA,"4/2/2020 9:47pm","7/23/2020 7:26pm",", Vail, CO","-106.3741955","39.6402638","vail, co 81657, usa","Geocoded"
226,"Alice's Alley","(Both bars share the same entrance, downstairs below the Aspen Mine Co. (R). Both are very M, HIP, but interesting.)","426 E. Hyman","Aspen","CO","(M),(YC),(HIP)","Bars/Clubs","",NA,1976,NA,"4/8/2020 7:48pm","7/23/2020 7:26pm","426 E. Hyman, Aspen, CO","-106.8190014","39.1891013","426 e hyman ave, aspen, co 81611, usa","Geocoded"
227,"Slope","(Movies) (Both bars share the same entrance, downstairs below the Aspen Mine Co. (R). Both are very M, HIP, but interesting.)","428 E. Hyman","Aspen","CO","(M),(YC),(HIP)","Theatre","",NA,1976,NA,"4/8/2020 7:48pm","7/23/2020 7:26pm","428 E. Hyman, Aspen, CO","-106.818898","39.189146","428 e hyman ave, aspen, co 81611, usa","Geocoded"
228,"Catacombs","(late - downstairs - Boulderado Hotel)","2115 13th St.","Boulder","CO","(M),(R),(HIP),(YC)","Restaurant,Hotels","",NA,1976,NA,"4/8/2020 9:23pm","7/23/2020 7:26pm","2115 13th St., Boulder, CO","-105.2794143","40.0194026","2115 13th st, boulder, co 80302, usa","Geocoded"
229,"Five-O-Seven Club","(Baths)","507 Canyon Bl.","Boulder","CO","(*)","Baths","",NA,1976,NA,"4/8/2020 9:23pm","7/23/2020 7:26pm","507 Canyon Bl., Boulder, CO","-105.2886551","40.0153423","507 canyon blvd, boulder, co 80302, usa","Geocoded"
230,"Norlin Library","","","Boulder","CO","Cruisy Area","Cruising Areas","checked",NA,1976,NA,"4/8/2020 9:24pm","7/23/2020 7:26pm",", Boulder, CO","-105.2705456","40.0149856","boulder, co, usa","Geocoded"
231,"Off campus ","","around 13th & College","Boulder","CO","Cruisy Area","Cruising Areas","checked",NA,1976,NA,"4/8/2020 9:24pm","7/23/2020 7:26pm","around 13th & College, Boulder, CO","-97.3882451","37.7082742","3805 w 13th st n, wichita, ks 67203, usa","Geocoded"
232,"Bunk House","(Ski resort guest house) Tel: 303-453-6475. Box 6, Breckenridge, Colo.","","Breckenridge","CO","(H),(*),(W),(YC)","Hotels","checked",NA,1976,NA,"4/8/2020 9:24pm","7/23/2020 7:26pm",", Breckenridge, CO","-106.0383518","39.4816537","breckenridge, co 80424, usa","Geocoded"
233,"Depot Bar","","110 W. Lincoln","Breckenridge","CO","(M),(YC)","Bars/Clubs","",NA,1976,NA,"4/8/2020 9:24pm","7/23/2020 7:26pm","110 W. Lincoln, Breckenridge, CO","-106.0453276","39.4823496","110 lincoln ave, breckenridge, co 80424, usa","Geocoded"
234,"Box Car","","5935 N. Nevada","Colorado Springs","CO","(YC),(D),(*)","Bars/Clubs","",NA,1976,NA,"4/8/2020 9:25pm","7/23/2020 7:26pm","5935 N. Nevada, Colorado Springs, CO","-104.8145918","38.918274","5935 n nevada ave, colorado springs, co 80918, usa","Geocoded"
235,"Denny's","","I-25 at Bijou","Colorado Springs","CO","(M),(R),(C),(AH)","Restaurant","checked",NA,1976,NA,"4/8/2020 9:25pm","7/23/2020 7:26pm","I-25 at Bijou, Colorado Springs, CO","-104.8606574","38.8492482","w bijou st & 25th st, colorado springs, co 80904, usa","Geocoded"
236,"Exit Lounge","","2028 Sheldon Ave.","Colorado Springs","CO","(*)","Bars/Clubs","",NA,1976,NA,"4/8/2020 9:26pm","7/23/2020 7:26pm","2028 Sheldon Ave., Colorado Springs, CO","-104.8579498","38.8420807","2028 sheldon ave, colorado springs, co 80904, usa","Geocoded"
237,"Hide & Seek","","512 W. Colorado","Colorado Springs","CO","(D),(*),(YC)","Bars/Clubs","",NA,1976,NA,"4/8/2020 9:27pm","7/23/2020 7:26pm","512 W. Colorado, Colorado Springs, CO","-104.8349175","38.8328865","512 w colorado ave, colorado springs, co 80905, usa","Geocoded"
238,"Jinx's Place","(sign says 'Silver Lounge' Acacia Hotel - Tejon & Platt)","","Colorado Springs","CO","(M)","Bars/Clubs,Hotels","checked",NA,1976,NA,"4/8/2020 9:28pm","7/23/2020 7:26pm",", Colorado Springs, CO","-104.8213634","38.8338816","colorado springs, co, usa","Geocoded"
239,"Kona Steam Baths","","1004 S. Tejon","Colorado Springs","CO","","Baths","",NA,1976,NA,"4/8/2020 9:28pm","7/23/2020 7:26pm","1004 S. Tejon, Colorado Springs, CO","-104.8245602","38.8195741","1004 s tejon st, colorado springs, co 80903, usa","Geocoded"
240,"Acacia Park","","","Colorado Springs","CO","Cruisy Area","Cruising Areas","checked",NA,1976,NA,"4/8/2020 9:28pm","7/23/2020 7:26pm",", Colorado Springs, CO","-104.8213634","38.8338816","colorado springs, co, usa","Geocoded"
241,"Buffalo Park","Manitou Springs","","Colorado Springs","CO","Cruisy Area","Cruising Areas","checked",NA,1976,NA,"4/8/2020 9:29pm","7/23/2020 7:26pm",", Colorado Springs, CO","-104.8213634","38.8338816","colorado springs, co, usa","Geocoded"
242,"Beachelors Library ","(Books)","826 15th St.","Denver","CO","","Book Store","",NA,1976,NA,"4/8/2020 9:29pm","7/23/2020 7:26pm","826 15th St., Denver, CO","-104.99498","39.7452537","826 15th st, denver, co 80202, usa","Geocoded"
243,"Back Door III","(use rear entrance)","1512 Broadway","Denver","CO","(S)","Bars/Clubs","",NA,1976,NA,"4/8/2020 9:29pm","7/23/2020 7:26pm","1512 Broadway, Denver, CO","-104.9871219","39.740535","1512 broadway, denver, co 80202, usa","Geocoded"
244,"Brew","(3.2 beer only - closes at 12 midnight)","608 E. 13th Ave.","Denver","CO","(YC),(D)","Bars/Clubs","",NA,1976,NA,"4/8/2020 9:30pm","7/23/2020 7:26pm","608 E. 13th Ave., Denver, CO","-104.9794787","39.7367329","608 e 13th ave, denver, co 80203, usa","Geocoded"
245,"Broadway Cabaret","(Disco) (see ad next page)","1260 Broadway ","Denver","CO","(YC),(R),(D),(*)","Restaurant,Bars/Clubs","",NA,1976,NA,"4/8/2020 9:30pm","7/23/2020 7:26pm","1260 Broadway , Denver, CO","-104.987365","39.6937018","1260 broadway, denver, co 80210, usa","Geocoded"
246,"Central Park West","","551 E. Colfax","Denver","CO","(S)","Bars/Clubs","",NA,1976,NA,"4/8/2020 9:30pm","7/23/2020 7:26pm","551 E. Colfax, Denver, CO","-104.980362","39.7402208","551 e colfax ave, denver, co 80203, usa","Geocoded"
247,"Club Baths of Denver","","1359 Court Pl.","Denver","CO","","Baths","",NA,1976,NA,"4/8/2020 9:31pm","7/23/2020 7:26pm","1359 Court Pl., Denver, CO","-104.9918709","39.7404382","1359 court pl, denver, co 80204, usa","Geocoded"
248,"Club Steam Baths","","2935 Zuni St.","Denver","CO","(*)","Baths","",NA,1976,NA,"4/8/2020 9:31pm","7/23/2020 7:26pm","2935 Zuni St., Denver, CO","-105.0160648","39.7592192","2935 zuni st, denver, co 80211, usa","Geocoded"
249,"Cooks Baths","(much action - reports look very promising)","900 S. Monaco","Denver","CO","","Baths","",NA,1976,NA,"4/8/2020 9:32pm","7/23/2020 7:26pm","900 S. Monaco, Denver, CO","-104.9121482","39.6998854","900 s monaco pkwy, denver, co 80224, usa","Geocoded"
250,"Court Jester","[also C, AH]","1617 Court Pl.","Denver","CO","(*),(C),(AH)","Restaurant","",NA,1976,NA,"4/8/2020 9:32pm","7/23/2020 7:26pm","1617 Court Pl., Denver, CO","-104.9882761","39.742858","1617 court pl, denver, co 80202, usa","Geocoded"
251,"Denny's","","16th & Federal ","Denver","CO","(M),(R),(C),(AH)","Restaurant","",NA,1976,NA,"4/8/2020 9:32pm","7/23/2020 7:26pm","16th & Federal , Denver, CO","-95.8512268","36.1387711","s garnett rd & e 16th st s sb, tulsa, ok 74128, usa","Geocoded"
252,"Door","","1512 Broadway","Denver","CO","(D),(RT),(*)","Bars/Clubs","",NA,1976,NA,"4/8/2020 9:32pm","7/23/2020 7:26pm","1512 Broadway, Denver, CO","-104.9871219","39.740535","1512 broadway, denver, co 80202, usa","Geocoded"
253,"Empire Steam Baths","","6923 E. Colfax","Denver","CO","(*)","Baths","",NA,1976,NA,"4/8/2020 9:33pm","7/23/2020 7:26pm","6923 E. Colfax, Denver, CO","-104.9074492","39.7404134","6923 e colfax ave, denver, co 80220, usa","Geocoded"
254,"Gin Mill","(opens 6 am)","1339 17th St.","Denver","CO","(M),(RT)","Bars/Clubs","",NA,1976,NA,"4/8/2020 9:33pm","7/23/2020 7:26pm","1339 17th St., Denver, CO","-104.9969334","39.7511418","1339 17th st, denver, co 80202, usa","Geocoded"
255,"Hayloft Theatre","","11 S. Broadway","Denver","CO","","Theatre","",NA,1976,NA,"4/8/2020 9:34pm","7/23/2020 7:26pm","11 S. Broadway, Denver, CO","-104.987749","39.7163565","11 s broadway, denver, co 80209, usa","Geocoded"
256,"Lake Steam Baths","(G only on Thursday nights)","3540 W. Colfax Ave.","Denver","CO","(M),(G)","Baths","",NA,1976,NA,"4/8/2020 9:34pm","7/23/2020 7:26pm","3540 W. Colfax Ave., Denver, CO","-105.0341441","39.7401412","3540 w colfax ave, denver, co 80204, usa","Geocoded"
257,"Le Parisian Book Store","","1620 E. Colfax","Denver","CO","","Book Store","",NA,1976,NA,"4/8/2020 9:34pm","7/23/2020 7:26pm","1620 E. Colfax, Denver, CO","-104.9679266","39.7398177","1620 e colfax ave, denver, co 80218, usa","Geocoded"
258,"M.C.C.","","31st & Lawrence","Denver","CO","M.C.C.","Church","checked",NA,1976,NA,"4/8/2020 9:35pm","7/23/2020 7:26pm","31st & Lawrence, Denver, CO","-97.3519094","37.6370944","31st st and seneca, wichita, ks 67217, usa","Geocoded"
259,"Mother's Apartment ","(Unisex - 'Teenie-boppers' - two floors - 3.2 beer only - closes 12 midnight)","1999 Lincoln","Denver","CO","(HIP),(YC)","Bars/Clubs","",NA,1976,NA,"4/8/2020 9:35pm","7/23/2020 7:26pm","1999 Lincoln, Denver, CO","-104.9861307","39.747516","1999 lincoln st, denver, co 80202, usa","Geocoded"
260,"Nineteen-Forty-Two Club","(some SM) [also C, AH, WE]","1942 Broadway","Denver","CO","(W),(SM),(C),(AH),(WE),(*)","Bars/Clubs,Restaurant","",NA,1976,NA,"4/8/2020 9:35pm","7/23/2020 7:26pm","1942 Broadway, Denver, CO","-104.9873665","39.6813011","1942 broadway, denver, co 80210, usa","Geocoded"
261,"R-Den","[also C, AH, WE]","5110 W. Colfax","Denver","CO","(W),(OC),(C),(AH),(WE),(*)","Bars/Clubs,Restaurant","",NA,1976,NA,"4/8/2020 9:36pm","7/23/2020 7:26pm","5110 W. Colfax, Denver, CO","-105.0524766","39.7401799","5110 w colfax ave, denver, co 80204, usa","Geocoded"
262,"P.D.","('Pirates Den' - use back door thru parking lot)","1705 Federal Blvd.","Denver","CO","","Bars/Clubs","",NA,1976,NA,"4/8/2020 9:37pm","7/23/2020 7:26pm","1705 Federal Blvd., Denver, CO","-105.0256749","39.7442711","1705 federal blvd, denver, co 80204, usa","Geocoded"
263,"Three Sisters Lounge","(Locally known as 'the six tits')","3358 Mariposa","Denver","CO","(G),(D),(*)","Bars/Clubs","",NA,1976,NA,"4/8/2020 9:37pm","7/23/2020 7:26pm","3358 Mariposa, Denver, CO","-105.0027349","39.7642829","3358 mariposa st, denver, co 80211, usa","Geocoded"
264,"Triange Lounge","(wild back room)","2036 Broadway","Denver","CO","(SM),(W),(*)","Bars/Clubs","",NA,1976,NA,"4/8/2020 9:38pm","7/23/2020 7:26pm","2036 Broadway, Denver, CO","-104.9871126","39.7499418","2036 broadway, denver, co 80205, usa","Geocoded"
265,"Vogue Art Theatre","","1465 S. Pearl","Denver","CO","","Theatre","",NA,1976,NA,"4/8/2020 9:38pm","7/23/2020 7:26pm","1465 S. Pearl, Denver, CO","-104.9807882","39.689952","1465 s pearl st, denver, co 80203, usa","Geocoded"
266,"White Spot","","Colfax & Pearl","Denver","CO","(M),(R),(C),(AH)","Restaurant","",NA,1976,NA,"4/8/2020 9:38pm","7/23/2020 7:26pm","Colfax & Pearl, Denver, CO","-120.9532759","39.1007298","colfax, ca 95713, usa","Geocoded"
267,"Cheesman Park","","","Denver","CO","Cruisy Area","Cruising Areas","checked",NA,1976,NA,"4/8/2020 9:39pm","7/23/2020 7:26pm",", Denver, CO","-104.990251","39.7392358","denver, co, usa","Geocoded"
268,"City Park","","E. end off Colorado","Denver","CO","Cruisy Area","Cruising Areas","checked",NA,1976,NA,"4/8/2020 9:39pm","7/23/2020 7:26pm","E. end off Colorado, Denver, CO","-104.716687","39.7671392","e-470, denver, co, usa","Geocoded"
269,"Parking Lot","","20th & Broadway","Denver","CO","Cruisy Area","Cruising Areas","checked",NA,1976,NA,"4/8/2020 9:39pm","7/23/2020 7:26pm","20th & Broadway, Denver, CO","-96.0070724","36.1350288","southwest blvd & w 20th st s sb, tulsa, ok 74107, usa","Geocoded"
270,"'Sodomy Circle'","(HOT)","State Capitol grounds","Denver","CO","Cruisy Area,(HOT)","Cruising Areas","checked",NA,1976,NA,"4/8/2020 9:39pm","7/23/2020 7:26pm","State Capitol grounds, Denver, CO","-104.9848069","39.7393251","200 e colfax ave, denver, co 80203, usa","Geocoded"
271,"Washington Park","","","Denver","CO","Cruisy Area","Cruising Areas","checked",NA,1976,NA,"4/8/2020 9:40pm","7/23/2020 7:26pm",", Denver, CO","-104.990251","39.7392358","denver, co, usa","Geocoded"
272,"Hole-In-The-Wall","(Some G) (late) inquire locally","","Pueblo","CO","(M),(G)","Bars/Clubs","checked",NA,1976,NA,"4/8/2020 9:40pm","7/23/2020 7:26pm",", Pueblo, CO","-104.6091409","38.2544472","pueblo, co, usa","Geocoded"
273,"Mozart","","925 N. Main","Pueblo","CO","(M),(OC),(RT)","Bars/Clubs","",NA,1976,NA,"4/8/2020 9:40pm","7/23/2020 7:26pm","925 N. Main, Pueblo, CO","-104.6086846","38.2754567","925 n main st, pueblo, co 81003, usa","Geocoded"
274,"Turquoise Club","(best late, after 9 pm)","707 N. Main","Pueblo","CO","(*)","Bars/Clubs","",NA,1976,NA,"4/8/2020 9:41pm","7/23/2020 7:26pm","707 N. Main, Pueblo, CO","-104.6089203","38.2736964","707 n main st, pueblo, co 81003, usa","Geocoded"
275,"Slope","","Top of Bridge St.","Vail","CO","(M),(YC)","Bars/Clubs","checked",NA,1976,NA,"4/8/2020 9:41pm","7/23/2020 7:26pm","Top of Bridge St., Vail, CO","-106.3736378","39.6398662","254 bridge st, vail, co 81657, usa","Geocoded"
276,"Alice's Alley","(Note: both bars share the same entrance, which is downstairs, below the Aspen Mine Co. Restaurant; both are very mixed, hip, and interesting)","426 E. Hyman","Aspen","CO","(M),(YC),(HIP)","Bars/Clubs","",NA,1975,NA,"4/8/2020 9:42pm","7/23/2020 7:26pm","426 E. Hyman, Aspen, CO","-106.8190014","39.1891013","426 e hyman ave, aspen, co 81611, usa","Geocoded"
277,"Slope","(Note: both bars share the same entrance, which is downstairs, below the Aspen Mine Co. Restaurant; both are very mixed, hip, and interesting)","428 E. Hyman","Aspen","CO","(M),(YC),(HIP)","Theatre","",NA,1975,NA,"4/8/2020 9:44pm","7/23/2020 7:26pm","428 E. Hyman, Aspen, CO","-106.818898","39.189146","428 e hyman ave, aspen, co 81611, usa","Geocoded"
278,"Catacombs","(downstairs)","2115 13th ","Boulder","CO","(M),(YC)","Bars/Clubs","",NA,1975,NA,"4/8/2020 10:19pm","7/23/2020 7:26pm","2115 13th , Boulder, CO","-105.2794143","40.0194026","2115 13th st, boulder, co 80302, usa","Geocoded"
279,"Nikko U Steam Baths","","507 Canyon Blvd.","Boulder","CO","(YC)","Baths","",NA,1975,NA,"4/8/2020 10:20pm","7/23/2020 7:26pm","507 Canyon Blvd., Boulder, CO","-105.2886551","40.0153423","507 canyon blvd, boulder, co 80302, usa","Geocoded"
280,"Norlin Library","","","Boulder","CO","Cruisy Area","Cruising Areas","checked",NA,1975,NA,"4/8/2020 10:20pm","7/23/2020 7:26pm",", Boulder, CO","-105.2705456","40.0149856","boulder, co, usa","Geocoded"
281,"Off campus ","","around 13th & College","Boulder","CO","Cruisy Area","Cruising Areas","checked",NA,1975,NA,"4/8/2020 10:20pm","7/23/2020 7:26pm","around 13th & College, Boulder, CO","-97.3882451","37.7082742","3805 w 13th st n, wichita, ks 67203, usa","Geocoded"
282,"Denny's","","I-25 at Bijou","Colorado Springs","CO","(M),(R),(C),(AH)","Restaurant","checked",NA,1975,NA,"4/8/2020 10:20pm","7/23/2020 7:26pm","I-25 at Bijou, Colorado Springs, CO","-104.8606574","38.8492482","w bijou st & 25th st, colorado springs, co 80904, usa","Geocoded"
283,"Exit Lounge","","2028 Sheldon Avenue","Colorado Springs","CO","(*)","Bars/Clubs","",NA,1975,NA,"4/8/2020 10:21pm","7/23/2020 7:26pm","2028 Sheldon Avenue, Colorado Springs, CO","-104.8579498","38.8420807","2028 sheldon ave, colorado springs, co 80904, usa","Geocoded"
284,"Hide & Seek","","3 E. Colorado","Colorado Springs","CO","(YC),(D),(*)","Bars/Clubs","",NA,1975,NA,"4/8/2020 10:21pm","7/23/2020 7:26pm","3 E. Colorado, Colorado Springs, CO","-104.8252969","38.8325312","3 e colorado ave, colorado springs, co 80943, usa","Geocoded"
285,"Jinx's Place","(Sign says Silver Lounge) Acacia Hotel","Tejon & Platt","Colorado Springs","CO","","Bars/Clubs,Hotels","checked",NA,1975,NA,"4/8/2020 10:27pm","7/23/2020 7:26pm","Tejon & Platt, Colorado Springs, CO","-118.9417594","34.9851612","5701 outlets at tejon pkwy #170, arvin, ca 93203, usa","Geocoded"
286,"Kona Steam Baths","","1004 S. Tejon","Colorado Springs","CO","","Baths","",NA,1975,NA,"4/8/2020 10:27pm","7/23/2020 7:26pm","1004 S. Tejon, Colorado Springs, CO","-104.8245602","38.8195741","1004 s tejon st, colorado springs, co 80903, usa","Geocoded"
287,"M.C.C. ","","P.O. Box 1892","Colorado Springs","CO","M.C.C.","Church","checked",NA,1975,NA,"4/8/2020 10:27pm","7/23/2020 7:26pm","P.O. Box 1892, Colorado Springs, CO","-104.8213634","38.8338816","colorado springs, co, usa","Geocoded"
288,"Acacia Park","","","Colorado Springs","CO","Cruisy Area","Cruising Areas","checked",NA,1975,NA,"4/8/2020 10:28pm","7/23/2020 7:26pm",", Colorado Springs, CO","-104.8213634","38.8338816","colorado springs, co, usa","Geocoded"
289,"Buffalo Park","","Manitou Springs","Colorado Springs","CO","Cruisy Area","Cruising Areas","checked",NA,1975,NA,"4/8/2020 10:28pm","7/23/2020 7:26pm","Manitou Springs, Colorado Springs, CO","-104.9128177","38.8575579","manitou springs, co 80829, usa","Geocoded"
290,"Alicia's Mexican","","278 S. Downing ","Denver","CO","(R)","Restaurant","",NA,1975,NA,"4/8/2020 10:43pm","7/23/2020 7:26pm","278 S. Downing , Denver, CO","-104.9732373","39.7115264","278 s downing st, denver, co 80209, usa","Geocoded"
291,"Alley","(rear entrance)","1512 Broadway","Denver","CO","(W),(SM)","Bars/Clubs","",NA,1975,NA,"4/8/2020 10:43pm","7/23/2020 7:26pm","1512 Broadway, Denver, CO","-104.9871219","39.740535","1512 broadway, denver, co 80202, usa","Geocoded"
292,"Alley Cat","(behind Red Door - Enter through alley opposite Denver Theatre)","1540 Welton","Denver","CO","(D)","Bars/Clubs","",NA,1975,NA,"4/8/2020 10:44pm","7/23/2020 7:26pm","1540 Welton, Denver, CO","-104.991869","39.7439771","1540 welton st, denver, co 80202, usa","Geocoded"
293,"Apartment","(Unisex - 'teenie boppers' - two floors - 3.2 beer only - closes 12 midnight)","1999 Lincoln","Denver","CO","(HIP),(YC),(D)","Bars/Clubs","",NA,1975,NA,"4/8/2020 10:44pm","7/23/2020 7:26pm","1999 Lincoln, Denver, CO","-104.9861307","39.747516","1999 lincoln st, denver, co 80202, usa","Geocoded"
294,"Bachelors Library","(books)","826 15th St.","Denver","CO","","Book Store","",NA,1975,NA,"4/8/2020 10:45pm","7/23/2020 7:26pm","826 15th St., Denver, CO","-104.99498","39.7452537","826 15th st, denver, co 80202, usa","Geocoded"
295,"Bond's Liquor Store ","","622 E. 17th Ave.","Denver","CO","","Business","",NA,1975,NA,"4/8/2020 10:46pm","7/23/2020 7:26pm","622 E. 17th Ave., Denver, CO","-104.9792318","39.7431433","622 e 17th ave, denver, co 80203, usa","Geocoded"
296,"Brew","(3.2 beer only) - closes 12 midnight ","608 E. 13th Ave.","Denver","CO","(YC),(D),(*)","Bars/Clubs","",NA,1975,NA,"4/8/2020 10:46pm","7/23/2020 7:26pm","608 E. 13th Ave., Denver, CO","-104.9794787","39.7367329","608 e 13th ave, denver, co 80203, usa","Geocoded"
297,"Broadway","(Disco)","1260 Broadway","Denver","CO","(YC),(D),(*)","Bars/Clubs","",NA,1975,NA,"4/8/2020 10:46pm","7/23/2020 7:26pm","1260 Broadway, Denver, CO","-104.987365","39.6937018","1260 broadway, denver, co 80210, usa","Geocoded"
298,"Bull Pen","(back room at ouR Den)","5110 W. Colfax","Denver","CO","(W),(SM)","Bars/Clubs","",NA,1975,NA,"4/8/2020 10:47pm","7/23/2020 7:26pm","5110 W. Colfax, Denver, CO","-105.0524766","39.7401799","5110 w colfax ave, denver, co 80204, usa","Geocoded"
299,"Catholic Life Church","St. Augustine's Church & Social Center","2257 W. 32nd St.","Denver","CO","","Church","",NA,1975,NA,"4/8/2020 10:47pm","7/23/2020 7:26pm","2257 W. 32nd St., Denver, CO","-105.0142159","39.7622381","2257 w 32nd ave, denver, co 80211, usa","Geocoded"
300,"Central Park West","","551 E. Colfax","Denver","CO","(*)","Bars/Clubs","",NA,1975,NA,"4/8/2020 10:48pm","7/23/2020 7:26pm","551 E. Colfax, Denver, CO","-104.980362","39.7402208","551 e colfax ave, denver, co 80203, usa","Geocoded"
301,"Church of the Holy Sepulchre","","1425 Welton St.","Denver","CO","","Church","",NA,1975,NA,"4/8/2020 10:48pm","7/23/2020 7:26pm","1425 Welton St., Denver, CO","-104.9934284","39.7428911","1425 welton st, denver, co 80202, usa","Geocoded"
302,"Club Baths of Denver","","1359 Court Pl.","Denver","CO","","Baths","",NA,1975,NA,"4/8/2020 10:48pm","7/23/2020 7:26pm","1359 Court Pl., Denver, CO","-104.9918709","39.7404382","1359 court pl, denver, co 80204, usa","Geocoded"
303,"Club Steam Baths","","2935 Zuni St.","Denver","CO","","Baths","",NA,1975,NA,"4/8/2020 10:49pm","7/23/2020 7:26pm","2935 Zuni St., Denver, CO","-105.0160648","39.7592192","2935 zuni st, denver, co 80211, usa","Geocoded"
304,"Court Jester","(also C after hours)","1617 Court Place","Denver","CO","(C),(*)","Restaurant","",NA,1975,NA,"4/8/2020 10:49pm","7/23/2020 7:26pm","1617 Court Place, Denver, CO","-104.9882761","39.742858","1617 court pl, denver, co 80202, usa","Geocoded"
305,"Denny's","","16th & Federal","Denver","CO","(M),(R),(C),(AH)","Restaurant","checked",NA,1975,NA,"4/8/2020 10:49pm","7/23/2020 7:26pm","16th & Federal, Denver, CO","-95.8512268","36.1387711","s garnett rd & e 16th st s sb, tulsa, ok 74128, usa","Geocoded"
306,"Door ","","1512 Broadway","Denver","CO","(D),(*)","Bars/Clubs","",NA,1975,NA,"4/8/2020 10:49pm","7/23/2020 7:26pm","1512 Broadway, Denver, CO","-104.9871219","39.740535","1512 broadway, denver, co 80202, usa","Geocoded"
307,"Empire Steam Baths","","6923 E. Colfax","Denver","CO","(*)","Baths","",NA,1975,NA,"4/8/2020 10:50pm","7/23/2020 7:26pm","6923 E. Colfax, Denver, CO","-104.9074492","39.7404134","6923 e colfax ave, denver, co 80220, usa","Geocoded"
308,"Genovicci Pizzarea ","Next door to the Brew","","Denver","CO","(R)","Restaurant","checked",NA,1975,NA,"4/8/2020 10:50pm","7/23/2020 7:26pm",", Denver, CO","-104.990251","39.7392358","denver, co, usa","Geocoded"
309,"Gin Mill","(Opens 6 a.m.)","1339 17th St.","Denver","CO","(M),(RT)","Bars/Clubs","",NA,1975,NA,"4/8/2020 10:50pm","7/23/2020 7:26pm","1339 17th St., Denver, CO","-104.9969334","39.7511418","1339 17th st, denver, co 80202, usa","Geocoded"
310,"Hayloft Theatre","","11 S. Broadway","Denver","CO","","Theatre","",NA,1975,NA,"4/8/2020 10:51pm","7/23/2020 7:26pm","11 S. Broadway, Denver, CO","-104.987749","39.7163565","11 s broadway, denver, co 80209, usa","Geocoded"
311,"Lake Steam Baths","(G only on Thurs.)","3540 W. Colfax Ave.","Denver","CO","(M),(G)","Baths","",NA,1975,NA,"4/8/2020 10:51pm","7/23/2020 7:26pm","3540 W. Colfax Ave., Denver, CO","-105.0341441","39.7401412","3540 w colfax ave, denver, co 80204, usa","Geocoded"
312,"Mama's Kitchen","ouR Den","5110 W. Colfax","Denver","CO","(R)","Restaurant","",NA,1975,NA,"4/8/2020 10:52pm","7/23/2020 7:26pm","5110 W. Colfax, Denver, CO","-105.0524766","39.7401799","5110 w colfax ave, denver, co 80204, usa","Geocoded"
313,"M.C.C.","","272 Grant","Denver","CO","M.C.C.","Church","",NA,1975,NA,"4/8/2020 10:52pm","7/23/2020 7:26pm","272 Grant, Denver, CO","-104.9835408","39.7207983","272 grant st, denver, co 80203, usa","Geocoded"
314,"ouR Den","(also C after hours weekends)","5110 W. Colfax","Denver","CO","(W),(C),(*)","Restaurant","",NA,1975,NA,"4/8/2020 10:52pm","7/23/2020 7:26pm","5110 W. Colfax, Denver, CO","-105.0524766","39.7401799","5110 w colfax ave, denver, co 80204, usa","Geocoded"
315,"P.D.","(Pirate's Den - use back door through parking lot)","1705 Federal Blvd.","Denver","CO","","Bars/Clubs","",NA,1975,NA,"4/8/2020 10:53pm","7/23/2020 7:26pm","1705 Federal Blvd., Denver, CO","-105.0256749","39.7442711","1705 federal blvd, denver, co 80204, usa","Geocoded"
316,"Red Door","","1540 Welton","Denver","CO","","Bars/Clubs","",NA,1975,NA,"4/8/2020 10:53pm","7/23/2020 7:26pm","1540 Welton, Denver, CO","-104.991869","39.7439771","1540 welton st, denver, co 80202, usa","Geocoded"
317,"Rocky Mountain Bar","(was closed, may be re-opening)","7th & Water","Denver","CO","(RT),(G)","Bars/Clubs","checked",NA,1975,NA,"4/8/2020 10:53pm","7/23/2020 7:26pm","7th & Water, Denver, CO","-94.2713961","39.0126194","600 mo-7, blue springs, mo 64014, usa","Geocoded"
318,"Rocky Mountain Hotel","","2307 7th St.","Denver","CO","(H),(M),(RT)","Hotels","",NA,1975,NA,"4/8/2020 10:54pm","7/23/2020 7:26pm","2307 7th St., Denver, CO","-105.0145918","39.7523387","2307 7th st, denver, co 80211, usa","Geocoded"
319,"Side-by-SIde","","1942 Broadway","Denver","CO","(YC),(D),(*)","Bars/Clubs","",NA,1975,NA,"4/8/2020 10:54pm","7/23/2020 7:26pm","1942 Broadway, Denver, CO","-104.9873665","39.6813011","1942 broadway, denver, co 80210, usa","Geocoded"
320,"Three Sisters Lounge","","3358 Marapose","Denver","CO","(G),(D)","Bars/Clubs","",NA,1975,NA,"4/8/2020 10:54pm","7/23/2020 7:26pm","3358 Marapose, Denver, CO","-105.0027349","39.7642829","3358 mariposa st, denver, co 80211, usa","Geocoded"
321,"Triangle Lounge","","2036 Broadway","Denver","CO","(SM),(W),(*)","Bars/Clubs","",NA,1975,NA,"4/8/2020 10:55pm","7/23/2020 7:26pm","2036 Broadway, Denver, CO","-104.9871126","39.7499418","2036 broadway, denver, co 80205, usa","Geocoded"
322,"Vogue Art Theatre ","","1465 S. Pearl","Denver","CO","","Theatre","",NA,1975,NA,"4/8/2020 10:55pm","7/23/2020 7:26pm","1465 S. Pearl, Denver, CO","-104.9807882","39.689952","1465 s pearl st, denver, co 80203, usa","Geocoded"
323,"White Spot","","Colfax & Pearl","Denver","CO","(M),(R),(C),(AH)","Restaurant","checked",NA,1975,NA,"4/8/2020 11:03pm","7/23/2020 7:26pm","Colfax & Pearl, Denver, CO","-120.9532759","39.1007298","colfax, ca 95713, usa","Geocoded"
324,"Cheeseman Park ","","","Denver","CO","Cruisy Area","Cruising Areas","checked",NA,1975,NA,"4/8/2020 11:08pm","7/23/2020 7:26pm",", Denver, CO","-104.990251","39.7392358","denver, co, usa","Geocoded"
325,"Parking lot at 20th & Broadway","","","Denver","CO","Cruisy Area","Cruising Areas","checked",NA,1975,NA,"4/8/2020 11:09pm","7/23/2020 7:26pm",", Denver, CO","-104.990251","39.7392358","denver, co, usa","Geocoded"
326,"'Sodomy Circle'","(HOT)","State Capitol grounds","Denver","CO","Cruisy Area,(HOT)","Cruising Areas","checked",NA,1975,NA,"4/8/2020 11:16pm","7/23/2020 7:26pm","State Capitol grounds, Denver, CO","-104.9848069","39.7393251","200 e colfax ave, denver, co 80203, usa","Geocoded"
327,"Washington Park","","N. Lake Pavilion","Denver","CO","Cruisy Area","Cruising Areas","checked",NA,1975,NA,"4/8/2020 11:16pm","7/23/2020 7:26pm","N. Lake Pavilion, Denver, CO","-104.9523469","39.7462645","city park pavilion, 2001 steele st, denver, co 80205, usa","Geocoded"
328,"Mozart Lounge","","925 N. Main","Pueblo","CO","(M)","Bars/Clubs","",NA,1975,NA,"4/8/2020 11:17pm","7/23/2020 7:26pm","925 N. Main, Pueblo, CO","-104.6086846","38.2754567","925 n main st, pueblo, co 81003, usa","Geocoded"
329,"Slope","","Top of Bridge St.","Vail","CO","(M),(YC)","Bars/Clubs","checked",NA,1975,NA,"4/8/2020 11:17pm","7/23/2020 7:26pm","Top of Bridge St., Vail, CO","-106.3736378","39.6398662","254 bridge st, vail, co 81657, usa","Geocoded"
330,"Alice's Alley","(Note: Both bars share the same entrance, which is downstairs, below the Aspen Mine Co. Restaurant; both are very mixed, hip, and interesting.)","426 E. Hyman","Aspen","CO","(M),(YC),(HIP)","Bars/Clubs","",NA,1975,NA,"4/8/2020 11:17pm","7/23/2020 7:26pm","426 E. Hyman, Aspen, CO","-106.8190014","39.1891013","426 e hyman ave, aspen, co 81611, usa","Geocoded"
331,"Slope","(movies) (Note: Both bars share the same entrance, which is downstairs, below the Aspen Mine Co. Restaurant; both are very mixed, hip, and interesting.)","428 E. Hyman","Aspen","CO","(M),(YC),(HIP)","Theatre","",NA,1974,NA,"4/8/2020 11:18pm","7/23/2020 7:26pm","428 E. Hyman, Aspen, CO","-106.818898","39.189146","428 e hyman ave, aspen, co 81611, usa","Geocoded"
332,"Catacombs","(downstairs) Boulderado Hotel","","Boulder","CO","(M),(YC)","Bars/Clubs,Hotels","checked",NA,1974,NA,"4/8/2020 11:20pm","7/23/2020 7:26pm",", Boulder, CO","-105.2705456","40.0149856","boulder, co, usa","Geocoded"
333,"Nikko-U Steam Baths","","507 Canyon Blvd.","Boulder","CO","(YC)","Baths","",NA,1974,NA,"4/8/2020 11:20pm","7/23/2020 7:26pm","507 Canyon Blvd., Boulder, CO","-105.2886551","40.0153423","507 canyon blvd, boulder, co 80302, usa","Geocoded"
334,"Off campus","","around 13th & College","Boulder","CO","Cruisy Area","Cruising Areas","checked",NA,1974,NA,"4/8/2020 11:21pm","7/23/2020 7:26pm","around 13th & College, Boulder, CO","-97.3882451","37.7082742","3805 w 13th st n, wichita, ks 67203, usa","Geocoded"
335,"Brass Horn","(upstairs, above the 'Exit')","2028 Sheldon Ave.","Colorado Springs","CO","(R)","Restaurant","",NA,1974,NA,"4/8/2020 11:21pm","7/23/2020 7:26pm","2028 Sheldon Ave., Colorado Springs, CO","-104.8579498","38.8420807","2028 sheldon ave, colorado springs, co 80904, usa","Geocoded"
336,"Denny's","(after hours)","I-25 at Bijou","Colorado Springs","CO","(M),(R),(C),(AH)","Restaurant","checked",NA,1974,NA,"4/8/2020 11:21pm","7/23/2020 7:26pm","I-25 at Bijou, Colorado Springs, CO","-104.8606574","38.8492482","w bijou st & 25th st, colorado springs, co 80904, usa","Geocoded"
337,"Exit 21","","2028 Sheldon Ave.","Colorado Springs","CO","(D),(*)","Bars/Clubs","",NA,1974,NA,"4/8/2020 11:22pm","7/23/2020 7:26pm","2028 Sheldon Ave., Colorado Springs, CO","-104.8579498","38.8420807","2028 sheldon ave, colorado springs, co 80904, usa","Geocoded"
338,"Hide & Seek","","3 E. Colorado","Colorado Springs","CO","(YC),(D),(*)","Bars/Clubs","",NA,1974,NA,"4/8/2020 11:22pm","7/23/2020 7:26pm","3 E. Colorado, Colorado Springs, CO","-104.8252969","38.8325312","3 e colorado ave, colorado springs, co 80943, usa","Geocoded"
339,"Kona Steam Baths","","1004 S. Tejon","Colorado Springs","CO","","Baths","",NA,1974,NA,"4/8/2020 11:22pm","7/23/2020 7:26pm","1004 S. Tejon, Colorado Springs, CO","-104.8245602","38.8195741","1004 s tejon st, colorado springs, co 80903, usa","Geocoded"
340,"M.C.C.","","730 N. Tejon at Dale","Colorado Springs","CO","M.C.C.","Church","",NA,1974,NA,"4/8/2020 11:22pm","7/23/2020 7:26pm","730 N. Tejon at Dale, Colorado Springs, CO","-104.823312","38.844889","730 n tejon st, colorado springs, co 80903, usa","Geocoded"
341,"Wee-G's ","","517 E. Pikes Peak Ave.","Colorado Springs","CO","(M),(G)","Bars/Clubs","",NA,1974,NA,"4/8/2020 11:23pm","7/23/2020 7:26pm","517 E. Pikes Peak Ave., Colorado Springs, CO","-104.8154983","38.833351","517 e pikes peak ave, colorado springs, co 80903, usa","Geocoded"
342,"Ace Books & Movies","","920 18th St.","Denver","CO","","Book Store","",NA,1974,NA,"4/8/2020 11:23pm","7/23/2020 7:26pm","920 18th St., Denver, CO","-104.9916937","39.7485339","920 18th st, denver, co 80202, usa","Geocoded"
343,"Apartment ","(two floors - Unisex - 'teenie boppers' - 3.2. beer only - closes 12 midnight)","1999 Lincoln","Denver","CO","(HIP),(D),(YC),(*)","Bars/Clubs","",NA,1974,NA,"4/8/2020 11:23pm","7/23/2020 7:26pm","1999 Lincoln, Denver, CO","-104.9861307","39.747516","1999 lincoln st, denver, co 80202, usa","Geocoded"
344,"Bachelors Library ","(books)","826 15th St.","Denver","CO","","Book Store","",NA,1974,NA,"4/8/2020 11:24pm","7/23/2020 7:26pm","826 15th St., Denver, CO","-104.99498","39.7452537","826 15th st, denver, co 80202, usa","Geocoded"
345,"Baron Theatre","","2054 Broadway","Denver","CO","","Theatre","",NA,1974,NA,"4/8/2020 11:24pm","7/23/2020 7:26pm","2054 Broadway, Denver, CO","-104.9871923","39.7501695","2054 broadway, denver, co 80205, usa","Geocoded"
346,"Bond's Liquor Store","","622 E. 17th Ave.","Denver","CO","","Business","",NA,1974,NA,"4/8/2020 11:24pm","7/23/2020 7:26pm","622 E. 17th Ave., Denver, CO","-104.9792318","39.7431433","622 e 17th ave, denver, co 80203, usa","Geocoded"
347,"Bull Pen","(back room at 'ouR Den')","5110 W. Colfax","Denver","CO","(W),(SM)","Bars/Clubs","",NA,1974,NA,"4/8/2020 11:25pm","7/23/2020 7:26pm","5110 W. Colfax, Denver, CO","-105.0524766","39.7401799","5110 w colfax ave, denver, co 80204, usa","Geocoded"
348,"Cathloic Life Church","St. Augustine's Church & Social Center","2257 W. 32nd St.","Denver","CO","","Church","",NA,1974,NA,"4/8/2020 11:25pm","7/23/2020 7:26pm","2257 W. 32nd St., Denver, CO","-105.0142159","39.7622381","2257 w 32nd ave, denver, co 80211, usa","Geocoded"
349,"Church of the Holy Sepulchre","","1425 Welton St.","Denver","CO","","Church","",NA,1974,NA,"4/8/2020 11:26pm","7/23/2020 7:26pm","1425 Welton St., Denver, CO","-104.9934284","39.7428911","1425 welton st, denver, co 80202, usa","Geocoded"
350,"Club Baths of Denver ","","1359 Court Pl.","Denver","CO","","Baths","",NA,1974,NA,"4/8/2020 11:26pm","7/23/2020 7:26pm","1359 Court Pl., Denver, CO","-104.9918709","39.7404382","1359 court pl, denver, co 80204, usa","Geocoded"
351,"Club Steam Baths","","2935 Zuni St.","Denver","CO","(*)","Baths","",NA,1974,NA,"4/8/2020 11:26pm","7/23/2020 7:26pm","2935 Zuni St., Denver, CO","-105.0160648","39.7592192","2935 zuni st, denver, co 80211, usa","Geocoded"
352,"Court Jester","(also C after hours)","1617 Court Pl.","Denver","CO","(YC),(*),(C)","Restaurant","",NA,1974,NA,"4/8/2020 11:27pm","7/23/2020 7:26pm","1617 Court Pl., Denver, CO","-104.9882761","39.742858","1617 court pl, denver, co 80202, usa","Geocoded"
353,"Gin Mill","(opens 6 am)","1339 17th St.","Denver","CO","(M),(RT)","Bars/Clubs","",NA,1974,NA,"4/8/2020 11:27pm","7/23/2020 7:26pm","1339 17th St., Denver, CO","-104.9969334","39.7511418","1339 17th st, denver, co 80202, usa","Geocoded"
354,"Hayloft Theatre","","11 S. Broadway","Denver","CO","","Theatre","",NA,1974,NA,"4/8/2020 11:27pm","7/23/2020 7:26pm","11 S. Broadway, Denver, CO","-104.987749","39.7163565","11 s broadway, denver, co 80209, usa","Geocoded"
355,"Lake Steam Baths","","3540 W. Colfax Ave.","Denver","CO","(M)","Baths","",NA,1974,NA,"4/8/2020 11:28pm","7/23/2020 7:26pm","3540 W. Colfax Ave., Denver, CO","-105.0341441","39.7401412","3540 w colfax ave, denver, co 80204, usa","Geocoded"
356,"M.C.C.","","1400 Lafayette","Denver","CO","M.C.C.","Church","",NA,1974,NA,"4/8/2020 11:28pm","7/23/2020 7:26pm","1400 Lafayette, Denver, CO","-104.9703734","39.7387375","1400 n lafayette st, denver, co 80218, usa","Geocoded"
357,"Mirror Room","(back room at 'Show-Time Lounge' or enter thru alley opp. Denver Theatre)","1540 Welton","Denver","CO","(D)","Bars/Clubs","",NA,1974,NA,"4/8/2020 11:28pm","7/23/2020 7:26pm","1540 Welton, Denver, CO","-104.991869","39.7439771","1540 welton st, denver, co 80202, usa","Geocoded"
358,"Other Door","(The Other Door, Don's Alley & Alicia's Mexican Restaurant all burned, but are supposedly re-opening Spring of '73)","1518 Broadway","Denver","CO","","Bars/Clubs","",NA,1974,NA,"4/8/2020 11:29pm","7/23/2020 7:26pm","1518 Broadway, Denver, CO","-104.9871217","39.7405562","1518 broadway, denver, co 80202, usa","Geocoded"
359,"ouR-Den","(also C) after hours on weekends","5110 W. Colfax Ave.","Denver","CO","(W),(R),(*)","Restaurant","",NA,1974,NA,"4/8/2020 11:30pm","7/23/2020 7:26pm","5110 W. Colfax Ave., Denver, CO","-105.0524766","39.7401799","5110 w colfax ave, denver, co 80204, usa","Geocoded"
360,"P.D.","(use back door thru parking lot - 3.2 beer only - closes ","1705 Federal Blvd.","Denver","CO","","Bars/Clubs","",NA,1974,NA,"4/8/2020 11:30pm","7/23/2020 7:26pm","1705 Federal Blvd., Denver, CO","-105.0256749","39.7442711","1705 federal blvd, denver, co 80204, usa","Geocoded"
361,"Rocky Mountain Bar","","7th & Water","Denver","CO","(G),(D),(*)","Bars/Clubs","checked",NA,1974,NA,"4/8/2020 11:31pm","7/23/2020 7:26pm","7th & Water, Denver, CO","-94.2713961","39.0126194","600 mo-7, blue springs, mo 64014, usa","Geocoded"
362,"Rocky Mountain Hotel","","2301 7th St.","Denver","CO","(H),(M),(RT)","Hotels","",NA,1974,NA,"4/8/2020 11:35pm","7/23/2020 7:26pm","2301 7th St., Denver, CO","-105.0145354","39.752276","2301 7th st, denver, co 80211, usa","Geocoded"
363,"Showtime Lounge","","1540 Welton","Denver","CO","(S)","Bars/Clubs","",NA,1974,NA,"4/8/2020 11:35pm","7/23/2020 7:26pm","1540 Welton, Denver, CO","-104.991869","39.7439771","1540 welton st, denver, co 80202, usa","Geocoded"
364,"Side-by-Side","","1942 Broadway","Denver","CO","(HIP),(YC),(D),(*)","Bars/Clubs","",NA,1974,NA,"4/8/2020 11:36pm","7/23/2020 7:26pm","1942 Broadway, Denver, CO","-104.9873665","39.6813011","1942 broadway, denver, co 80210, usa","Geocoded"
365,"Vogue Art Theatre ","","1465 S. Pearl ","Denver","CO","","Theatre","",NA,1974,NA,"4/8/2020 11:36pm","7/23/2020 7:26pm","1465 S. Pearl , Denver, CO","-104.9807882","39.689952","1465 s pearl st, denver, co 80203, usa","Geocoded"
366,"White Spot","(after hours)","Colax & Pearl","Denver","CO","(M),(R),(C)","Restaurant","checked",NA,1974,NA,"4/8/2020 11:36pm","7/23/2020 7:26pm","Colax & Pearl, Denver, CO",NA,NA,"NA","Geocoded"
367,"Cheeseman Park","","","Denver","CO","Cruisy Area","Cruising Areas","checked",NA,1974,NA,"4/8/2020 11:37pm","7/23/2020 7:26pm",", Denver, CO","-104.990251","39.7392358","denver, co, usa","Geocoded"
368,"City Park ","","E. end of Colorado","Denver","CO","Cruisy Area","Cruising Areas","checked",NA,1974,NA,"4/8/2020 11:37pm","7/23/2020 7:26pm","E. end of Colorado, Denver, CO","-104.8689038","39.7101087","10400 e alameda ave #1, denver, co 80247, usa","Geocoded"
369,"Parking lot at 20th & Broadway","","","Denver","CO","Cruisy Area","Cruising Areas","checked",NA,1974,NA,"4/8/2020 11:44pm","7/23/2020 7:26pm",", Denver, CO","-104.990251","39.7392358","denver, co, usa","Geocoded"
370,"'Sodomy Cirlce'","","St. Capitol grounds","Denver","CO","Cruisy Area","Cruising Areas","checked",NA,1974,NA,"4/8/2020 11:44pm","7/23/2020 7:26pm","St. Capitol grounds, Denver, CO","-104.985203","39.740504","1525 sherman st # b15, denver, co 80203, usa","Geocoded"
371,"Washington Park","","N. Lake Pavilion ","Denver","CO","Cruisy Area","Cruising Areas","checked",NA,1974,NA,"4/8/2020 11:44pm","7/23/2020 7:26pm","N. Lake Pavilion , Denver, CO","-104.9523469","39.7462645","city park pavilion, 2001 steele st, denver, co 80205, usa","Geocoded"
372,"Slope","(movies)","Top of Bridge St.","Denver","CO","(M),(YC)","Theatre","checked",NA,1974,NA,"4/8/2020 11:44pm","7/23/2020 7:26pm","Top of Bridge St., Denver, CO","-105.0040751","39.7598228","19th street bridge, s platte river dr, denver, co 80202, usa","Geocoded"
373,"Slope ","","428 E. Hyman","Aspen","CO","(YC),(M)","Bars/Clubs","",NA,1973,NA,"4/8/2020 11:48pm","7/23/2020 7:26pm","428 E. Hyman, Aspen, CO","-106.818898","39.189146","428 e hyman ave, aspen, co 81611, usa","Geocoded"
374,"Catacombs","(downstairs) Boulderado Hotel","2115 13th","Boulder","CO","(YC),(M)","Bars/Clubs,Hotels","",NA,1973,NA,"4/8/2020 11:49pm","7/23/2020 7:26pm","2115 13th, Boulder, CO","-105.2794143","40.0194026","2115 13th st, boulder, co 80302, usa","Geocoded"
375,"Nikko-U Steam Baths","","507 Canyon Blvd.","Boulder","CO","","Baths","",NA,1973,NA,"4/8/2020 11:52pm","7/23/2020 7:26pm","507 Canyon Blvd., Boulder, CO","-105.2886551","40.0153423","507 canyon blvd, boulder, co 80302, usa","Geocoded"
376,"Off campus around 13th & College","","","Boulder","CO","Cruisy Area","Cruising Areas","checked",NA,1973,NA,"4/8/2020 11:52pm","7/23/2020 7:26pm",", Boulder, CO","-105.2705456","40.0149856","boulder, co, usa","Geocoded"
377,"Denny's","(after hours)","Bijou at I-25","Colorado Springs","CO","(M),(R),(C),(AH)","Restaurant","checked",NA,1973,NA,"4/8/2020 11:53pm","7/23/2020 7:26pm","Bijou at I-25, Colorado Springs, CO","-104.8528108","38.8452561","w bijou st, colorado springs, co, usa","Geocoded"
378,"Exit 21","","2028 Sheldon Ave.","Colorado Springs","CO","(YC),(*)","Bars/Clubs","",NA,1973,NA,"4/9/2020 12:17am","7/23/2020 7:26pm","2028 Sheldon Ave., Colorado Springs, CO","-104.8579498","38.8420807","2028 sheldon ave, colorado springs, co 80904, usa","Geocoded"
379,"Wee-G's","","517 E. Pikes Pk. Ave.","Colorado Springs","CO","(M),(G)","Bars/Clubs","",NA,1973,NA,"4/9/2020 12:18am","7/23/2020 7:26pm","517 E. Pikes Pk. Ave., Colorado Springs, CO","-104.8154983","38.833351","517 e pikes peak ave, colorado springs, co 80903, usa","Geocoded"
380,"Ace Book & Movies","","920 18th St.","Denver","CO","","Book Store","",NA,1973,NA,"4/9/2020 12:18am","7/23/2020 7:26pm","920 18th St., Denver, CO","-104.9916937","39.7485339","920 18th st, denver, co 80202, usa","Geocoded"
381,"Catholic Life Church","St. Augustines Chapel","2257 W. 32nd St.","Denver","CO","","Church","",NA,1973,NA,"4/9/2020 12:18am","7/23/2020 7:26pm","2257 W. 32nd St., Denver, CO","-105.0142159","39.7622381","2257 w 32nd ave, denver, co 80211, usa","Geocoded"
382,"Cherry Creek Tavern","(some G)","1301 Lawrence","Denver","CO","(G),(R),(D)","Restaurant,Bars/Clubs","",NA,1973,NA,"4/9/2020 12:19am","7/23/2020 7:26pm","1301 Lawrence, Denver, CO","-105.0007103","39.7452738","1301 lawrence st, denver, co 80204, usa","Geocoded"
383,"Club Baths of Denver","","1359 Court Pl.","Denver","CO","","Baths","",NA,1973,NA,"4/9/2020 12:19am","7/23/2020 7:26pm","1359 Court Pl., Denver, CO","-104.9918709","39.7404382","1359 court pl, denver, co 80204, usa","Geocoded"
384,"Club Steam Baths","","2935 Zuni St.","Denver","CO","(*)","Baths","",NA,1973,NA,"4/9/2020 12:19am","7/23/2020 7:26pm","2935 Zuni St., Denver, CO","-105.0160648","39.7592192","2935 zuni st, denver, co 80211, usa","Geocoded"
385,"Court Jester","","1617 Court Pl.","Denver","CO","(YC),(*)","Bars/Clubs","",NA,1973,NA,"4/9/2020 12:20am","7/23/2020 7:26pm","1617 Court Pl., Denver, CO","-104.9882761","39.742858","1617 court pl, denver, co 80202, usa","Geocoded"
386,"Denny's","(after hours)","16th & Federal","Denver","CO","(M),(R),(C)","Restaurant","checked",NA,1973,NA,"4/9/2020 12:20am","7/23/2020 7:26pm","16th & Federal, Denver, CO","-95.8512268","36.1387711","s garnett rd & e 16th st s sb, tulsa, ok 74128, usa","Geocoded"
387,"Drawn Shade Theatre","","20th & Broadway","Denver","CO","","Theatre","",NA,1973,NA,"4/9/2020 12:20am","7/23/2020 7:26pm","20th & Broadway, Denver, CO","-96.0070724","36.1350288","southwest blvd & w 20th st s sb, tulsa, ok 74107, usa","Geocoded"
388,"Lake Steam Baths","","3540 Colfax","Denver","CO","","Baths","",NA,1973,NA,"4/9/2020 12:20am","7/23/2020 7:26pm","3540 Colfax, Denver, CO","-105.0341441","39.7401412","3540 w colfax ave, denver, co 80204, usa","Geocoded"
389,"Metropolitan Community Church","1st Unitarian Church ","14th & Lafayette ","Denver","CO","M.C.C.","Church","checked",NA,1973,NA,"4/9/2020 12:21am","7/23/2020 7:26pm","14th & Lafayette , Denver, CO","-73.9970975","40.7374754","14 st, new york, ny 10011, usa","Geocoded"
390,"My Place","(also D in back room) ","1541 Welton","Denver","CO","(S),(*),(D)","Bars/Clubs","",NA,1973,NA,"4/9/2020 12:23am","7/23/2020 7:26pm","1541 Welton, Denver, CO","-104.9919567","39.7440937","1541 welton st, denver, co 80202, usa","Geocoded"
391,"Other Door","","1518 Broadway","Denver","CO","","Bars/Clubs","",NA,1973,NA,"4/9/2020 12:23am","7/23/2020 7:26pm","1518 Broadway, Denver, CO","-104.9871217","39.7405562","1518 broadway, denver, co 80202, usa","Geocoded"
392,"Our Club","(3.2 beer only)","15th & Broadway","Denver","CO","(P),(D),(*)","Bars/Clubs","checked",NA,1973,NA,"4/9/2020 12:23am","7/23/2020 7:26pm","15th & Broadway, Denver, CO","2.2927665","48.8421616","15th arrondissement of paris, 75015 paris, france","Geocoded"
393,"Our-Den","(Also C after hrs)","5110 W. Colfax","Denver","CO","(W),(SM),(*)","Bars/Clubs","",NA,1973,NA,"4/9/2020 12:24am","7/23/2020 7:26pm","5110 W. Colfax, Denver, CO","-105.0524766","39.7401799","5110 w colfax ave, denver, co 80204, usa","Geocoded"
394,"Pirates Den ","(use back door thru parking lot)","1705 Federal Blvd.","Denver","CO","","Bars/Clubs","",NA,1973,NA,"4/9/2020 12:24am","7/23/2020 7:26pm","1705 Federal Blvd., Denver, CO","-105.0256749","39.7442711","1705 federal blvd, denver, co 80204, usa","Geocoded"
395,"Rocky Mountain Bar","","7th & Water","Denver","CO","(G)","Bars/Clubs","checked",NA,1973,NA,"4/9/2020 12:24am","7/23/2020 7:26pm","7th & Water, Denver, CO","-94.2713961","39.0126194","600 mo-7, blue springs, mo 64014, usa","Geocoded"
