"ID","Title","description","streetaddress","city","state","amenityfeatures","type","Year","unclearaddress","uncleartype","notes","dateadded","lastmodified","full.address","lon","lat","geoAddress","status"
3,"Eightballs Lounge","(Disco) (3-1-79: Biz must be off as they have't paid me?)","369 Central Ave.","Albany","NY","(YC),(D)","Baths",1980,NA,"","","2/18/2020 10:27am","7/27/2020 11:34am","369 Central Ave., Albany, NY","-73.7739629","42.6664037","369 central ave, albany, ny 12206, usa","Geocoded"
2,"Club Capital","(Baths)","351 Central Ave.","Albany","NY","(P)","Baths",1980,NA,"","","2/18/2020 10:27am","7/27/2020 11:35am","351 Central Ave., Albany, NY","-73.773385","42.666071","351 central ave, albany, ny 12206, usa","Geocoded"
1,"Central Station","('Mixed bag'- looking up) (Some YC)","76 Central Ave.","Albany","NY","(YC),(*)","Bars/Clubs",1980,NA,"","","2/18/2020 10:27am","7/27/2020 11:35am","76 Central Ave., Albany, NY","-73.7664709","42.6590586","76 central ave, albany, ny 12206, usa","Geocoded"
4,"Gay Community Center","(Snacks & C)","332 Hudson Ave.","Albany","NY","","Organizations",1980,NA,"","","2/18/2020 10:39am","7/27/2020 11:35am","332 Hudson Ave., Albany, NY","-73.7655537","42.653269","332 hudson ave, albany, ny 12210, usa","Geocoded"
5,"Le Chancerie","(Disco)","439 N. Pearl St.","Albany","NY","(D)","Bars/Clubs",1980,NA,"","","2/18/2020 10:39am","7/27/2020 11:35am","439 N. Pearl St., Albany, NY","-73.7435072","42.6649585","439 n pearl st, menands, ny 12204, usa","Geocoded"
7,"Playhouse","(Cruisy)","519 Central Ave.","Albany","NY","(D),(*)","Bars/Clubs,Cruising Areas",1980,NA,"","","2/18/2020 10:39am","7/27/2020 11:35am","519 Central Ave., Albany, NY","-73.778183","42.670101","519 central ave, albany, ny 12206, usa","Geocoded"
6,"Pent House","(Good days- Some midnight cowboys')","90 Central Ave.","Albany","NY","(PT),(D),(*)","Bars/Clubs",1980,NA,"","","2/18/2020 10:39am","7/27/2020 11:35am","90 Central Ave., Albany, NY","-73.7667352","42.659367","90 central ave, albany, ny 12206, usa","Geocoded"
8,"Zelda's","(Disco)","425 Central Ave.","Albany","NY","(YC),(D)","Bars/Clubs",1980,NA,"","","2/18/2020 10:39am","7/27/2020 11:35am","425 Central Ave., Albany, NY","-73.7757017","42.6678869","425 central ave, albany, ny 12206, usa","Geocoded"
14,"C'Est Bon ","","2520 Merrick Rd.","Bellmore","NY","(OC),(*)","Bars/Clubs",1980,NA,"","Listed as Long Island","2/18/2020 11:37am","7/27/2020 11:35am","2520 Merrick Rd., Bellmore, NY","-73.5324719","40.6620889","2520 merrick rd, bellmore, ny 11710, usa","Geocoded"
15,"Pal Joey's ","","2475 Jerusalem Ave.","Bellmore","NY","(YC),(*)","Bars/Clubs",1980,NA,"","Listed as Long Island","2/18/2020 11:37am","7/27/2020 11:35am","2475 Jerusalem Ave., Bellmore, NY","-73.5406124","40.6911924","2475 jerusalem ave, north bellmore, ny 11710, usa","Geocoded"
17,"Lenny's","(Some YC, L) (Disco) (WE*)","201 State St.","Binghamton","NY","(YC),(L),(D),(WE),(*)","Bars/Clubs",1980,NA,"","","2/18/2020 11:37am","7/27/2020 11:35am","201 State St., Binghamton, NY","-75.9118006","42.1018782","201 state st, binghamton, ny 13901, usa","Geocoded"
16,"Cadillac","(Closed- May or may not be reopening?)","9 Main St.","Binghamton","NY","","Bars/Clubs",1980,NA,"","","2/18/2020 11:37am","7/27/2020 11:35am","9 Main St., Binghamton, NY","-75.9172638","42.098597","9 main st, binghamton, ny 13905, usa","Geocoded"
23,"Book Art 4 ","(Books)","4 E. Chippewa","Buffalo","NY","","Book Store",1980,NA,"","","2/18/2020 11:37am","7/27/2020 11:35am","4 E. Chippewa, Buffalo, NY","-78.872644","42.8900424","4 e chippewa st, buffalo, ny 14203, usa","Geocoded"
22,"Allen","","43 Allen","Buffalo","NY","(R)","Restaurant",1980,NA,"","","2/18/2020 11:37am","7/27/2020 11:35am","43 Allen, Buffalo, NY","-78.8716972","42.8995772","43 allen st, buffalo, ny 14202, usa","Geocoded"
24,"Capri Art Theatre","(Active T-Room, lobby, back rows)","3165 Bailey Ave.","Buffalo","NY","(M)","Theatre",1980,NA,"","","2/18/2020 11:37am","7/27/2020 11:35am","3165 Bailey Ave., Buffalo, NY","-78.813359","42.940922","3165 bailey ave, buffalo, ny 14215, usa","Geocoded"
25,"Club Buffalo Baths","","44 Alameda","Amherst","NY","(P),(*)","Baths",1980,NA,"","","2/18/2020 11:37am","7/27/2020 11:35am","44 Alameda, Amherst, NY","-78.792272","42.9790067","amherst, ny, usa","Geocoded"
26,"Cole's Restaurant","","1104 Elmwood Ave.","Buffalo","NY","(M),(PE),(WE)","Restaurant",1980,NA,"","","2/18/2020 11:37am","7/27/2020 11:35am","1104 Elmwood Ave., Buffalo, NY","-78.8772268","42.9273391","1104 elmwood ave, buffalo, ny 14222, usa","Geocoded"
29,"Main Chippewa Book Store","","610 Main St.","Buffalo","NY","","Book Store",1980,NA,"","","2/18/2020 11:37am","7/27/2020 11:35am","610 Main St., Buffalo, NY","-78.8730744","42.8906129","610 main st, buffalo, ny 14202, usa","Geocoded"
28,"Dominique","","20 Allen St.","Buffalo","NY","(OC),(D),(*)","Bars/Clubs",1980,NA,"","","2/18/2020 11:37am","7/27/2020 11:35am","20 Allen St., Buffalo, NY","-78.8708764","42.8991982","20 allen st, buffalo, ny 14202, usa","Geocoded"
27,"Copper Kettle ","","2295 Main","Buffalo","NY","(R)","Restaurant",1980,NA,"","","2/18/2020 11:37am","7/27/2020 11:35am","2295 Main, Buffalo, NY","-78.846621","42.931814","2295 main st, buffalo, ny 14214, usa","Geocoded"
30,"Matachine Society","","66 Oxford St.","Buffalo","NY","","Organizations",1980,NA,"","","2/18/2020 11:37am","7/27/2020 11:35am","66 Oxford St., Buffalo, NY","-78.8651802","42.9172213","66 oxford ave, buffalo, ny 14209, usa","Geocoded"
32,"Morgan Turkish Bath","","655 Main St.","Buffalo","NY","(RT),(M)","Baths",1980,NA,"","","2/18/2020 11:37am","7/27/2020 11:35am","655 Main St., Buffalo, NY","-78.8720148","42.8916599","655 main st, buffalo, ny 14203, usa","Geocoded"
33,"Mother's Bakery","","33 Virginia Pl.","Buffalo","NY","(M),(R)","Restaurant",1980,NA,"","","2/18/2020 11:37am","7/27/2020 11:35am","33 Virginia Pl., Buffalo, NY","-78.8734282","42.8977156","33 virginia pl, buffalo, ny 14202, usa","Geocoded"
34,"Mr. Goodbar","(Very M) (Disco) (Best around bar)","1110 Elmwood Ave.","Buffalo","NY","(M),(D),(AYOR)","Bars/Clubs",1980,NA,"","","2/18/2020 11:37am","7/27/2020 11:35am","1110 Elmwood Ave., Buffalo, NY","-78.8772313","42.9274779","1110 elmwood ave, buffalo, ny 14222, usa","Geocoded"
31,"Mean Alice's ","(Disco) (2 bars- go go boys)","729 Main St.","Buffalo","NY","(YC),(D),(R),(*)","Bars/Clubs,Restaurant",1980,NA,"","","2/18/2020 11:37am","7/27/2020 11:35am","729 Main St., Buffalo, NY","-78.8715761","42.8938285","729 main st, buffalo, ny 14203, usa","Geocoded"
35,"Murphy's Omega Cafe","","369 Pearl St.","Buffalo","NY","(R),(M)","Restaurant",1980,NA,"","","2/18/2020 11:37am","7/27/2020 11:35am","369 Pearl St., Buffalo, NY","-78.8743707","42.8893973","369 pearl st, buffalo, ny 14202, usa","Geocoded"
37,"People's Choice","(Disco) (Should be a winner)","621 Main St.","Buffalo","NY","(D)","Bars/Clubs",1980,NA,"","","2/18/2020 11:37am","7/27/2020 11:35am","621 Main St., Buffalo, NY","-78.872225","42.8910766","621 main st, buffalo, ny 14203, usa","Geocoded"
36,"Open House","(Open 24 hours)","516 Delaware","Buffalo","NY","(M),(R)","Restaurant",1980,NA,"","","2/18/2020 11:37am","7/27/2020 11:35am","516 Delaware, Buffalo, NY","-78.8742955","42.8983646","516 delaware ave, buffalo, ny 14202, usa","Geocoded"
38,"Rosy, Rum & Rations","","486 Elmwood Ave.","Buffalo","NY","(R),(PT),(L)","Bars/Clubs,Restaurant",1980,NA,"","","2/18/2020 11:37am","7/27/2020 11:35am","486 Elmwood Ave., Buffalo, NY","-78.8773861","42.9103012","486 elmwood ave, buffalo, ny 14222, usa","Geocoded"
40,"Villa Capri ","(Some W, SM) (New & larger location) nr. Allen","926 Main St.","Buffalo","NY","(W),(SM),(D),(*)","Bars/Clubs",1980,NA,"","","2/18/2020 11:37am","7/27/2020 11:35am","926 Main St., Buffalo, NY","-78.8702032","42.8991479","926 main st, buffalo, ny 14202, usa","Geocoded"
39,"Texas Red Hot","(Also C- AH*)","1335 Jefferson","Buffalo","NY","(R),(C),(AH),(*)","Restaurant",1980,NA,"","","2/18/2020 11:37am","7/27/2020 11:35am","1335 Jefferson, Buffalo, NY","-78.8538674","42.9115369","1335 jefferson ave, buffalo, ny 14208, usa","Geocoded"
43,"Genesse Theatre","('Back room"")","1600 Genesee","Buffalo","NY","Cruisy Area","Theatre,Cruising Areas",1980,NA,"","","2/18/2020 11:37am","7/27/2020 11:35am","1600 Genesee, Buffalo, NY","-78.8216293","42.9097789","1600 genesee st, buffalo, ny 14211, usa","Geocoded"
52,"Mary's ","(Some L) (Sleazy)","112 Lake St.","Elmira","NY","(L),(RT)","Bars/Clubs",1980,NA,"","","2/18/2020 11:37am","7/27/2020 11:35am","112 Lake St., Elmira, NY","-76.8009555","42.0888943","112 lake st, elmira, ny 14901, usa","Geocoded"
50,"Club Emanon","(Disco) L.I.","825 Merrick Rd.","Copiaque","NY","(YC),(D),(S),(PT),(*)","Bars/Clubs",1980,NA,"","Long Island","2/18/2020 11:37am","7/27/2020 11:35am","825 Merrick Rd., Copiaque, NY","-73.6116699","40.650966","825 merrick rd, baldwin, ny 11510, usa","Geocoded"
51,"East","(Disco) (Looks promising)","836 Grand Blvd.","Deer Park","NY","(S),(D)","Bars/Clubs",1980,NA,"","Long Island","2/18/2020 11:37am","7/27/2020 11:35am","836 Grand Blvd., Deer Park, NY","-73.3075429","40.7616183","836 grand blvd, deer park, ny 11729, usa","Geocoded"
53,"The David","","511 Railroad Ave.","Elmira","NY","(YC),(D),(*)","Bars/Clubs",1980,NA,"","","2/18/2020 11:37am","7/27/2020 11:35am","511 Railroad Ave., Elmira, NY","-76.80888","42.093553","511 railroad ave, elmira, ny 14901, usa","Geocoded"
66,"New Lining ","(Disco) (Some L) (WE*)","175 Cherry Land","Floral Park","NY","(D),(S),(L),(WE),(*)","Bars/Clubs",1980,NA,"","Long Island","2/18/2020 11:37am","7/27/2020 11:35am","175 Cherry Land, Floral Park, NY","-73.6974672","40.7356932","175 cherry ln, floral park, ny 11001, usa","Geocoded"
72,"Nite Court","","215 N. Aurora","Ithaca","NY","(M)","Bars/Clubs",1980,NA,"","","2/18/2020 11:37am","7/27/2020 11:35am","215 N. Aurora, Ithaca, NY","-76.4954416","42.4409855","215 n aurora st, ithaca, ny 14850, usa","Geocoded"
69,"Blue Angel ","(Some L) (Disco) at Hancock","213 5th. St.","Ithaca","NY","(L),(D)","Bars/Clubs",1980,NA,"","","2/18/2020 11:37am","7/27/2020 11:35am","213 5th. St., Ithaca, NY","-76.5070607","42.4457178","213 5th st, ithaca, ny 14850, usa","Geocoded"
70,"Common Ground ","(Disco)","134 W. State St.","Ithaca","NY","(YC),(D),(E),(*)","Bars/Clubs",1980,NA,"","","2/18/2020 11:37am","7/27/2020 11:35am","134 W. State St., Ithaca, NY","-76.5003839","42.4397002","134 w state st, ithaca, ny 14850, usa","Geocoded"
74,"Ming Book Store","","265 Main St.","Johnson City","NY","","Book Store",1980,NA,"","","2/18/2020 11:38am","7/27/2020 11:35am","265 Main St., Johnson City, NY","-75.9562169","42.1157014","265 main st, johnson city, ny 13790, usa","Geocoded"
79,"Woodshed","(Cruisy)","237 Main St.","Lake Placid","NY","(M),(R),(*)","Cruising Areas,Bars/Clubs",1980,NA,"","","2/18/2020 11:38am","7/27/2020 11:35am","237 Main St., Lake Placid, NY","-73.9840428","44.2854201","main st, lake placid, ny 12946, usa","Geocoded"
78,"Foxgrove","(Disco) (Best around bar)","3 School St.","Lake Placid","NY","(M),(YC),(D)","Bars/Clubs",1980,NA,"","","2/18/2020 11:38am","7/27/2020 11:35am","3 School St., Lake Placid, NY","-73.9826094","44.2816611","3 school st, lake placid, ny 12946, usa","Geocoded"
81,"Charisma","(Disco)","235 Lake Shore Rd.","Lake Ronkonkoma","NY","(S),(D)","Bars/Clubs",1980,NA,"","Long Island","2/18/2020 11:38am","7/27/2020 11:35am","235 Lake Shore Rd., Lake Ronkonkoma, NY","-73.1164159","40.8280299","235 lake shore rd, lake ronkonkoma, ny 11779, usa","Geocoded"
83,"Marie's Dockside Lounge","","771 S. 9th St.","Lindenhurst","NY","(L)","Bars/Clubs",1980,NA,"","Long Island","2/18/2020 11:38am","7/27/2020 11:35am","771 S. 9th St., Lindenhurst, NY","-73.3741162","40.6696257","771 s 9th st, lindenhurst, ny 11757, usa","Geocoded"
82,"Mark V","(Disco)","262 Portion Rd.","Lake Ronkonkoma","NY","(L),(R),(D)","Restaurant,Bars/Clubs",1980,NA,"","Long Island","2/18/2020 11:38am","7/27/2020 11:35am","262 Portion Rd., Lake Ronkonkoma, NY","-73.1018739","40.8273361","262 portion rd, lake ronkonkoma, ny 11779, usa","Geocoded"
86,"Barbary Coast","(Shades of S.F.'s Castro St.- looks promising)  at 14th St.","64 7th Ave.","Greenwich Village","NY","","Bars/Clubs",1980,NA,"","","2/18/2020 11:38am","7/27/2020 11:35am","64 7th Ave., Greenwich Village, NY","-73.9997225","40.7388673","64 7th ave, new york, ny 10011, usa","Geocoded"
85,"Zippers","(Disco) 1mi. S. of town","165 Rte. 208","New Paltz","NY","(PT),(D),(SM),(L)","Bars/Clubs",1980,NA,"","","2/18/2020 11:38am","7/27/2020 11:35am","165 Rte. 208, New Paltz, NY","-74.098279","41.7312145","165 ny-208, new paltz, ny 12561, usa","Geocoded"
88,"Big DIsh","","383 W. 12th St.","Greenwich Village","NY","(M),(R)","Restaurant",1980,NA,"","","2/18/2020 11:38am","7/27/2020 11:35am","383 W. 12th St., Greenwich Village, NY","-74.008756","40.737755","383 w 12th st, new york, ny 10014, usa","Geocoded"
87,"Beau Geste","at 20th St.","239 3rd Ave.","Greenwich Village","NY","(R)","Restaurant",1980,NA,"","","2/18/2020 11:38am","7/27/2020 11:35am","239 3rd Ave., Greenwich Village, NY","-73.9843661","40.736684","239 3rd ave, new york, ny 10003, usa","Geocoded"
89,"Big Wok","(Chinese R)","753 Washington St.","Greenwich Village","NY","(*),(M),(R)","Restaurant",1980,NA,"","","2/18/2020 11:38am","7/27/2020 11:35am","753 Washington St., Greenwich Village, NY","-74.0080946","40.7368806","753 washington st, new york, ny 10014, usa","Geocoded"
93,"Bonnie & Clyde's ","(Disco) (Cruisy) (also Bonnie's (R) Upstairs)","82 W. 3rd St.","Greenwich Village","NY","(YC),(L),(D),(PT),(R)","Cruising Areas,Bars/Clubs,Restaurant",1980,NA,"","","2/18/2020 11:38am","7/27/2020 11:35am","82 W. 3rd St., Greenwich Village, NY","-73.9989571","40.7297021","82 w 3rd st, new york, ny 10012, usa","Geocoded"
90,"Black Sheep","(No booze- take your own wine)","342 W. 11th St.","Greenwich Village","NY","(R)","Restaurant",1980,NA,"","","2/18/2020 11:38am","7/27/2020 11:35am","342 W. 11th St., Greenwich Village, NY","-74.0080807","40.7354605","342 w 11th st, new york, ny 10014, usa","Geocoded"
92,"Blowfish","(Seafood R) at Perry","551 Hudson at Perry","Greenwich Village","NY","(R)","Restaurant",1980,NA,"","","2/18/2020 11:38am","7/27/2020 11:35am","551 Hudson at Perry, Greenwich Village, NY","-74.0063025","40.7352609","551 hudson st, new york, ny 10014, usa","Geocoded"
91,"Blue Skies","","183 W. 10th St.","Greenwich Village","NY","(R),(*)","Restaurant",1980,NA,"","","2/18/2020 11:38am","7/27/2020 11:35am","183 W. 10th St., Greenwich Village, NY","-74.0028479","40.7343755","183 w 10th st, new york, ny 10014, usa","Geocoded"
94,"Boots & Saddle ","(Some W,SM) (Cruisy)","76 Christopher St.","Greenwich Village","NY","(W),(SM),(*)","Cruising Areas,Bars/Clubs",1980,NA,"","","2/18/2020 11:38am","7/27/2020 11:35am","76 Christopher St., Greenwich Village, NY","-74.0034034","40.7334603","76 christopher st, new york, ny 10014, usa","Geocoded"
96,"Casa Paco","(Mexican R)","330 Bleecker St.","Greenwich Village","NY","(M),(R)","Restaurant",1980,NA,"","","2/18/2020 11:38am","7/27/2020 11:35am","330 Bleecker St., Greenwich Village, NY","-74.004603","40.7334848","330 bleecker st, new york, ny 10014, usa","Geocoded"
95,"Carr's ","","204 W. 10th St.","Greenwich Village","NY","(OC)","Bars/Clubs",1980,NA,"","","2/18/2020 11:38am","7/27/2020 11:35am","204 W. 10th St., Greenwich Village, NY","-74.0039708","40.7338736","204 w 10th st, new york, ny 10014, usa","Geocoded"
99,"Charlie & Kelly's","(Closed Sundays) at Perry","259 W. 4th St.","Greenwich Village","NY","(M),(R)","Restaurant",1980,NA,"","","2/18/2020 11:38am","7/27/2020 11:35am","259 W. 4th St., Greenwich Village, NY","-74.003141","40.7354258","259 west 4th street, new york, ny 10014, usa","Geocoded"
97,"Cave","(Disco)","24 E. 22nd St.","Greenwich Village","NY","(AH),(D)","Bars/Clubs",1980,NA,"","","2/18/2020 11:38am","7/27/2020 11:35am","24 E. 22nd St., Greenwich Village, NY","-73.9883564","40.739904","24 e 22nd st, new york, ny 10010, usa","Geocoded"
98,"Cell Block","","372 W. 11th St.","Greenwich Village","NY","(SM),(P)","Bars/Clubs",1980,NA,"","","2/18/2020 11:38am","7/27/2020 11:35am","372 W. 11th St., Greenwich Village, NY","-74.0095653","40.735189","372 w 11th st, new york, ny 10014, usa","Geocoded"
101,"Christopher St. Book Shop","at Christopher","500 Hudson St.","Greenwich Village","NY","(*)","Book Store",1980,NA,"","","2/18/2020 11:38am","7/27/2020 11:35am","500 Hudson St., Greenwich Village, NY","-74.006136","40.73299","500 hudson st, new york, ny 10014, usa","Geocoded"
103,"Club Baths","('Tops' in N.Y.C.) (Some W,SM, YC) at 2nd St.","24 1st Ave.","Greenwich Village","NY","(W),(SM),(YC),(*)","Baths",1980,NA,"","","2/18/2020 11:38am","7/27/2020 11:35am","24 1st Ave., Greenwich Village, NY","-73.9879491","40.7236446","24 1st avenue, new york, ny 10009, usa","Geocoded"
102,"Church of the Beloved Disciple","","348 W. 14th St.","Greenwich Village","NY","","Church",1980,NA,"","","2/18/2020 11:38am","7/27/2020 11:35am","348 W. 14th St., Greenwich Village, NY","-74.0047474","40.7404517","348 w 14th st, new york, ny 10014, usa","Geocoded"
100,"Chez Stadium","","56 Greenwich Ave.","Greenwich Village","NY","(R)","Restaurant",1980,NA,"","","2/18/2020 11:38am","7/27/2020 11:35am","56 Greenwich Ave., Greenwich Village, NY","-74.0004721","40.7359015","56 greenwich ave, new york, ny 10011, usa","Geocoded"
104,"Clyde's","","340 Bleecker St.","Greenwich Village","NY","(R)","Restaurant",1980,NA,"","","2/18/2020 11:38am","7/27/2020 11:35am","340 Bleecker St., Greenwich Village, NY","-74.0046953","40.7337333","340 bleecker st, new york, ny 10014, usa","Geocoded"
107,"Danny's First","at Greenwhich","139 Christopher St.","Greenwich Village","NY","(PT),(*)","Bars/Clubs",1980,NA,"","","2/18/2020 11:38am","7/27/2020 11:35am","139 Christopher St., Greenwich Village, NY","-74.0071685","40.733018","139 christopher st, new york, ny 10014, usa","Geocoded"
105,"Cock Ring","(Disco) (Some YC) at West St.","189 Christopher St.","Greenwich Village","NY","(D),(YC),(*)","Bars/Clubs",1980,NA,"","","2/18/2020 11:38am","7/27/2020 11:35am","189 Christopher St., Greenwich Village, NY","-74.0100576","40.7325749","189 christopher st, new york, ny 10014, usa","Geocoded"
108,"David's Pot Belly","(Late)","98 Chirstopher St.","Greenwich Village","NY","(M),(R)","Restaurant",1980,NA,"","","2/18/2020 11:38am","7/27/2020 11:35am","98 Chirstopher St., Greenwich Village, NY","-74.004656","40.7331669","98 christopher st, new york, ny 10014, usa","Geocoded"
109,"Djuna Books","","154 W. 19th St.","Greenwich Village","NY","(L)","Book Store",1980,NA,"","","2/18/2020 11:38am","7/27/2020 11:35am","154 W. 19th St., Greenwich Village, NY","-73.9969418","40.7412538","154 w 19th st, new york, ny 10011, usa","Geocoded"
110,"Duchess","(L only)","70 Grove St.","Greenwich Village","NY","(D),(L)","Bars/Clubs",1980,NA,"","","2/18/2020 11:38am","7/27/2020 11:35am","70 Grove St., Greenwich Village, NY","-74.002802","40.7331527","70 grove st, new york, ny 10014, usa","Geocoded"
111,"Duff's","(Italian R)","115 Christopher St.","Greenwich Village","NY","(M),(R)","Restaurant",1980,NA,"","","2/18/2020 11:38am","7/27/2020 11:35am","115 Christopher St., Greenwich Village, NY","-74.0054357","40.7334062","115 christopher st, new york, ny 10014, usa","Geocoded"
112,"Duplex","(Expensive Cabaret) (Disco)","55 Grove St.","Greenwich Village","NY","(D)","Bars/Clubs",1980,NA,"","","2/18/2020 11:38am","7/27/2020 11:35am","55 Grove St., Greenwich Village, NY","-74.0035415","40.733207","55 grove st, new york, ny 10014, usa","Geocoded"
115,"Five Oaks","at Bleecker","49 Grove St.","Greenwich Village","NY","(M),(R),(E)","Restaurant",1980,NA,"","","2/18/2020 11:38am","7/27/2020 11:35am","49 Grove St., Greenwich Village, NY","-74.0037967","40.7331585","49 grove st, new york, ny 10014, usa","Geocoded"
114,"Fedora's","","239 W. 4th St.","Greenwich Village","NY","(M),(R)","Restaurant",1980,NA,"","","2/18/2020 11:38am","7/27/2020 11:35am","239 W. 4th St., Greenwich Village, NY","-74.0029004","40.734537","239 west 4th street, new york, ny 10014, usa","Geocoded"
117,"Four Eleven","","411 Bleecker St.","Greenwich Village","NY","(M),(R)","Restaurant",1980,NA,"","","2/18/2020 11:38am","7/27/2020 11:35am","411 Bleecker St., Greenwich Village, NY","-74.0050709","40.736316","411 bleecker st, new york, ny 10014, usa","Geocoded"
116,"Flamingo","(No booze- 'jocks' & juice bar Thur. - Fri. Sat. only) at Houston","599 Broadway","Greenwich Village","NY","(P),(YC),(*)","Bars/Clubs",1980,NA,"","","2/18/2020 11:38am","7/27/2020 11:35am","599 Broadway, Greenwich Village, NY","-73.9971632","40.7253375","ayer building, 599 broadway, new york, ny 10012, usa","Geocoded"
120,"Horn of Plenty","(Patio) at Bleecker","91 Charles St.","Greenwich Village","NY","(PE),(M),(R)","Restaurant",1980,NA,"","","2/18/2020 11:38am","7/27/2020 11:35am","91 Charles St., Greenwich Village, NY","-74.0052007","40.7347572","91 charles st, new york, ny 10014, usa","Geocoded"
119,"Glory Hole","","130 11th Ave.","Greenwich Village","NY","(P),(SM),(FFA),(*)","Bars/Clubs",1980,NA,"","","2/18/2020 11:38am","7/27/2020 11:35am","130 11th Ave., Greenwich Village, NY","-73.9996802","40.7357603","130 w 11th st, new york, ny 10011, usa","Geocoded"
123,"International","(TheStud) ('wild back room') at Perry","733 Greenwhich","Greenwich Village","NY","(D),(*)","Bars/Clubs",1980,NA,"","","2/18/2020 11:38am","7/27/2020 11:35am","733 Greenwhich, Greenwich Village, NY","-74.006679","40.735173","733 greenwich st, new york, ny 10014, usa","Geocoded"
121,"Inferno","(Disco)","5 W. 19th St.","Greenwich Village","NY","(YC),(D)","Bars/Clubs",1980,NA,"","","2/18/2020 11:38am","7/27/2020 11:35am","5 W. 19th St., Greenwich Village, NY","-73.991888","40.739494","5 w 19th st, new york, ny 10011, usa","Geocoded"
122,"Infinity","(Very M) (Unisex) (Disco) at 3rd Ave.","653 Broadway","Greenwich Village","NY","(D),(M)","Bars/Clubs",1980,NA,"","","2/18/2020 11:38am","7/27/2020 11:35am","653 Broadway, Greenwich Village, NY","-73.9957494","40.7270095","653 broadway, new york, ny 10012, usa","Geocoded"
126,"Jewel Theatre","at 12th St.","100 3rd Ave.","Greenwich Village","NY","","Theatre",1980,NA,"","","2/18/2020 11:38am","7/27/2020 11:35am","100 3rd Ave., Greenwich Village, NY","-73.9882183","40.7325484","100 3rd ave, new york, ny 10003, usa","Geocoded"
124,"Jan Wallman's","","28 Cornelia St.","New York City","NY","(R),(E)","Restaurant",1980,NA,"","","2/18/2020 11:38am","7/27/2020 11:35am","28 Cornelia St., New York City, NY","-74.0023544","40.7311877","28 cornelia st, new york, ny 10014, usa","Geocoded"
125,"Jeffery's","(Cabaret E) (2 floors) betw. Bleecker & Hudson","228 W. 10th St.","Greenwich Village","NY","(R),(E)","Restaurant",1980,NA,"","","2/18/2020 11:38am","7/27/2020 11:35am","228 W. 10th St., Greenwich Village, NY","-74.0051144","40.7337081","228 w 10th st, new york, ny 10014, usa","Geocoded"
127,"Julius","(Snacks, cruisy days)","159 W. 10th St.","Greenwich Village","NY","(*)","Cruising Areas,Bars/Clubs",1980,NA,"","","2/18/2020 11:38am","7/27/2020 11:35am","159 W. 10th St., Greenwich Village, NY","-74.0017116","40.7345329","159 w 10th st, new york, ny 10014, usa","Geocoded"
128,"Keller's","(Some W. SM Everything) (Good Sun.) nr. Barrow","384 West St.","Greenwich Village","NY","(*),(W),(SM)","Bars/Clubs",1980,NA,"","","2/18/2020 11:38am","7/27/2020 11:35am","384 West St., Greenwich Village, NY","-74.0102763","40.732003","384 west st, new york, ny 10014, usa","Geocoded"
130,"Laminations","(Gift Shop)","39 Christopher St.","Greenwich Village","NY","","Business",1980,NA,"","","2/18/2020 11:38am","7/27/2020 11:35am","39 Christopher St., Greenwich Village, NY","-74.0015554","40.7339022","39 christopher st, new york, ny 10014, usa","Geocoded"
129,"Kelly's Village West","(Some L) (Cabaret) at 7th","46 Bedford St.","Greenwich Village","NY","(L)","Bars/Clubs",1980,NA,"","","2/18/2020 11:38am","7/27/2020 11:35am","46 Bedford St., Greenwich Village, NY","-74.0041563","40.730584","46 bedford st, new york, ny 10014, usa","Geocoded"
131,"Legend Gallery","(Adult Boutique)","152 7th Ave. S.","Greenwich Village","NY","","Business",1980,NA,"","","2/18/2020 11:38am","7/27/2020 11:35am","152 7th Ave. S., Greenwich Village, NY","-74.0021248","40.7352865","152 7th ave s, new york, ny 10014, usa","Geocoded"
132,"Leather Man","(Clothes, books, leather, 'toys', etc.)","85 Christopher St.","Greenwich Village","NY","(*)","Business,Book Store",1980,NA,"","","2/18/2020 11:38am","7/27/2020 11:35am","85 Christopher St., Greenwich Village, NY","-74.0038693","40.7336419","85 christopher st, new york, ny 10014, usa","Geocoded"
133,"Les Mouches","(Disco) (M- WE) at 26th St.","260 W. 11th Ave.","Greenwich Village","NY","(P),(YC),(D),(E),(*),(WE)","Bars/Clubs",1980,NA,"","","2/18/2020 11:38am","7/27/2020 11:35am","260 W. 11th Ave., Greenwich Village, NY","-74.0038119","40.7360179","260 w 11th st, new york, ny 10014, usa","Geocoded"
138,"M.C.C.","","26 9th Ave.","Greenwich Village","NY","(MCC)","Church",1980,NA,"","","2/18/2020 11:38am","7/27/2020 11:35am","26 9th Ave., Greenwich Village, NY","-74.0054841","40.7404474","26 9th ave, new york, ny 10014, usa","Geocoded"
135,"Manhattan South","","1 Sheridan Square","Greenwich Village","NY","(R)","Restaurant",1980,NA,"","","2/18/2020 11:38am","7/27/2020 11:35am","1 Sheridan Square, Greenwich Village, NY","-74.0019021","40.7328605","1 sheridan square, new york, ny 10014, usa","Geocoded"
137,"Marie's Crisis","(Downstairs) (Bingo) at Sheridan Sq.","59 Grove St.","Greenwich Village","NY","","Bars/Clubs",1980,NA,"","","2/18/2020 11:38am","7/27/2020 11:35am","59 Grove St., Greenwich Village, NY","-74.0033971","40.7332382","59 grove st, new york, ny 10014, usa","Geocoded"
136,"Man's Country","(Baths) (Gym & Fantasy rooms)","28 W. 15th St.","Greenwich Village","NY","(*)","Baths",1980,NA,"","","2/18/2020 11:38am","7/27/2020 11:35am","28 W. 15th St., Greenwich Village, NY","-73.9947793","40.7371782","28 w 15th st, new york, ny 10011, usa","Geocoded"
139,"Mineshaft","(Upstairs) ('wild back room')","835 Washington St.","Greenwich Village","NY","(P),(SM),(W),(*)","Bars/Clubs",1980,NA,"","","2/18/2020 11:38am","7/27/2020 11:35am","835 Washington St., Greenwich Village, NY","-74.0076797","40.7403979","835 washington st, new york, ny 10014, usa","Geocoded"
141,"Ninth Circle","(Cruisy) (2 floors)","139 W. 10th St.","Greenwich Village","NY","(HIP),(YC),(*)","Cruising Areas,Bars/Clubs",1980,NA,"","","2/18/2020 11:38am","7/27/2020 11:35am","139 W. 10th St., Greenwich Village, NY","-74.0007993","40.7347958","139 w 10th st, new york, ny 10014, usa","Geocoded"
140,"New St. Marks Baths","(Extensive renovations) at 3rd Ave.","6 St. Marks Place","Greenwich Village","NY","(*)","Baths",1980,NA,"","","2/18/2020 11:38am","7/27/2020 11:35am","6 St. Marks Place, Greenwich Village, NY","-73.989568","40.72909","6 st marks pl, new york, ny 10003, usa","Geocoded"
142,"Nite Life","(Disco)","85 Washington Pl.","Greenwich Village","NY","(L),(D),(*)","Bars/Clubs",1980,NA,"","","2/18/2020 11:38am","7/27/2020 11:35am","85 Washington Pl., Greenwich Village, NY","-74.0000245","40.7322184","85 washington pl, new york, ny 10011, usa","Geocoded"
144,"One Potato","(Sun. Brunch) at 10th St.","518 Hudson St.","Greenwich Village","NY","(R),(*)","Restaurant",1980,NA,"","","2/18/2020 11:38am","7/27/2020 11:35am","518 Hudson St., Greenwich Village, NY","-74.0060784","40.7336903","518 hudson st, new york, ny 10014, usa","Geocoded"
143,"One If By Land, Two If By Sea","(Very M)","17 Barrow St.","Greenwich Village","NY","(M),(PE),(R)","Restaurant",1980,NA,"","","2/18/2020 11:38am","7/27/2020 11:35am","17 Barrow St., Greenwich Village, NY","-74.0025839","40.7324944","17 barrow st, new york, ny 10014, usa","Geocoded"
145,"Oscar Wilde Memorial Book Store","","15 Christopher St.","Greenwich Village","NY","(*)","Book Store",1980,NA,"","","2/18/2020 11:38am","7/27/2020 11:35am","15 Christopher St., Greenwich Village, NY","-74.0005639","40.7340613","15 christopher st, new york, ny 10014, usa","Geocoded"
146,"Paradise Garage","9WE*) (Unisex) (Disco) (Hugh place- No booze- juice bar)","84 King St.","Greenwich Village","NY","(P),(YC),(WE),(*),(D)","Bars/Clubs",1980,NA,"","","2/18/2020 11:38am","7/27/2020 11:35am","84 King St., Greenwich Village, NY","-74.0064349","40.7279381","84 king st, new york, ny 10014, usa","Geocoded"
147,"Paula's","(Many L)","64 Greenwhich Ave.","Greenwich Village","NY","(M),(PT)","Bars/Clubs",1980,NA,"","","2/18/2020 11:38am","7/27/2020 11:35am","64 Greenwhich Ave., Greenwich Village, NY","-74.0006213","40.7361254","64 greenwich ave, new york, ny 10011, usa","Geocoded"
150,"Pleasure Chest","(Leather, clothes, 'toys', etc.)","152 7th Ave. S.","Greenwich Village","NY","(*)","Book Store,Business",1980,NA,"","","2/18/2020 11:38am","7/27/2020 11:35am","152 7th Ave. S., Greenwich Village, NY","-74.0021248","40.7352865","152 7th ave s, new york, ny 10014, usa","Geocoded"
148,"Pennyfeathers","(Cruisy-late) at Sheridan Sq.","89 7th Ave.","Greenwich Village","NY","(M),(R)","Cruising Areas,Restaurant",1980,NA,"","","2/18/2020 11:38am","7/27/2020 11:35am","89 7th Ave., Greenwich Village, NY","-73.9988707","40.7394174","89 7th ave, new york, ny 10011, usa","Geocoded"
149,"Peter Rabbit","(Disco)","305 W. 10th St.","Greenwich Village","NY","(B),(D),(*)","Bars/Clubs",1980,NA,"","","2/18/2020 11:38am","7/27/2020 11:35am","305 W. 10th St., Greenwich Village, NY","-74.0098061","40.7332889","305 w 10th st, new york, ny 10014, usa","Geocoded"
151,"Ramrod","(Some W, SM, FFA) (Best cruise bar on Dock Strip) betw. Christopher & W. 10th St.","394 West St.","Greenwich Village","NY","(*),(W),(SM),(FFA)","Bars/Clubs,Cruising Areas",1980,NA,"","","2/18/2020 11:38am","7/27/2020 11:35am","394 West St., Greenwich Village, NY","-74.0101582","40.7331559","394 west st, new york, ny 10014, usa","Geocoded"
154,"Sheridan Sq. Health Club","(Gym) ","4th & Christopher Sts.","Greenwich Village","NY","(M)","Baths",1980,NA,"","labeled gym- type as bath?","2/18/2020 11:38am","7/27/2020 11:35am","4th & Christopher Sts., Greenwich Village, NY","-94.5305556","37.0883333","1419 w 4th st, joplin, mo 64801, usa","Geocoded"
153,"Ruins","(Flicks)","158 Perry St.","Greenwich Village","NY","","Bars/Clubs",1980,NA,"","flicks- means theatre? or a store that offers them?","2/18/2020 11:38am","7/27/2020 11:35am","158 Perry St., Greenwich Village, NY","-74.008974","40.7345241","158 perry st, new york, ny 10014, usa","Geocoded"
152,"Reno Sweeney","(Cabaret)","126 W. 13th St.","Greenwich Village","NY","(M),(R)","Restaurant",1980,NA,"","","2/18/2020 11:38am","7/27/2020 11:35am","126 W. 13th St., Greenwich Village, NY","-73.9986702","40.7370456","126 w 13th st, new york, ny 10011, usa","Geocoded"
156,"Sneakers","('Mixed bag') betw. 10th & Christopher","392 West St.","Greenwich Village","NY","","Bars/Clubs",1980,NA,"","","2/18/2020 11:38am","7/27/2020 11:35am","392 West St., Greenwich Village, NY","-74.010073","40.7329072","392 west st, new york, ny 10014, usa","Geocoded"
155,"Silouette","","53 W. 19th St.","Greenwich Village","NY","(L)","Bars/Clubs",1980,NA,"","","2/18/2020 11:38am","7/27/2020 11:35am","53 W. 19th St., Greenwich Village, NY","-73.9937306","40.740279","53 w 19th st, new york, ny 10011, usa","Geocoded"
157,"Spike Bar","(Flicks') (WE*) at 20th St.","120 11th Ave.","Greenwich Village","NY","(W),(SM),(PT),(WE),(*)","Bars/Clubs",1980,NA,"","","2/18/2020 11:38am","7/27/2020 11:35am","120 11th Ave., Greenwich Village, NY","-74.007586","40.7469281","120 11th ave, new york, ny 10011, usa","Geocoded"
160,"Strap","(Some SM) (Cruisy- 'wild back room') (3-1-70: Wish they would pay me) at 18th St.","130 10th Ave.","Greenwich Village","NY","(*),(W),(SM)","Cruising Areas,Bars/Clubs",1980,NA,"","","2/18/2020 11:38am","7/27/2020 11:35am","130 10th Ave., Greenwich Village, NY","-74.0061188","40.7446548","130 10th ave, new york, ny 10011, usa","Geocoded"
159,"Stallion","(Cruisy) nr. 7th Ave.","277 Bleecker St.","Greenwich Village","NY","(W),(SM),(*)","Cruising Areas,Bars/Clubs",1980,NA,"","","2/18/2020 11:38am","7/27/2020 11:35am","277 Bleecker St., Greenwich Village, NY","-74.0031405","40.7316603","277 bleecker st, new york, ny 10014, usa","Geocoded"
162,"The Bar","at 4th St.","68 2nd Ave.","East Village","NY","(PT)","Bars/Clubs",1980,NA,"","","2/18/2020 11:38am","7/27/2020 11:35am","68 2nd Ave., East Village, NY","-73.9892179","40.72594","68 2nd ave, new york, ny 10003, usa","Geocoded"
161,"Studio Book Store","","178 Christopher St.","Greenwich Village","NY","(*)","Book Store",1980,NA,"","","2/18/2020 11:38am","7/27/2020 11:35am","178 Christopher St., Greenwich Village, NY","-74.0097018","40.732275","178 christopher st, new york, ny 10014, usa","Geocoded"
163,"Trilogy","","135 Christopher St.","Greenwich Village","NY","(R)","Restaurant",1980,NA,"","","2/18/2020 11:38am","7/27/2020 11:35am","135 Christopher St., Greenwich Village, NY","-74.0069452","40.7331512","135 christopher st, new york, ny 10014, usa","Geocoded"
164,"Tweleve West","(No booze- 'juice bar'- 'Twinkies'( (Unisex) (Disco)","461 West St.","Greenwich Village","NY","(P),(D)","Bars/Clubs",1980,NA,"","","2/18/2020 11:38am","7/27/2020 11:35am","461 West St., Greenwich Village, NY","-74.0096868","40.7366531","461 west st, new york, ny 10014, usa","Geocoded"
167,"Uncle Paul's","(Cruisy) nr. Gay Street","8 Christopher St.","Greenwich Village","NY","(PT),(*)","Bars/Clubs,Cruising Areas",1980,NA,"","","2/18/2020 11:38am","7/27/2020 11:35am","8 Christopher St., Greenwich Village, NY","-74.0001048","40.7338418","8 christopher st, new york, ny 10014, usa","Geocoded"
166,"Ty's","(Cruisy) nr. Bedford","114 Christopher St.","Greenwich Village","NY","(W)","Cruising Areas,Bars/Clubs",1980,NA,"","","2/18/2020 11:38am","7/27/2020 11:35am","114 Christopher St., Greenwich Village, NY","-74.0052985","40.7330387","114 christopher st, new york, ny 10014, usa","Geocoded"
165,"Two Twenty Club","","220 W. Houston","Greenwich Village","NY","(M),(C),(AH),(P)","Bars/Clubs",1980,NA,"","","2/18/2020 11:38am","7/27/2020 11:35am","220 W. Houston, Greenwich Village, NY","-74.004558","40.7287585","220 w houston st, new york, ny 10014, usa","Geocoded"
170,"Wall Street Sauna","(Baths) (11th floor) (Best days) at Broadway","1 Madien Lane","Greenwich Village","NY","(*)","Baths",1980,NA,"","","2/18/2020 11:38am","7/27/2020 11:35am","1 Madien Lane, Greenwich Village, NY","-74.0097251","40.7097821","1 maiden ln, new york, ny 10038, usa","Geocoded"
168,"Underground","(An erotic emporium- books, 'toys', etc.) (Dock Strip)","390 West St.","Greenwich Village","NY","","Business,Book Store",1980,NA,"","","2/18/2020 11:38am","7/27/2020 11:35am","390 West St., Greenwich Village, NY","-74.010184","40.7328852","390 west st, new york, ny 10014, usa","Geocoded"
174,"Metropolitan Theatre","","235 E. 14th St.","Greenwich Village","NY","Cruisy Area","Theatre,Cruising Areas",1980,NA,"","","2/18/2020 11:38am","7/27/2020 11:35am","235 E. 14th St., Greenwich Village, NY","-73.9855083","40.732925","235 e 14th st, new york, ny 10003, usa","Geocoded"
180,"Barefoot Boy","(Some Latins) (Disco)","304 E. 39th St.","Midtown","NY","(*),(YC),(D)","Bars/Clubs",1980,NA,"","","2/18/2020 11:38am","7/27/2020 11:35am","304 E. 39th St., Midtown, NY","-73.9732617","40.7476504","304 e 39th st, new york, ny 10016, usa","Geocoded"
179,"Backstage","","318 W. 45th St.","Midtown","NY","(M),(R),(E)","Restaurant",1980,NA,"","","2/18/2020 11:38am","7/27/2020 11:35am","318 W. 45th St., Midtown, NY","-73.9894282","40.7594733","318 w 45th st, new york, ny 10036, usa","Geocoded"
182,"Beacon Baths","","227 E. 45th St.","Midtown","NY","(OC)","Baths",1980,NA,"","","2/18/2020 11:38am","7/27/2020 11:35am","227 E. 45th St., Midtown, NY","-73.97177","40.752406","227 e 45th st, new york, ny 10017, usa","Geocoded"
183,"Better Days","(Many B) (Disco) ","316 W. 49th St.","Midtown","NY","(B),(D),(*)","Bars/Clubs",1980,NA,"","","2/18/2020 11:38am","7/27/2020 11:35am","316 W. 49th St., Midtown, NY","-73.9876634","40.7620327","316 w 49th st, new york, ny 10019, usa","Geocoded"
181,"Barnum Room","(Disco)","128 E. 45th St.","Midtown","NY","(YC),(D),(*)","Bars/Clubs",1980,NA,"","","2/18/2020 11:38am","7/27/2020 11:35am","128 E. 45th St., Midtown, NY","-73.9745089","40.7531642","128 e 45th st, new york, ny 10017, usa","Geocoded"
184,"Big Top Theatre","(Disco) (Lockers & showers) at 49th St.","1604 Broadway","Midtown","NY","(S),(E),(D)","Bars/Clubs,Baths",1980,NA,"checked","","2/18/2020 11:38am","7/27/2020 11:35am","1604 Broadway, Midtown, NY","-73.9842507","40.7604668","1604 broadway, new york, ny 10019, usa","Geocoded"
185,"Bike Stop East","nr. 28th St.","381 3rd Ave.","Midtown","NY","","Bars/Clubs",1980,NA,"","","2/18/2020 11:38am","7/27/2020 11:35am","381 3rd Ave., Midtown, NY","-73.9809254","40.741496","381 3rd ave, new york, ny 10016, usa","Geocoded"
187,"Club 1032 ","betw. 54th & 55th Sts.","1032 2nd Ave.","Midtown","NY","","Bars/Clubs",1980,NA,"","","2/18/2020 11:38am","7/27/2020 11:35am","1032 2nd Ave., Midtown, NY","-73.9662389","40.7575747","1032 2nd ave, new york, ny 10022, usa","Geocoded"
186,"Broadway arms","(Baths)","218 W. 49th St.","Midtown","NY","(D)","Baths,Bars/Clubs",1980,NA,"","","2/18/2020 11:38am","7/27/2020 11:35am","218 W. 49th St., Midtown, NY","-73.9852225","40.7608533","218 w 49th st, new york, ny 10019, usa","Geocoded"
188,"Company ","at 27th St.","365 3rd Ave.","Midtown","NY","(R),(*)","Restaurant",1980,NA,"","","2/18/2020 11:38am","7/27/2020 11:35am","365 3rd Ave., Midtown, NY","-73.9811951","40.7408562","365 3rd ave, new york, ny 10016, usa","Geocoded"
190,"Crossroad"," nr. 55th St.","858 9th Ave.","Midtown","NY","","Bars/Clubs",1980,NA,"","","2/18/2020 11:38am","7/27/2020 11:35am","858 9th Ave., Midtown, NY","-73.986102","40.7669022","858 9th ave, new york, ny 10019, usa","Geocoded"
189,"Cowboy & Cowgirl","9'Top' in upper-midtown East side cruise bar) ('Humpy jocks') (Dome high priced hustlers)","244 E. 53rd St.","Midtown","NY","(*),(PT)","Bars/Clubs",1980,NA,"","","2/18/2020 11:38am","7/27/2020 11:35am","244 E. 53rd St., Midtown, NY","-73.967893","40.75682","244 e 53rd st, new york, ny 10022, usa","Geocoded"
191,"Dakota","('Mixed bag') at 36th St.","550 3rd Ave.","Midtown","NY","(PT)","Bars/Clubs",1980,NA,"","","2/18/2020 11:38am","7/27/2020 11:35am","550 3rd Ave., Midtown, NY","-73.9772754","40.7474383","550 3rd ave, new york, ny 10016, usa","Geocoded"
192,"Den ","","264 W 43rd St.","Midtown","NY","","Bars/Clubs",1980,NA,"","","2/18/2020 11:38am","7/27/2020 11:35am","264 W 43rd St., Midtown, NY","-73.9887885","40.7576985","264 w 43rd st, new york, ny 10036, usa","Geocoded"
194,"Eros Male Cinema","","732 8th Ave.","Midtown","NY","(RT)","Theatre",1980,NA,"","","2/18/2020 11:38am","7/27/2020 11:35am","732 8th Ave., Midtown, NY","-73.9879427","40.7593364","732 8th ave, new york, ny 10036, usa","Geocoded"
196,"42nd St. Barracks","(Hotel-like baths) (Moving to 34th St.)","226 W. 42nd St.","Midtown","NY","","Baths",1980,NA,"","","2/18/2020 11:38am","7/27/2020 11:35am","226 W. 42nd St., Midtown, NY","-73.988174","40.75638","226 w 42nd st, new york, ny 10036, usa","Geocoded"
195,"Follies","","232 W. 48th St.","Midtown","NY","","Bars/Clubs",1980,NA,"","","2/18/2020 11:38am","7/27/2020 11:35am","232 W. 48th St., Midtown, NY","-73.9861288","40.7605335","232 w 48th st, new york, ny 10036, usa","Geocoded"
193,"Eastside Sauna ","(Baths)","227 E. 56th St.","Midtown","NY","(*)","Baths",1980,NA,"","","2/18/2020 11:38am","7/27/2020 11:35am","227 E. 56th St., Midtown, NY","-73.9668231","40.7593466","227 e 56th st, new york, ny 10022, usa","Geocoded"
201,"Haymarket","(Snacks) at 47th St.","772 8th Ave.","Midtown","NY","(E),(PT)","Bars/Clubs",1980,NA,"","","2/18/2020 11:38am","7/27/2020 11:35am","772 8th Ave., Midtown, NY","-73.9871578","40.7605135","772 8th ave, new york, ny 10036, usa","Geocoded"
200,"G.H. Club","(A few high-class midnight cowboys)","353 E. 53rd St.","Midtown","NY","(PE)","Bars/Clubs",1980,NA,"","","2/18/2020 11:38am","7/27/2020 11:35am","353 E. 53rd St., Midtown, NY","-73.9651293","40.7560503","353 e 53rd st, new york, ny 10022, usa","Geocoded"
198,"Gaiety Male Burklesk","","201 W. 46th St.","Midtown","NY","","Bars/Clubs",1980,NA,"","","2/18/2020 11:38am","7/27/2020 11:35am","201 W. 46th St., Midtown, NY","-73.9857027","40.7589105","201 w 46th st, new york, ny 10036, usa","Geocoded"
199,"G.G. Knickerbocker","('Drags', hustlers, transsexuals, go go boys) ","128 W. 45th St.","Midtown","NY","(D),(*)","Bars/Clubs",1980,NA,"","","2/18/2020 11:38am","7/27/2020 11:35am","128 W. 45th St., Midtown, NY","-73.9840168","40.7572579","128 w 45th st, new york, ny 10036, usa","Geocoded"
202,"Ice Palace 57","(Disco)","57 W. 57th St.","Midtown","NY","(YC),(D),(*)","Bars/Clubs",1980,NA,"","","2/18/2020 11:38am","7/27/2020 11:35am","57 W. 57th St., Midtown, NY","-73.9768174","40.7643578","57 w 57th st, new york, ny 10019, usa","Geocoded"
205,"La Fiesta ","(Many Latins)","253 W. 46th St.","Midtown","NY","(PT)","Bars/Clubs",1980,NA,"","","2/18/2020 11:38am","7/27/2020 11:35am","253 W. 46th St., Midtown, NY","-73.9874749","40.7598108","253 w 46th st, new york, ny 10036, usa","Geocoded"
203,"Johnny's Pub","","123 E. 47th St.","Midtown","NY","(R),(OC),(*)","Restaurant",1980,NA,"","","2/18/2020 11:38am","7/27/2020 11:35am","123 E. 47th St., Midtown, NY","-73.973309","40.754663","123 e 47th st, new york, ny 10017, usa","Geocoded"
206,"Last Call","nr. 51st St.","975 2nd Ave.","Midtown","NY","(D),(PT),(*)","Bars/Clubs",1980,NA,"","","2/18/2020 11:38am","7/27/2020 11:35am","975 2nd Ave., Midtown, NY","-73.9680596","40.756013","975 2nd ave, new york, ny 10022, usa","Geocoded"
208,"Leather Rack","(Leather, books, arcade, etc.)","247 W. 42nd St.","Midtown","NY","","Book Store,Business",1980,NA,"","","2/18/2020 11:38am","7/27/2020 11:35am","247 W. 42nd St., Midtown, NY","-73.9888568","40.7573371","247 w 42nd st, new york, ny 10036, usa","Geocoded"
210,"Menemsha Bar","Hotel Allerton","132 E. 57th St.","Midtown","NY","(OC)","Bars/Clubs,Hotels",1980,NA,"","","2/18/2020 11:38am","7/27/2020 11:35am","132 E. 57th St., Midtown, NY","-73.9692306","40.7606471","132 e 57th st, new york, ny 10022, usa","Geocoded"
207,"La Stanza","(Italian R)","953 1st Ave.","Midtown","NY","(R)","Restaurant",1980,NA,"","","2/18/2020 11:38am","7/27/2020 11:35am","953 1st Ave., Midtown, NY","-73.9652909","40.7555229","953 1st avenue, new york, ny 10022, usa","Geocoded"
209,"Madison Card & Book Shop","","123 E. 57th St.","Midtown","NY","","Book Store",1980,NA,"","","2/18/2020 11:38am","7/27/2020 11:35am","123 E. 57th St., Midtown, NY","-73.9698401","40.7613431","123 e 57th st, new york, ny 10022, usa","Geocoded"
214,"New York, New York","(Unisex) (Disco)","33 E. 52nd St.","Midtown","NY","(P),(YC),(M),(D)","Bars/Clubs",1980,NA,"","","2/18/2020 11:38am","7/27/2020 11:35am","33 E. 52nd St., Midtown, NY","-73.9747026","40.7593641","33 e 52nd st, new york, ny 10022, usa","Geocoded"
211,"Neptune's Pub","betw. 45th & 46th Sts.","730 8th Ave.","Midtown","NY","(PT)","Bars/Clubs",1980,NA,"","","2/18/2020 11:38am","7/27/2020 11:35am","730 8th Ave., Midtown, NY","-73.9879772","40.7592931","730 8th ave, new york, ny 10036, usa","Geocoded"
215,"Ossi Guest House","","358 W. 30th St.","Midtown","NY","(H)","Hotels",1980,NA,"","","2/18/2020 11:38am","7/27/2020 11:35am","358 W. 30th St., Midtown, NY","-73.9975377","40.7504311","358 w 30th st, new york, ny 10001, usa","Geocoded"
212,"New David Cinema","","236 W. 54th St.","Midtown","NY","","Theatre",1980,NA,"","","2/18/2020 11:38am","7/27/2020 11:35am","236 W. 54th St., Midtown, NY","-73.9832325","40.7641217","236 w 54th st, new york, ny 10019, usa","Geocoded"
213,"New Male Box","(Books, 'toys', peep shows) (Cruisy)","210 W. 42nd St.","Midtown","NY","(*)","Cruising Areas,Book Store,Theatre",1980,NA,"","","2/18/2020 11:38am","7/27/2020 11:35am","210 W. 42nd St., Midtown, NY","-73.9874294","40.7560623","210 w 42nd st, new york, ny 10036, usa","Geocoded"
216,"Paradise- P.C.S. Club","(Disco) (3rd Floor)","35 W. 43rd St.","Midtown","NY","(P),(M),(D),(PT),(AH)","Bars/Clubs",1980,NA,"","","2/18/2020 11:38am","7/27/2020 11:35am","35 W. 43rd St., Midtown, NY","-73.9819838","40.7550912","35 w 43rd st, new york, ny 10036, usa","Geocoded"
217,"Pigalle Pigalle","(French R)","1047 2nd Ave.","Midtown","NY","(R)","Restaurant",1980,NA,"","","2/18/2020 11:38am","7/27/2020 11:35am","1047 2nd Ave., Midtown, NY","-73.9664086","40.7582459","draught 55, 1047 2nd ave, new york, ny 10022, usa","Geocoded"
219,"Pleasure Chest","(Leather, 'toys' jewelry, etc.)","939 2nd Ave.","Midtown","NY","(*)","Business",1980,NA,"","","2/18/2020 11:38am","7/27/2020 11:35am","939 2nd Ave., Midtown, NY","-73.9688863","40.7548515","939 2nd ave, new york, ny 10022, usa","Geocoded"
218,"Place Across the Street","","56 W. 46th St. ","Midtown","NY","(R)","Restaurant",1980,NA,"","","2/18/2020 11:38am","7/27/2020 11:35am","56 W. 46th St. , Midtown, NY","-73.9794569","40.7562187","56 w 46th st, new york, ny 10036, usa","Geocoded"
221,"Ramrod Theatre","","210 W. 49th St.","Midtown","NY","(S),(E)","Theatre",1980,NA,"","","2/18/2020 11:38am","7/27/2020 11:35am","210 W. 49th St., Midtown, NY","-73.9847837","40.7606687","210 w 49th st, new york, ny 10019, usa","Geocoded"
224,"Sauna Baths","","300 W. 58th St.","Midtown","NY","","Baths",1980,NA,"","","2/18/2020 11:38am","7/27/2020 11:35am","300 W. 58th St., Midtown, NY","-73.9828371","40.7675174","300 w 58th st, new york, ny 10019, usa","Geocoded"
225,"Singles","nr. 53rd St.","951 1st Ave.","Midtown","NY","(R),(*)","Restaurant",1980,NA,"","","2/18/2020 11:38am","7/27/2020 11:35am","951 1st Ave., Midtown, NY","-73.9652613","40.7554583","951 1st avenue, new york, ny 10022, usa","Geocoded"
223,"Rendezvous Book Store","","38 W. 28th St.","Midtown","NY","(*)","Book Store",1980,NA,"","","2/18/2020 11:38am","7/27/2020 11:35am","38 W. 28th St., Midtown, NY","-73.9896373","40.7454828","38 w 28th st, new york, ny 10001, usa","Geocoded"
222,"Regency East","","204 E. 58th St.","Midtown","NY","","Bars/Clubs",1980,NA,"","","2/18/2020 11:38am","7/27/2020 11:35am","204 E. 58th St., Midtown, NY","-73.9666977","40.7605726","204 e 58th st, new york, ny 10022, usa","Geocoded"
226,"Solos","","248 E. 52nd St.","Midtown","NY","(PE),(M),(R),(E)","Restaurant",1980,NA,"","","2/18/2020 11:38am","7/27/2020 11:35am","248 E. 52nd St., Midtown, NY","-73.9682501","40.7560715","248 e 52nd st, new york, ny 10022, usa","Geocoded"
230,"Uncle Charlie's Restaurant","at 36th St.","542 3rd Ave.","Midtown","NY","(R),(*)","Restaurant",1980,NA,"","","2/18/2020 11:38am","7/27/2020 11:35am","542 3rd Ave., Midtown, NY","-73.9773925","40.7472189","542 3rd ave, new york, ny 10016, usa","Geocoded"
228,"Tijuana Cat","","350 W. 46th St.","Midtown","NY","(R),(E)","Restaurant",1980,NA,"","","2/18/2020 11:38am","7/27/2020 11:35am","350 W. 46th St., Midtown, NY","-73.9898821","40.7603521","350 w 46th st, new york, ny 10036, usa","Geocoded"
227,"Studio 54","(Very M) (Disco) (Best late)","254 W. 54th St.","Midtown","NY","(P),(M),(D),(*)","Bars/Clubs",1980,NA,"","","2/18/2020 11:38am","7/27/2020 11:35am","254 W. 54th St., Midtown, NY","-73.9837835","40.7643543","254 w 54th st, new york, ny 10019, usa","Geocoded"
229,"Tom Cat Book Store","","38 W. 28th St.","Midtown","NY","(*)","Book Store",1980,NA,"","","2/18/2020 11:38am","7/27/2020 11:35am","38 W. 28th St., Midtown, NY","-73.9896373","40.7454828","38 w 28th st, new york, ny 10001, usa","Geocoded"
231,"Uncle Charlie's South","('Top' lower midtown East Side cruise bar) at 38th St.","581 3rd Ave.","Midtown","NY","(*)","Bars/Clubs,Cruising Areas",1980,NA,"","","2/18/2020 11:38am","7/27/2020 11:35am","581 3rd Ave., Midtown, NY","-73.9759813","40.7482465","581 3rd ave, new york, ny 10016, usa","Geocoded"
232,"York's Restaurant","","710 2nd Ave.","Midtown","NY","(R),(*)","Restaurant",1980,NA,"","","2/18/2020 11:38am","7/27/2020 11:35am","710 2nd Ave., Midtown, NY","-73.9735275","40.7472917","710 2nd ave, new york, ny 10016, usa","Geocoded"
236,"Bike Stop West","(Very mixed bag) (WE*)","230 W. 75th St.","Uptown","NY","(WE),(*)","Bars/Clubs",1980,NA,"","","2/18/2020 11:38am","7/27/2020 11:35am","230 W. 75th St., Uptown, NY","-73.9831155","40.7651008","230 w 55th st, new york, ny 10019, usa","Geocoded"
237,"Boot Hill","(Some W, YC, SM) (Cruisy) nr. 75th","317 Amsterdam Ave.","Uptown","NY","(W),(YC),(SM),Cruisy Area,(*)","Bars/Clubs,Cruising Areas",1980,NA,"","","2/18/2020 11:38am","7/27/2020 11:35am","317 Amsterdam Ave., Uptown, NY","-73.9800426","40.7804473","317 amsterdam ave, new york, ny 10023, usa","Geocoded"
240,"Chez Roman","(Continental R) at 80th St.","1406 3rd Ave.","Uptown","NY","(M),(R)","Restaurant",1980,NA,"","","2/18/2020 11:38am","7/27/2020 11:35am","1406 3rd Ave., Uptown, NY","-73.9571173","40.7749717","1406 3rd ave, new york, ny 10075, usa","Geocoded"
238,"Bushes","(Cabaret) Park Royal Hotel ","23 W. 73rd St.","Uptown","NY","(R)","Restaurant,Hotels",1980,NA,"","","2/18/2020 11:38am","7/27/2020 11:35am","23 W. 73rd St., Uptown, NY","-73.9767658","40.7776725","23 w 73rd st, new york, ny 10023, usa","Geocoded"
241,"Dapper & Friends ","(Disco)","350 E. 81st St.","Uptown","NY","(PE),(L),(D)","Bars/Clubs",1980,NA,"","","2/18/2020 11:38am","7/27/2020 11:35am","350 E. 81st St., Uptown, NY","-73.952156","40.7740889","345e e 81st st, new york, ny 10028, usa","Geocoded"
239,"Chap's","(Top uptown East Side cruise bar) at 87th St.","1558 3rd Ave.","Uptown","NY","(PT),(*)","Cruising Areas,Bars/Clubs",1980,NA,"","","2/18/2020 11:38am","7/27/2020 11:35am","1558 3rd Ave., Uptown, NY","-73.9535015","40.7799392","1558 3rd ave, new york, ny 10128, usa","Geocoded"
243,"Fulton's Sidewalk Cafe","at 71st St.","2061 Broadway","Uptown","NY","(R)","Restaurant",1980,NA,"","","2/18/2020 11:38am","7/27/2020 11:35am","2061 Broadway, Uptown, NY","-73.9823372","40.7782124","2061 broadway, new york, ny 10023, usa","Geocoded"
244,"Grand Finale","(Cabaret) (On again- off again)","210 W. 70th St.","Uptown","NY","(M),(R)","Restaurant",1980,NA,"","","2/18/2020 11:38am","7/27/2020 11:35am","210 W. 70th St., Uptown, NY","-73.9835311","40.7774537","210 w 70th st, new york, ny 10023, usa","Geocoded"
242,"David","at 72nd St.","1007 Lexington Ave.","Uptown","NY","(*)","Bars/Clubs",1980,NA,"","","2/18/2020 11:38am","7/27/2020 11:35am","1007 Lexington Ave., Uptown, NY","-73.9617393","40.7707301","1007 lexington ave, new york, ny 10021, usa","Geocoded"
245,"Half Breed ","(Some W, SM)","168 Amsterdam Ave.","Uptown","NY","(W),(SM)","Bars/Clubs",1980,NA,"","","2/18/2020 11:38am","7/27/2020 11:35am","168 Amsterdam Ave., Uptown, NY","-73.9369682","40.8398924","amsterdam ave & w 168th st, new york, ny 10032, usa","Geocoded"
247,"Harry's Back East","(Disco) (Cruisy) at 80th St.","1422 3rd Ave.","Uptown","NY","(D),(*)","Cruising Areas,Bars/Clubs",1980,NA,"","","2/18/2020 11:38am","7/27/2020 11:35am","1422 3rd Ave., Uptown, NY","-73.956809","40.775491","1422 3rd ave, new york, ny 10028, usa","Geocoded"
249,"Leather Loft","(Gay dept. store- jewelry, clothes, etc,)","313 Amsterdam Ave.","Uptown","NY","(*)","Business",1980,NA,"","","2/18/2020 11:38am","7/27/2020 11:35am","313 Amsterdam Ave., Uptown, NY","-73.9801333","40.7802717","313 amsterdam ave, new york, ny 10023, usa","Geocoded"
250,"Les Hommes Book Store","at Broadway","217 W. 80th St.","Uptown","NY","(*)","Book Store",1980,NA,"","","2/18/2020 11:38am","7/27/2020 11:35am","217 W. 80th St., Uptown, NY","-73.9787674","40.7843296","217 w 80th st, new york, ny 10024, usa","Geocoded"
248,"Its a Man's World","(Books, etc.)","287 Amsterdam Ave.","Uptown","NY","(*)","Book Store",1980,NA,"","","2/18/2020 11:38am","7/27/2020 11:35am","287 Amsterdam Ave., Uptown, NY","-73.9805874","40.7795883","287 amsterdam ave, new york, ny 10023, usa","Geocoded"
246,"Hurrah","(Disco)","36 W. 62nd St.","Uptown","NY","(D),(M)","Bars/Clubs",1980,NA,"","","2/18/2020 11:38am","7/27/2020 11:35am","36 W. 62nd St., Uptown, NY","-73.9821699","40.7705853","36 w 62nd st, new york, ny 10023, usa","Geocoded"
251,"Main Man","(Cruisy)","305 Columbus Ave.","Uptown","NY","(*)","Cruising Areas,Bars/Clubs",1980,NA,"","","2/18/2020 11:38am","7/27/2020 11:35am","305 Columbus Ave., Uptown, NY","-73.9773326","40.7788905","305 columbus ave, new york, ny 10023, usa","Geocoded"
254,"Numbers","at 70th","2057 Broadway","Uptown","NY","","Bars/Clubs",1980,NA,"","","2/18/2020 11:38am","7/27/2020 11:35am","2057 Broadway, Uptown, NY","-73.9823865","40.7781778","2057 broadway, new york, ny 10023, usa","Geocoded"
255,"Painted Pony","at 84th St.","1485 3rd Ave.","Uptown","NY","(S),(E)","Bars/Clubs",1980,NA,"","","2/18/2020 11:38am","7/27/2020 11:35am","1485 3rd Ave., Uptown, NY","-73.9547949","40.7773182","1485 3rd ave, new york, ny 10028, usa","Geocoded"
253,"Nickel Bar","","127 W. 72nd St.","Uptown","NY","(B),(YC),(D),(*)","Bars/Clubs",1980,NA,"","","2/18/2020 11:38am","7/27/2020 11:35am","127 W. 72nd St., Uptown, NY","-73.9797078","40.7779625","127 w 72nd st, new york, ny 10023, usa","Geocoded"
256,"Peeche","(Many L) at 81st ave.","1200 Lexington Ave.","Uptown","NY","(L),(D)","Bars/Clubs",1980,NA,"","","2/18/2020 11:38am","7/27/2020 11:35am","1200 Lexington Ave., Uptown, NY","-73.9579528","40.7766333","1200 lexington ave, new york, ny 10028, usa","Geocoded"
252,"Mt. Morris Baths","at 125th St.","1944 Madison Ave.","Uptown","NY","(B)","Baths",1980,NA,"","","2/18/2020 11:38am","7/27/2020 11:35am","1944 Madison Ave., Uptown, NY","-73.9409733","40.8055437","1944 madison ave, new york, ny 10035, usa","Geocoded"
257,"Pershings","(Hamburgers)","234 Columbus Ave.","Uptown","NY","(R),(*)","Restaurant",1980,NA,"","","2/18/2020 11:38am","7/27/2020 11:35am","234 Columbus Ave., Uptown, NY","-73.9796286","40.7766645","234 columbus ave, new york, ny 10023, usa","Geocoded"
261,"Uncle Charlie's North","(Cruisy) at 75th St.","1049 Lexington Ave.","Uptown","NY","(YC),(*)","Cruising Areas,Bars/Clubs",1980,NA,"","","2/18/2020 11:38am","7/27/2020 11:35am","1049 Lexington Ave., Uptown, NY","-73.9607547","40.7720799","1049 lexington ave, new york, ny 10021, usa","Geocoded"
260,"Twilight","(Some Orientals) nr. 82nd St.","1463 3rd Ave.","Uptown","NY","","Bars/Clubs",1980,NA,"","","2/18/2020 11:38am","7/27/2020 11:35am","1463 3rd Ave., Uptown, NY","-73.9553038","40.776502","1463 3rd ave, new york, ny 10028, usa","Geocoded"
259,"Stormy Weather","at 82nd St.","1574 2nd Ave.","Uptown","NY","(R),(E)","Restaurant",1980,NA,"","","2/18/2020 11:38am","7/27/2020 11:35am","1574 2nd Ave., Uptown, NY","-73.9535392","40.7750381","1574 2nd ave, new york, ny 10028, usa","Geocoded"
258,"Sahara","(Adm. charge) (Disco-D- upstairs)","1234 2nd Ave.","Uptown","NY","(OC),(L),(E),(D),(*)","Bars/Clubs",1980,NA,"","","2/18/2020 11:38am","7/27/2020 11:35am","1234 2nd Ave., Uptown, NY","-73.9615108","40.764087","1234 2nd ave, new york, ny 10065, usa","Geocoded"
262,"Warehouse Pier 51","(Mixed bag- small disco) at 75th","324 Amsterdam Ave.","Uptown","NY","(YC)","Bars/Clubs",1980,NA,"","","2/18/2020 11:38am","7/27/2020 11:35am","324 Amsterdam Ave., Uptown, NY","-73.9802884","40.7809375","324 amsterdam ave, new york, ny 10023, usa","Geocoded"
263,"Wildwood Tavern","(Cruisy) nr. 74th St.","308 Columbus Ave.","Uptown","NY","(*)","Cruising Areas,Bars/Clubs",1980,NA,"","","2/18/2020 11:38am","7/27/2020 11:35am","308 Columbus Ave., Uptown, NY","-73.977616","40.7790129","308 columbus ave, new york, ny 10023, usa","Geocoded"
264,"Womanbooks","","201 W. 92nd St.","Uptown","NY","(L)","Book Store",1980,NA,"","","2/18/2020 11:38am","7/27/2020 11:35am","201 W. 92nd St., Uptown, NY","-73.9725548","40.7917966","201 w 92nd st, new york, ny 10025, usa","Geocoded"
273,"Club 71","","71 Pineapple St.","Brooklyn","NY","","Bars/Clubs",1980,NA,"","","2/18/2020 11:38am","7/27/2020 11:35am","71 Pineapple St., Brooklyn, NY","-73.993038","40.6983742","71 pineapple st, brooklyn, ny 11201, usa","Geocoded"
274,"Community Book Stores","","162 Montague St.","Brooklyn Heights","NY","(M)","Book Store",1980,NA,"","","2/18/2020 11:38am","7/27/2020 11:35am","162 Montague St., Brooklyn Heights, NY","-73.9928049","40.6941905","162 montague st, brooklyn, ny 11201, usa","Geocoded"
275,"Community Book Stores","","143 7th Ave.","Brooklyn","NY","(M)","Book Store",1980,NA,"","","2/18/2020 11:38am","7/27/2020 11:35am","143 7th Ave., Brooklyn, NY","-73.9764258","40.6726651","143 7th ave, brooklyn, ny 11215, usa","Geocoded"
281,"Rythm","(Disco)","6826 New Utrecht","Brooklyn","NY","(D)","Bars/Clubs",1980,NA,"","","2/18/2020 11:38am","7/27/2020 11:35am","6826 New Utrecht, Brooklyn, NY","-73.9986942","40.620657","6826 new utrecht ave, brooklyn, ny 11219, usa","Geocoded"
279,"Jaybird Books","","408 Jay St.","Brooklyn","NY","","Book Store",1980,NA,"","","2/18/2020 11:38am","7/27/2020 11:35am","408 Jay St., Brooklyn, NY","-73.9875377","40.6918992","408 jay st, brooklyn, ny 11201, usa","Geocoded"
276,"Danny's of Brooklyn Heights","(Disco) (Sun. brunch)","108 Montague St.","Brooklyn Heights","NY","(D)","Bars/Clubs",1980,NA,"","","2/18/2020 11:38am","7/27/2020 11:35am","108 Montague St., Brooklyn Heights, NY","-73.9951941","40.6948774","108 montague st, brooklyn, ny 11201, usa","Geocoded"
280,"Pandora Books","","88 Court St.","Brooklyn","NY","","Book Store",1980,NA,"","","2/18/2020 11:38am","7/27/2020 11:35am","88 Court St., Brooklyn, NY","-73.9918428","40.6912319","88 court st, brooklyn, ny 11201, usa","Geocoded"
277,"Francis Canflone","(Residential H) (Men only)","357 Dean St.","Boerum Hill","NY","(H)","Hotels",1980,NA,"","","2/18/2020 11:38am","7/27/2020 11:35am","357 Dean St., Boerum Hill, NY","-73.9797236","40.6834873","357 dean st, brooklyn, ny 11217, usa","Geocoded"
285,"A Touch of Class","","113-24 Queens Blvd.","Forrest Hill","NY","(R)","Restaurant",1980,NA,"","","2/18/2020 11:38am","7/27/2020 11:35am","113-24 Queens Blvd., Forrest Hill, NY","-73.8357179","40.7175658","113-24 queens blvd, forest hills, ny 11375, usa","Geocoded"
282,"Sal's Place","(Disco)","79 Pineapple St.","Brooklyn Heights","NY","(YC),(D),(*)","Bars/Clubs",1980,NA,"","","2/18/2020 11:38am","7/27/2020 11:35am","79 Pineapple St., Brooklyn Heights, NY","-73.9927931","40.6982936","79 pineapple st, brooklyn, ny 11201, usa","Geocoded"
286,"Arck Lane","(L- 8pm to 2:30 am- Guys 4am-??)","130-02 Atlantic Ave.","Richmond Hill","NY","(AH),(L)","Bars/Clubs",1980,NA,"","","2/18/2020 11:38am","7/27/2020 11:35am","130-02 Atlantic Ave., Richmond Hill, NY","-73.8186991","40.695726","130-02 atlantic ave, jamaica, ny 11419, usa","Geocoded"
290,"Cozy Cabin","(Disco)","9203 Astoria Blvd.","Jackson Heights","NY","(D)","Bars/Clubs",1980,NA,"","","2/18/2020 11:38am","7/27/2020 11:35am","9203 Astoria Blvd., Jackson Heights, NY","-73.8771211","40.7635308","92-03 astoria blvd, flushing, ny 11369, usa","Geocoded"
291,"Fiddlesticks","(Some L) ","205 Cypress Ave.","Ridgewood","NY","(L),(R)","Restaurant",1980,NA,"","","2/18/2020 11:38am","7/27/2020 11:35am","205 Cypress Ave., Ridgewood, NY","-73.9196209","40.7082781","205 cypress ave, ridgewood, ny 11385, usa","Geocoded"
288,"Billy the Kid","(Some YC, W, SM)","76-07 Roosevelt Ave.","Jackson Heights","NY","(YC),(W),(SM),(PT),(*)","Bars/Clubs",1980,NA,"","","2/18/2020 11:38am","7/27/2020 11:35am","76-07 Roosevelt Ave., Jackson Heights, NY","-73.8892961","40.7473326","76-07 roosevelt ave, jackson heights, ny 11372, usa","Geocoded"
287,"Betsy Ross","(Cruisy)","73-13 37th Ave.","Jackson Heights","NY","(D)","Cruising Areas,Bars/Clubs",1980,NA,"","","2/18/2020 11:38am","7/27/2020 11:35am","73-13 37th Ave., Jackson Heights, NY","-73.8923292","40.7490865","73-13 37th ave, jackson heights, ny 11372, usa","Geocoded"
289,"Club Freida's Hideaway","(Wed.- Sun.)","81-36 Baxter Ave.","Elmhurst","NY","","Bars/Clubs",1980,NA,"","","2/18/2020 11:38am","7/27/2020 11:35am","81-36 Baxter Ave., Elmhurst, NY","-73.8834605","40.7459951","81-36 baxter ave, queens, ny 11373, usa","Geocoded"
292,"Flavors","(Disco) ","120-31 83rd Ave.","Kew Gardens","NY","(D),(YC),(*)","Bars/Clubs",1980,NA,"","","2/18/2020 11:38am","7/27/2020 11:35am","120-31 83rd Ave., Kew Gardens, NY","-73.8313598","40.708745","120-31 83rd ave, kew gardens, ny 11415, usa","Geocoded"
294,"Mr. Dreams","(Disco)","63-12 Broadway","Queens","NY","(YC),(D),(*)","Bars/Clubs",1980,NA,"","","2/18/2020 11:38am","7/27/2020 11:35am","63-12 Broadway, Queens, NY","-73.8988583","40.7496289","63-12 broadway, woodside, ny 11377, usa","Geocoded"
295,"Northern Men's Sauna","(Baths) ","137-08 Northern Blvd.","Flushing","NY","","Baths",1980,NA,"","","2/18/2020 11:38am","7/27/2020 11:35am","137-08 Northern Blvd., Flushing, NY","-73.8307935","40.7631033","137-8 northern blvd, flushing, ny 11354, usa","Geocoded"
293,"Hideaway","(Disco) (Some B) Hillside Ave at Parsons","","Jamaica","NY","(D),(B)","Bars/Clubs",1980,NA,"","","2/18/2020 11:38am","7/27/2020 11:35am",", Jamaica, NY","-73.7889689","40.702677","jamaica, queens, ny, usa","Geocoded"
297,"Sparky's","","130-04 Atlantic Ave.","Richmond Hill","NY","(W)","Bars/Clubs",1980,NA,"","","2/18/2020 11:38am","7/27/2020 11:35am","130-04 Atlantic Ave., Richmond Hill, NY","-73.8186485","40.6957404","130-4 atlantic ave, south richmond hill, ny 11419, usa","Geocoded"
298,"Star Wars Disco","","79-24 Cypress Ave.","Ridgewood","NY","(L)","Bars/Clubs",1980,NA,"","","2/18/2020 11:38am","7/27/2020 11:35am","79-24 Cypress Ave., Ridgewood, NY","-73.8977356","40.6941867","79-24 cypress ave, flushing, ny 11385, usa","Geocoded"
296,"Our Place","","77-02 Broadway","Jackson Heights","NY","","Bars/Clubs",1980,NA,"","","2/18/2020 11:38am","7/27/2020 11:35am","77-02 Broadway, Jackson Heights, NY","-73.8881686","40.7451386","7702 broadway, queens, ny 11373, usa","Geocoded"
299,"Tavern on the Turn","","172-22 Hillsdale Ave.","Jamaica","NY","","Bars/Clubs",1980,NA,"","","2/18/2020 11:38am","7/27/2020 11:35am","172-22 Hillsdale Ave., Jamaica, NY","-73.7893951","40.7117738","172-22 hillside avenue, jamaica, ny 11432, usa","Geocoded"
307,"Bill Bailey's","(Disco)","492 Bay St.","Staten Island","NY","(M),(D),(S)","Bars/Clubs",1980,NA,"","","2/18/2020 11:38am","7/27/2020 11:35am","492 Bay St., Staten Island, NY","-74.0768153","40.6298996","492 bay st, staten island, ny 10304, usa","Geocoded"
305,"Apartment","(Latins) (Disco) (Sat. only- 4rd floor)","508 Willis Ave.","Bronx","NY","(D)","Bars/Clubs",1980,NA,"","","2/18/2020 11:38am","7/27/2020 11:35am","508 Willis Ave., Bronx, NY","-73.9182468","40.8151171","508 willis ave, the bronx, ny 10455, usa","Geocoded"
306,"Beach Haven","","901 Father Cappando Blvd.","Staten Island","NY","(L),(D),(PT)","Bars/Clubs",1980,NA,"","","2/18/2020 11:38am","7/27/2020 11:35am","901 Father Cappando Blvd., Staten Island, NY","-74.0855282","40.5746154","901 father capodanno blvd, staten island, ny 10305, usa","Geocoded"
310,"Mother Earth","(Many L) ","381 Van Duzer St.","Staten Island","NY","(R),(L)","Restaurant",1980,NA,"","","2/18/2020 11:38am","7/27/2020 11:35am","381 Van Duzer St., Staten Island, NY","-74.0796945","40.6287204","381 van duzer st, staten island, ny 10304, usa","Geocoded"
309,"El Horoscope","(Disco) (Some Latins)","1969 Jerome Ave.","Bronx","NY","(D)","Bars/Clubs",1980,NA,"","","2/18/2020 11:38am","7/27/2020 11:35am","1969 Jerome Ave., Bronx, NY","-73.9092348","40.8521423","1969 jerome ave, the bronx, ny 10453, usa","Geocoded"
312,"Itsy Bitsy Lounge","(Disco) (Cruisy)","1149 Michigan Ave.","Niagara Falls","NY","(D),(PT),(*)","Cruising Areas,Bars/Clubs",1980,NA,"","","2/18/2020 11:38am","7/27/2020 11:35am","1149 Michigan Ave., Niagara Falls, NY","-79.0470041","43.1044225","1149 michigan ave, niagara falls, ny 14305, usa","Geocoded"
308,"Brazil","(Many L) (Disco) ($2.50 min.) (South Beach)","86 Mills Ave.","Staten Island","NY","(*),(L),(D),(S)","Bars/Clubs",1980,NA,"","","2/18/2020 11:38am","7/27/2020 11:35am","86 Mills Ave., Staten Island, NY","-74.0677591","40.5950954","86 mills ave, staten island, ny 10305, usa","Geocoded"
311,"Ronnie's Thing","(Many L) nr. Jerome","56 E. Mt. Eden Ave.","Bronx","NY","(L)","Bars/Clubs",1980,NA,"","","2/18/2020 11:38am","7/27/2020 11:35am","56 E. Mt. Eden Ave., Bronx, NY","-73.9136784","40.8437173","56 e mt eden ave, the bronx, ny 10452, usa","Geocoded"
313,"2228 Club","(Many L)","2228 E. Falls Rd.","Niagara Falls","NY","(L)","Bars/Clubs",1980,NA,"","","2/18/2020 11:38am","7/27/2020 11:35am","2228 E. Falls Rd., Niagara Falls, NY","-79.03448","43.087082","2228 falls st, niagara falls, ny 14303, usa","Geocoded"
316,"Honey's","(Some L) (Disco) ","201 Rte. 9W","Congers","NY","(L),(*),(D)","Bars/Clubs",1980,NA,"","","2/18/2020 11:38am","7/27/2020 11:35am","201 Rte. 9W, Congers, NY","-73.9295067","41.161059","201 rte 9w, congers, ny 10920, usa","Geocoded"
317,"Stadium","","659 E. State St.","Olean","NY","(M),(R)","Restaurant",1980,NA,"","","2/18/2020 11:39am","7/27/2020 11:35am","659 E. State St., Olean, NY","-78.4174803","42.0774451","659 e state st, olean, ny 14760, usa","Geocoded"
318,"Blair's Tavern","","30 Marion St.","Plattsburg","NY","(M)","Bars/Clubs",1980,NA,"","","2/18/2020 11:39am","7/27/2020 11:35am","30 Marion St., Plattsburg, NY","-73.4542879","44.6979705","30 marion st, plattsburgh, ny 12901, usa","Geocoded"
321,"Candy Man","(Disco)","68 Westchester Ave.","Port Chester","NY","(M),(D),(PT)","Bars/Clubs",1980,NA,"","couldn't tell if it was 68 or 88 Westchester","2/18/2020 11:39am","7/27/2020 11:35am","68 Westchester Ave., Port Chester, NY","-73.6638724","40.999993","68 westchester ave, port chester, ny 10573, usa","Geocoded"
326,"Bullwinkle Cafe","","618 Lake St.","Rochester","NY","(M),(OC),(E)","Bars/Clubs",1980,NA,"","","2/18/2020 11:39am","7/27/2020 11:35am","618 Lake St., Rochester, NY","-77.6303107","43.1762572","618 lake ave, rochester, ny 14613, usa","Geocoded"
324,"Avenue Pub","","522 Monroe Ave.","Rochester","NY","","Bars/Clubs",1980,NA,"","","2/18/2020 11:39am","7/27/2020 11:35am","522 Monroe Ave., Rochester, NY","-77.5930368","43.1464217","522 monroe ave, rochester, ny 14607, usa","Geocoded"
323,"Hamilton Diner","Main & Hamilton","","Poughkeepsie","NY","(M),(R),(C),(AH)","Restaurant",1980,NA,"","","2/18/2020 11:39am","7/27/2020 11:35am",", Poughkeepsie, NY","-73.9209701","41.7003713","poughkeepsie, ny, usa","Geocoded"
325,"Bachelor Forum","(Some SM, W, OC, RT) (WE*) nr. goodman","1065 E. Main","Rochester","NY","(SM),(W),(OC),(RT),(WE),(*)","Bars/Clubs",1980,NA,"","","2/18/2020 11:39am","7/27/2020 11:35am","1065 E. Main, Rochester, NY","-77.5836277","43.1620398","1065 e main st, rochester, ny 14609, usa","Geocoded"
322,"Congress","(Closes 1am)","415 Main","Poughkeepsie","NY","(D),(*)","Bars/Clubs",1980,NA,"","","2/18/2020 11:39am","7/27/2020 11:35am","415 Main, Poughkeepsie, NY","-73.9228428","41.7019802","415 main st, poughkeepsie, ny 12601, usa","Geocoded"
328,"Frairs Inn","(Disco)","248 Monroe Ave.","Rochester","NY","(R),(YC),(D),(S),(*)","Restaurant,Bars/Clubs",1980,NA,"","","2/18/2020 11:39am","7/27/2020 11:35am","248 Monroe Ave., Rochester, NY","-77.5990939","43.149873","248 monroe ave, rochester, ny 14607, usa","Geocoded"
330,"New Clinton Bookmark","","115 N. Clinton","Rochester","NY","","Book Store",1980,NA,"checked","","2/18/2020 11:39am","7/27/2020 11:35am","115 N. Clinton, Rochester, NY","-77.6075606","43.1595915","115 n clinton ave, rochester, ny 14604, usa","Geocoded"
327,"Easy Riders Sauna","(Baths)","92 North St.","Rochester","NY","(*)","Baths",1980,NA,"","","2/18/2020 11:39am","7/27/2020 11:35am","92 North St., Rochester, NY","-77.602818","43.1615854","92 north st, rochester, ny 14604, usa","Geocoded"
329,"Jim's","(Disco) (2 bars) (go go boys)","123 North St.","Rochester","NY","(YC),(*),(D),(PT)","Bars/Clubs",1980,NA,"","","2/18/2020 11:39am","7/27/2020 11:35am","123 North St., Rochester, NY","-77.6027798","43.1616621","123 north st, rochester, ny 14604, usa","Geocoded"
333,"Roman Sauna Baths","","109 North St.","Rochester","NY","(*)","Baths",1980,NA,"","","2/18/2020 11:39am","7/27/2020 11:35am","109 North St., Rochester, NY","-77.602798","43.1616258","109 north st, rochester, ny 14604, usa","Geocoded"
331,"Rathskellar","","89 Elm St.","Rochester","NY","(YC),(RT),(D),(S),(*)","Bars/Clubs",1980,NA,"","","2/18/2020 11:39am","7/27/2020 11:35am","89 Elm St., Rochester, NY","-77.603482","43.155833","89 elm st, rochester, ny 14604, usa","Geocoded"
335,"State St. Book Store","","109 State St.","Rochester","NY","","Book Store",1980,NA,"","","2/18/2020 11:39am","7/27/2020 11:35am","109 State St., Rochester, NY","-77.6145676","43.1573614","109 state st, rochester, ny 14614, usa","Geocoded"
332,"River View Restaurant ","","242 South Ave.","Rochester","NY","(L),(D),(*)","Bars/Clubs",1980,NA,"","","2/18/2020 11:39am","7/27/2020 11:35am","242 South Ave., Rochester, NY","-77.6067364","43.1515822","242 south ave, rochester, ny 14604, usa","Geocoded"
336,"Tara","(Piano bar)","395 Andrews St.","Rochester","NY","(OC),(E)","Bars/Clubs",1980,NA,"","","2/18/2020 11:39am","7/27/2020 11:35am","395 Andrews St., Rochester, NY","-77.6039312","43.1607615","395 andrews st, rochester, ny 14604, usa","Geocoded"
337,"Two Twelve Club","","212 Colvin St.","Rochester","NY","(L)","Bars/Clubs",1980,NA,"","","2/18/2020 11:39am","7/27/2020 11:35am","212 Colvin St., Rochester, NY","-77.6408985","43.1546705","212 colvin st, rochester, ny 14611, usa","Geocoded"
342,"Savoy","","225 E. Domenick","Rome","NY","(M)","Bars/Clubs",1980,NA,"","","2/18/2020 11:39am","7/27/2020 11:35am","225 E. Domenick, Rome, NY","-75.4535674","43.2091194","225 e dominick st, rome, ny 13440, usa","Geocoded"
343,"Mixed Company","","1053 Northern Blvd.","Roslyn","NY","","Bars/Clubs",1980,NA,"","Long Island","2/18/2020 11:39am","7/27/2020 11:35am","1053 Northern Blvd., Roslyn, NY","-73.664223","40.798552","1053 northern blvd, roslyn, ny 11576, usa","Geocoded"
344,"Upstairs-Downstairs Pub","(Pub downstairs best- M- E- upstairs- Use rear entrance)","1442 Old Northern Blvd.","Roslyn","NY","(M),(E)","Bars/Clubs",1980,NA,"","","2/18/2020 11:39am","7/27/2020 11:35am","1442 Old Northern Blvd., Roslyn, NY","-73.6467121","40.8022752","1442 old northern blvd, roslyn, ny 11576, usa","Geocoded"
346,"Bunk House","(Cruisy) (Disco) (Montauk Hwy.)","192 N. Main St.","Sayville","NY","(*),(W),(D)","Bars/Clubs,Cruising Areas",1980,NA,"","Long Island","2/18/2020 11:39am","7/27/2020 11:35am","192 N. Main St., Sayville, NY","-73.07914","40.738155","192 n main st, sayville, ny 11782, usa","Geocoded"
347,"Coachman's Corner","(Some OC)","239 N. Main St.","Sayville","NY","(OC)","Bars/Clubs",1980,NA,"","Long Island","2/18/2020 11:39am","7/27/2020 11:35am","239 N. Main St., Sayville, NY","-73.0796796","40.7399393","239 n main st, sayville, ny 11782, usa","Geocoded"
349,"Blythwood","","50 N. Jay St.","Schenectady","NY","(PT),(OC)","Bars/Clubs",1980,NA,"","","2/18/2020 11:39am","7/27/2020 11:35am","50 N. Jay St., Schenectady, NY","-73.937614","42.817723","50 n jay st, schenectady, ny 12305, usa","Geocoded"
351,"The Falcon","(Disco) (Some L) (Closed Monday)","1925 Curry Rd.","Schenectady","NY","(*),(YC),(D),(L),(PT)","Bars/Clubs",1980,NA,"","","2/18/2020 11:39am","7/27/2020 11:35am","1925 Curry Rd., Schenectady, NY","-73.9553612","42.7798972","1925 curry rd, schenectady, ny 12303, usa","Geocoded"
350,"Mill Lane Pub","","1 Mill Land","Schenectady","NY","","Bars/Clubs",1980,NA,"","","2/18/2020 11:39am","7/27/2020 11:35am","1 Mill Land, Schenectady, NY","-73.9466566","42.8146591","1 mill ln, schenectady, ny 12305, usa","Geocoded"
352,"Equus","(Disco) (Cruisy) opp. Seaford R.R. Station","3882 Sunrise Hwy.","Seaford","NY","(*),(YC),(D)","Cruising Areas,Bars/Clubs",1980,NA,"","Long Island","2/18/2020 11:39am","7/27/2020 11:35am","3882 Sunrise Hwy., Seaford, NY","-73.4888668","40.6742909","3882 sunrise hwy, seaford, ny 11783, usa","Geocoded"
355,"Adventures in Mischief","(Head shop, books)","237 E. Genesee","Syracuse","NY","(M)","Business,Book Store",1980,NA,"","","2/18/2020 11:39am","7/27/2020 11:35am","237 E. Genesee, Syracuse, NY","-76.1495","43.049839","237 e genesee st, syracuse, ny 13202, usa","Geocoded"
357,"Continental Book Store","","574 S. Salina","Syracuse","NY","","Book Store",1980,NA,"","","2/18/2020 11:39am","7/27/2020 11:35am","574 S. Salina, Syracuse, NY","-76.1522364","43.0431226","574 s salina st, syracuse, ny 13202, usa","Geocoded"
353,"New Corral","","365 Boyle Rd.","Seldon","NY","","Bars/Clubs",1980,NA,"","","2/18/2020 11:39am","7/27/2020 11:35am","365 Boyle Rd., Seldon, NY","-73.0520918","40.8884901","365 boyle rd, selden, ny 11784, usa","Geocoded"
362,"Laurel Tree","(Some L)","210 Hawley","Syracuse","NY","(M),(L)","Bars/Clubs",1980,NA,"","","2/18/2020 11:39am","7/27/2020 11:35am","210 Hawley, Syracuse, NY","-76.1431159","43.0531179","210 hawley ave, syracuse, ny 13203, usa","Geocoded"
358,"Franklin News","(Books)","306 S. Franklin","Syracuse","NY","","Book Store",1980,NA,"","","2/18/2020 11:39am","7/27/2020 11:35am","306 S. Franklin, Syracuse, NY","-76.1556798","43.0484762","306 s franklin st, syracuse, ny 13202, usa","Geocoded"
360,"Half-Shell","(Disco) (Looks promising)","253 E. Water","Syracuse","NY","(R),(D)","Restaurant",1980,NA,"","","2/18/2020 11:39am","7/27/2020 11:35am","253 E. Water, Syracuse, NY","-76.1496383","43.0507183","253 e water st, syracuse, ny 13202, usa","Geocoded"
363,"Le Paris Bookstore","","307 W. Fayette","Syracuse","NY","","Book Store",1980,NA,"","","2/18/2020 11:39am","7/27/2020 11:35am","307 W. Fayette, Syracuse, NY","-76.155843","43.0484791","307 w fayette st, syracuse, ny 13202, usa","Geocoded"
365,"Ms. Adventure","","218 N. Franklin St.","Syracuse","NY","(L),(D),(*)","Bars/Clubs",1980,NA,"","","2/18/2020 11:39am","7/27/2020 11:35am","218 N. Franklin St., Syracuse, NY","-76.1546919","43.053146","218 n franklin st, syracuse, ny 13202, usa","Geocoded"
364,"M.C.C.","","819 Madison Ave.","Syracuse","NY","(MCC)","Church",1980,NA,"","","2/18/2020 11:39am","7/27/2020 11:35am","819 Madison Ave., Syracuse, NY","-76.1349397","43.0455771","819 madison st, syracuse, ny 13210, usa","Geocoded"
367,"Ryan's Someplace Else","(North) (3 Rooms) (Disco) (Cruisy)","138 E. Genesee","Syracuse","NY","(*),(D)","Bars/Clubs,Cruising Areas",1980,NA,"","","2/18/2020 11:39am","7/27/2020 11:35am","138 E. Genesee, Syracuse, NY","-76.0916481","43.0423138","138 e genesee pkwy, syracuse, ny 13214, usa","Geocoded"
366,"Orpheus","(Many L)","1203 Butternut St.","Syracuse","NY","(PT),(L)","Bars/Clubs",1980,NA,"","","2/18/2020 11:39am","7/27/2020 11:35am","1203 Butternut St., Syracuse, NY","-76.1436563","43.0666448","1203 butternut st, syracuse, ny 13208, usa","Geocoded"
369,"Spa","","252 W. Genesee","Syracuse","NY","(M),(R)","Restaurant",1980,NA,"","","2/18/2020 11:39am","7/27/2020 11:35am","252 W. Genesee, Syracuse, NY","-76.1545978","43.0521659","252 w genesee st, syracuse, ny 13202, usa","Geocoded"
368,"Showboat ","(Disco) (Some B, RT, Hustlers)","308 S. Warren","Syracuse","NY","(D),(B),(RT)","Bars/Clubs",1980,NA,"","","2/18/2020 11:39am","7/27/2020 11:35am","308 S. Warren, Syracuse, NY","-76.1510876","43.0484391","308 s warren st, syracuse, ny 13202, usa","Geocoded"
370,"Travelers Sauna Baths","(2nd floor)","309 S. Warren","Syracuse","NY","(*)","Baths",1980,NA,"","","2/18/2020 11:39am","7/27/2020 11:35am","309 S. Warren, Syracuse, NY","-76.1505569","43.0483724","309 s warren st, syracuse, ny 13202, usa","Geocoded"
377,"132 N. Main","(Summer guest house) ","123 N. Main","East Hampton","NY","(P)","Hotels",1980,NA,"","","2/18/2020 11:39am","7/27/2020 11:35am","123 N. Main, East Hampton, NY","-72.1825987","40.9708519","123 n main st, east hampton, ny 11937, usa","Geocoded"
382,"Midnight Mary's","(Disco) at Broadway","308 Columbia","Utica","NY","(YC),(D),(PT),(*)","Bars/Clubs",1980,NA,"","","2/18/2020 11:39am","7/27/2020 11:35am","308 Columbia, Utica, NY","-75.2339363","43.1025316","308 columbia st, utica, ny 13502, usa","Geocoded"
389,"T.C. & Company","(Many L)","121 Woodfield","West Hempstead","NY","(*),(YC),(D),(PT)","Bars/Clubs",1980,NA,"","Long Island","2/18/2020 11:39am","7/27/2020 11:35am","121 Woodfield, West Hempstead, NY","-73.644155","40.7009024","121 woodfield rd, west hempstead, ny 11552, usa","Geocoded"
387,"McGoo's Tavern","","81 Public Square","Watertown","NY","(M),(OC)","Bars/Clubs",1980,NA,"","","2/18/2020 11:39am","7/27/2020 11:35am","81 Public Square, Watertown, NY","-75.9091298","43.9748652","81 public square, watertown, ny 13601, usa","Geocoded"
392,"Play Room","(Disco) (Some L)","590 Nepperham Ave.","Yonkers","NY","(D),(L),(S),(E),(*)","Bars/Clubs",1980,NA,"","","2/18/2020 11:39am","7/27/2020 11:35am","590 Nepperham Ave., Yonkers, NY","-73.8823925","40.9458318","590 nepperhan ave, yonkers, ny 10703, usa","Geocoded"
411,"Anvil","(Disco) ('Back room') at 11th Ave.","500 W. 14th","Greenwich Village","NY","(P),(D),(RT),(AYOR)","Bars/Clubs",1980,NA,"","","2/23/2020 8:03pm","7/27/2020 11:35am","500 W. 14th, Greenwich Village, NY","-74.0084683","40.7421672","500 w 14th st, new york, ny 10014, usa","Geocoded"
395,"Club Capital","(Baths)","351 Central Ave.","Albany","NY","(P)","Baths",1979,NA,"","","2/18/2020 11:39am","7/27/2020 11:35am","351 Central Ave., Albany, NY","-73.773385","42.666071","351 central ave, albany, ny 12206, usa","Geocoded"
393,"Candy Store","(Noon- 4 a.m.)","62 N. Lake Ave.","Albany","NY","(M),(R),(C)","Restaurant",1979,NA,"","","2/18/2020 11:39am","7/27/2020 11:35am","62 N. Lake Ave., Albany, NY","-73.772375","42.662581","62 n lake ave, albany, ny 12206, usa","Geocoded"
394,"Central Station","('Mixed bag'- looking up)","76 Central Ave.","Albany","NY","","Bars/Clubs",1979,NA,"","","2/18/2020 11:39am","7/27/2020 11:35am","76 Central Ave., Albany, NY","-73.7664709","42.6590586","76 central ave, albany, ny 12206, usa","Geocoded"
396,"Eightballs Lounge","(Disco)","369 Central Ave.","Albany","NY","(YC),(D),(*)","Bars/Clubs",1979,NA,"","","2/18/2020 11:39am","7/27/2020 11:35am","369 Central Ave., Albany, NY","-73.7739629","42.6664037","369 central ave, albany, ny 12206, usa","Geocoded"
400,"Women's Center","(Social)","152 Central ave.","Albany","NY","","Organizations",1979,NA,"","","2/18/2020 11:39am","7/27/2020 11:35am","152 Central ave., Albany, NY","-73.7685048","42.6608904","152 central ave, albany, ny 12206, usa","Geocoded"
401,"Zelda's","(Disco)","425 Central Ave.","Albany","NY","(YC),(D),(*)","Bars/Clubs",1979,NA,"","","2/18/2020 11:39am","7/27/2020 11:35am","425 Central Ave., Albany, NY","-73.7757017","42.6678869","425 central ave, albany, ny 12206, usa","Geocoded"
399,"Playhouse","(Cruisy)","519 Central Ave.","Albany","NY","(S),(D),(*)","Cruising Areas,Bars/Clubs",1979,NA,"","","2/18/2020 11:39am","7/27/2020 11:35am","519 Central Ave., Albany, NY","-73.778183","42.670101","519 central ave, albany, ny 12206, usa","Geocoded"
397,"Hudson Arms Tavern","","222 Central Ave.","Albany","NY","(G),(PT)","Bars/Clubs",1979,NA,"","","2/18/2020 11:39am","7/27/2020 11:35am","222 Central Ave., Albany, NY","-73.770406","42.662517","222 central ave, albany, ny 12206, usa","Geocoded"
398,"Pent House","(Some B, RT)","90 Central Ave.","Albany","NY","(B),(RT)","Bars/Clubs",1979,NA,"","","2/18/2020 11:39am","7/27/2020 11:35am","90 Central Ave., Albany, NY","-73.7667352","42.659367","90 central ave, albany, ny 12206, usa","Geocoded"
408,"Jim Morris Guest House","","46 Shore Lane","Bayshore","NY","(H)","Hotels",1979,NA,"","Long Island","2/18/2020 11:39am","7/27/2020 11:35am","46 Shore Lane, Bayshore, NY","-73.243293","40.7205446","46 shore ln, bay shore, ny 11706, usa","Geocoded"
412,"C'Est Bon","","2520 Merrick Rd.","Bellmore","NY","(OC),(*)","Bars/Clubs",1979,NA,"","Long Island","2/29/2020 3:24pm","7/27/2020 11:35am","2520 Merrick Rd., Bellmore, NY","-73.5324719","40.6620889","2520 merrick rd, bellmore, ny 11710, usa","Geocoded"
413,"Pal Joey's West","","2475 Jerusalem Ave.","Bellmore","NY","(YC),(*)","Bars/Clubs",1979,NA,"","Long Island","2/29/2020 3:24pm","7/27/2020 11:35am","2475 Jerusalem Ave., Bellmore, NY","-73.5406124","40.6911924","2475 jerusalem ave, north bellmore, ny 11710, usa","Geocoded"
414,"The Guest House","","935 S. Country Rd.","Bellport","NY","(H)","Hotels",1979,NA,"","Long Island","2/29/2020 3:24pm","7/27/2020 11:35am","935 S. Country Rd., Bellport, NY","-72.9526311","40.7550908","935 s country rd, bellport, ny 11713, usa","Geocoded"
415,"Cadillac","(Opens 9 p.m.) (Some OC) (Cruisy)","9 Main St.","Binghamton","NY","(*),(D),(OC)","Cruising Areas,Bars/Clubs",1979,NA,"","","2/29/2020 3:24pm","7/27/2020 11:35am","9 Main St., Binghamton, NY","-75.9172638","42.098597","9 main st, binghamton, ny 13905, usa","Geocoded"
416,"Lenny's","(Some YC, G) (Disco) (WE*) ","201 State St.","Binghamton","NY","(*),(YC),(G),(D),(WE),(R)","Bars/Clubs",1979,NA,"","","2/29/2020 3:24pm","7/27/2020 11:35am","201 State St., Binghamton, NY","-75.9118006","42.1018782","201 state st, binghamton, ny 13901, usa","Geocoded"
424,"Cole's Restaurant","","1104 Elmwood Ave.","Buffalo","NY","(M),(PE),(WE)","Restaurant",1979,NA,"","","2/29/2020 3:24pm","7/27/2020 11:35am","1104 Elmwood Ave., Buffalo, NY","-78.8772268","42.9273391","1104 elmwood ave, buffalo, ny 14222, usa","Geocoded"
425,"Dominique","","20 Allen St.","Buffalo","NY","(OC),(D)","Bars/Clubs",1979,NA,"","","2/29/2020 3:24pm","7/27/2020 11:35am","20 Allen St., Buffalo, NY","-78.8708764","42.8991982","20 allen st, buffalo, ny 14202, usa","Geocoded"
422,"Capri Art Theatre","(Active T-Room, lobby, back rows)","3165 Bailey Ave.","Buffalo","NY","(M)","Theatre",1979,NA,"","","2/29/2020 3:24pm","7/27/2020 11:35am","3165 Bailey Ave., Buffalo, NY","-78.813359","42.940922","3165 bailey ave, buffalo, ny 14215, usa","Geocoded"
423,"Club Buffalo Baths","","44 Almeda","Amherst","NY","(P),(*)","Baths",1979,NA,"","","2/29/2020 3:24pm","7/27/2020 11:35am","44 Almeda, Amherst, NY","-78.8217225","42.984349","almeda ave, amherst, ny, usa","Geocoded"
428,"Main Chippewa Book Store","","610 Main St.","Buffalo","NY","","Book Store",1979,NA,"","","2/29/2020 3:24pm","7/27/2020 11:35am","610 Main St., Buffalo, NY","-78.8730744","42.8906129","610 main st, buffalo, ny 14202, usa","Geocoded"
430,"Mean Alice's","(Disco) (2 bars- go go boys)","729 Main St.","Buffalo","NY","(*),(YC),(D),(R)","Restaurant,Bars/Clubs",1979,NA,"","","2/29/2020 3:24pm","7/27/2020 11:35am","729 Main St., Buffalo, NY","-78.8715761","42.8938285","729 main st, buffalo, ny 14203, usa","Geocoded"
426,"Greenfield Street","(Vegetarian R)","25 Greenfield St.","Buffalo","NY","(M),(HIP),(R)","Restaurant",1979,NA,"","","2/29/2020 3:24pm","7/27/2020 11:35am","25 Greenfield St., Buffalo, NY","-78.8432854","42.9364851","25 greenfield st, buffalo, ny 14214, usa","Geocoded"
427,"Little Club","(Should be a winner)","750 Main St.","Buffalo","NY","(*)","Bars/Clubs",1979,NA,"","","2/29/2020 3:24pm","7/27/2020 11:35am","750 Main St., Buffalo, NY","-78.8718924","42.8945586","750 main st, buffalo, ny 14202, usa","Geocoded"
429,"Mattachine Society","","66 Oxford St.","Buffalo","NY","","Organizations",1979,NA,"checked","","2/29/2020 3:24pm","7/27/2020 11:35am","66 Oxford St., Buffalo, NY","-78.8651802","42.9172213","66 oxford ave, buffalo, ny 14209, usa","Geocoded"
433,"Mr. Goodbar","(Disco) (Best around bar)","1110 Elmwood Ave.","Buffalo","NY","(M),(YC),(D),(R),(*)","Restaurant,Bars/Clubs",1979,NA,"","","2/29/2020 3:24pm","7/27/2020 11:35am","1110 Elmwood Ave., Buffalo, NY","-78.8772313","42.9274779","1110 elmwood ave, buffalo, ny 14222, usa","Geocoded"
434,"Murphy's Omega Cafe","","369 Pearl St.","Buffalo","NY","(R),(M)","Restaurant",1979,NA,"","","2/29/2020 3:24pm","7/27/2020 11:35am","369 Pearl St., Buffalo, NY","-78.8743707","42.8893973","369 pearl st, buffalo, ny 14202, usa","Geocoded"
431,"Morgan Turkish Bath","","655 Main St.","Buffalo","NY","(RT),(M)","Baths",1979,NA,"","","2/29/2020 3:24pm","7/27/2020 11:35am","655 Main St., Buffalo, NY","-78.8720148","42.8916599","655 main st, buffalo, ny 14203, usa","Geocoded"
432,"Mother's Bakery","","33 Virginia Pl.","Buffalo","NY","(M),(R),(*)","Restaurant",1979,NA,"","","2/29/2020 3:24pm","7/27/2020 11:35am","33 Virginia Pl., Buffalo, NY","-78.8734282","42.8977156","33 virginia pl, buffalo, ny 14202, usa","Geocoded"
435,"Open House","(Open 24 hours)","516 Delaware","Buffalo","NY","(M),(R)","Restaurant",1979,NA,"","","2/29/2020 3:24pm","7/27/2020 11:35am","516 Delaware, Buffalo, NY","-78.8742955","42.8983646","516 delaware ave, buffalo, ny 14202, usa","Geocoded"
441,"Villa Capri","(Some W, SM) New & larger location nr. Allen","926 Main St.","Buffalo","NY","(W),(SM),(*),(D)","Bars/Clubs",1979,NA,"","","2/29/2020 3:24pm","7/27/2020 11:35am","926 Main St., Buffalo, NY","-78.8702032","42.8991479","926 main st, buffalo, ny 14202, usa","Geocoded"
437,"Rosy, Rum & Rations","(Some G)","486 Elmwood Ave.","Buffalo","NY","(YC),(G),(R),(PT)","Bars/Clubs",1979,NA,"","","2/29/2020 3:24pm","7/27/2020 11:35am","486 Elmwood Ave., Buffalo, NY","-78.8773861","42.9103012","486 elmwood ave, buffalo, ny 14222, usa","Geocoded"
440,"Valentino's ","","454 Pearl St.","Buffalo","NY","(M)","Bars/Clubs",1979,NA,"","","2/29/2020 3:24pm","7/27/2020 11:35am","454 Pearl St., Buffalo, NY","-78.8739589","42.8916772","454 pearl st, buffalo, ny 14202, usa","Geocoded"
436,"Ricardo's ","(Many G)","252 Delaware Ave.","Buffalo","NY","(YC),(D),(G),(*)","Bars/Clubs",1979,NA,"","","2/29/2020 3:24pm","7/27/2020 11:35am","252 Delaware Ave., Buffalo, NY","-78.876552","42.8913589","252 delaware ave, buffalo, ny 14202, usa","Geocoded"
438,"Shamrock","","535 Elmwood Ave.","Buffalo","NY","(M),(OC)","Bars/Clubs",1979,NA,"","","2/29/2020 3:24pm","7/27/2020 11:35am","535 Elmwood Ave., Buffalo, NY","-78.8768204","42.9115905","535 elmwood ave, buffalo, ny 14222, usa","Geocoded"
445,"Genesee Theatre","('Back room')","1600 Genesee","Buffalo","NY","Cruisy Area","Cruising Areas,Theatre",1979,NA,"","","2/29/2020 3:24pm","7/27/2020 11:35am","1600 Genesee, Buffalo, NY","-78.8216293","42.9097789","1600 genesee st, buffalo, ny 14211, usa","Geocoded"
452,"Marie's Between Us Lounge","(Some G) (WE*)","825 Merrick Rd.","Buffalo","NY","(D),(S),(G),(WE),(*)","Bars/Clubs",1979,NA,"","","2/29/2020 3:24pm","7/27/2020 11:35am","825 Merrick Rd., Buffalo, NY","-73.6116699","40.650966","825 merrick rd, baldwin, ny 11510, usa","Geocoded"
453,"Pal Joey's East","(Disco)","836 Grand Ave.","Deer Park","NY","(D),(*)","Bars/Clubs",1979,NA,"","","2/29/2020 3:24pm","7/27/2020 11:35am","836 Grand Ave., Deer Park, NY","-73.3075429","40.7616183","836 grand blvd, deer park, ny 11729, usa","Geocoded"
454,"Mary's","","112 Lake St.","Elmira","NY","(G)","Bars/Clubs",1979,NA,"","","2/29/2020 3:24pm","7/27/2020 11:35am","112 Lake St., Elmira, NY","-76.8009555","42.0888943","112 lake st, elmira, ny 14901, usa","Geocoded"
470,"New Lining","(Disco) (Some G) (WE*)","175 Cherry Lane","Floral Park","NY","(D),(S),(G),(WE),(*)","Bars/Clubs",1979,NA,"","","2/29/2020 3:24pm","7/27/2020 11:35am","175 Cherry Lane, Floral Park, NY","-73.6974672","40.7356932","175 cherry ln, floral park, ny 11001, usa","Geocoded"
473,"Plaza","(Disco)","206 Old Country Rd.","Hicksville","NY","(E),(D)","Bars/Clubs",1979,NA,"","Long Island","2/29/2020 3:24pm","7/27/2020 11:35am","206 Old Country Rd., Hicksville, NY","-73.529236","40.762292","206 w old country rd, hicksville, ny 11801, usa","Geocoded"
476,"Blue Angel","(Some G) (Disco) at Hancock","213 5th St.","Ithaca","NY","(*),(YC),(G),(D)","Bars/Clubs",1979,NA,"","","2/29/2020 3:24pm","7/27/2020 11:35am","213 5th St., Ithaca, NY","-76.5070607","42.4457178","213 5th st, ithaca, ny 14850, usa","Geocoded"
472,"Cheeker's","(Disco) (looks promising)","25 E. Marie St.","Hicksville","NY","(D),(S)","Bars/Clubs",1979,NA,"","Long Island","2/29/2020 3:24pm","7/27/2020 11:35am","25 E. Marie St., Hicksville, NY","-73.522187","40.7675407","25 e marie st, hicksville, ny 11801, usa","Geocoded"
474,"Catapano's","(Sun. brunch)","62 Stewart Ave.","Huntington","NY","(R)","Restaurant",1979,NA,"","Long Island","2/29/2020 3:24pm","7/27/2020 11:35am","62 Stewart Ave., Huntington, NY","-73.424766","40.8737993","62 stewart ave, huntington, ny 11743, usa","Geocoded"
475,"Little Professor Books","","345 Main St.","Huntington","NY","","Book Store",1979,NA,"","Long Island","2/29/2020 3:24pm","7/27/2020 11:35am","345 Main St., Huntington, NY","-73.4302677","40.8710917","345 main st, huntington, ny 11743, usa","Geocoded"
477,"Nite Court","","215 N. Aurora","Ithaca","NY","(M)","Bars/Clubs",1979,NA,"","","2/29/2020 3:24pm","7/27/2020 11:35am","215 N. Aurora, Ithaca, NY","-76.4954416","42.4409855","215 n aurora st, ithaca, ny 14850, usa","Geocoded"
479,"Mig Book Store","","265 Main St.","Johnson City","NY","","Book Store",1979,NA,"","","2/29/2020 3:24pm","7/27/2020 11:35am","265 Main St., Johnson City, NY","-75.9562169","42.1157014","265 main st, johnson city, ny 13790, usa","Geocoded"
484,"Hot Line","(Disco)","572 Rosevale Ave.","Lake Ronkonkoma","NY","(D)","Bars/Clubs",1979,NA,"","","2/29/2020 3:24pm","7/27/2020 11:35am","572 Rosevale Ave., Lake Ronkonkoma, NY","-73.1342745","40.8279069","572 rosevale ave, ronkonkoma, ny 11779, usa","Geocoded"
486,"Marie's Dockside Lounge","","771 S. 9th St.","Lindenhurst","NY","(G),(*)","Bars/Clubs",1979,NA,"","Long Island","2/29/2020 3:24pm","7/27/2020 11:35am","771 S. 9th St., Lindenhurst, NY","-73.3741162","40.6696257","771 s 9th st, lindenhurst, ny 11757, usa","Geocoded"
487,"New Bayview Lounge","","108 Arizona Ave.","Long Beach","NY","","Bars/Clubs",1979,NA,"","Long Island","2/29/2020 3:24pm","7/27/2020 11:35am","108 Arizona Ave., Long Beach, NY","-73.6891661","40.5882246","108 arizona ave, long beach, ny 11561, usa","Geocoded"
490,"Log Rail","(Cruisy) 1 mi. S. of town","165 Rte. 208","New Paltz","NY","(PT),(D),(*)","Bars/Clubs,Cruising Areas",1979,NA,"","","2/29/2020 3:24pm","7/27/2020 11:35am","165 Rte. 208, New Paltz, NY","-74.098279","41.7312145","165 ny-208, new paltz, ny 12561, usa","Geocoded"
491,"Anvil","(Juice bar- no booze) ('Back roon') at 11th Ave.","500 W. 14th ","Greenwich Village","NY","(P),(D)","Bars/Clubs",1979,NA,"","","2/29/2020 3:24pm","7/27/2020 11:35am","500 W. 14th , Greenwich Village, NY","-74.0084683","40.7421672","500 w 14th st, new york, ny 10014, usa","Geocoded"
493,"Barbary Coast ","(Shades of S.F.'s Castro St.- looks promising) at 14th St.","64 7th Ave.","Greenwich Village","NY","","Bars/Clubs",1979,NA,"","","2/29/2020 3:24pm","7/27/2020 11:35am","64 7th Ave., Greenwich Village, NY","-73.9997225","40.7388673","64 7th ave, new york, ny 10011, usa","Geocoded"
495,"Big Dish","","383 W. 12th St.","Greenwich Village","NY","(M),(R)","Restaurant",1979,NA,"","","2/29/2020 3:24pm","7/27/2020 11:35am","383 W. 12th St., Greenwich Village, NY","-74.008756","40.737755","383 w 12th st, new york, ny 10014, usa","Geocoded"
497,"Boots & Saddle","(Some W, SM) (Cruisy)","76 Christopher St.","Greenwich Village","NY","(W),(SM),(*)","Bars/Clubs",1979,NA,"","","2/29/2020 3:24pm","7/27/2020 11:35am","76 Christopher St., Greenwich Village, NY","-74.0034034","40.7334603","76 christopher st, new york, ny 10014, usa","Geocoded"
494,"Beau Geste","at 20t hSt.","239 3rd Ave.","Greenwich Village","NY","(R)","Restaurant",1979,NA,"","","2/29/2020 3:24pm","7/27/2020 11:35am","239 3rd Ave., Greenwich Village, NY","-73.9843661","40.736684","239 3rd ave, new york, ny 10003, usa","Geocoded"
496,"Bonnie & Clyde's","(Disco) (Cruisy) (also Bonnie's (R) Upstairs)","82 W. 3rd St.","Greenwich Village","NY","(YC),(G),(D),(PT)","Cruising Areas,Bars/Clubs",1979,NA,"","","2/29/2020 3:24pm","7/27/2020 11:35am","82 W. 3rd St., Greenwich Village, NY","-73.9989571","40.7297021","82 w 3rd st, new york, ny 10012, usa","Geocoded"
498,"Carr's","","204 W. 19th St.","Greenwich Village","NY","(OC)","Bars/Clubs",1979,NA,"","","2/29/2020 3:24pm","7/27/2020 11:35am","204 W. 19th St., Greenwich Village, NY","-73.9978382","40.741592","204 w 19th st, new york, ny 10011, usa","Geocoded"
499,"Casa Maria","(Disco) (E-WE*)","53 W. 19th St.","Greenwich Village","NY","(G),(D),(E),(WE),(*)","Bars/Clubs",1979,NA,"","","2/29/2020 3:24pm","7/27/2020 11:35am","53 W. 19th St., Greenwich Village, NY","-73.9937306","40.740279","53 w 19th st, new york, ny 10011, usa","Geocoded"
500,"Casa Paco","(Mexican R) ","330 Bleecker St.","Greenwich Village","NY","(M),(R)","Restaurant",1979,NA,"","","2/29/2020 3:24pm","7/27/2020 11:35am","330 Bleecker St., Greenwich Village, NY","-74.004603","40.7334848","330 bleecker st, new york, ny 10014, usa","Geocoded"
501,"Cave","(Disco)","24 E. 22nd St.","Greenwich Village","NY","(AH),(D)","Bars/Clubs",1979,NA,"","","2/29/2020 3:24pm","7/27/2020 11:35am","24 E. 22nd St., Greenwich Village, NY","-73.9883564","40.739904","24 e 22nd st, new york, ny 10010, usa","Geocoded"
502,"Cell Block","(Nowhere SM bar)","372 W. 11th St.","Greenwich Village","NY","(SM)","Bars/Clubs",1979,NA,"","","2/29/2020 3:24pm","7/27/2020 11:35am","372 W. 11th St., Greenwich Village, NY","-74.0095653","40.735189","372 w 11th st, new york, ny 10014, usa","Geocoded"
504,"Christopher & Hudson Street Book Store","","500 Hudson St.","Greenwich Village","NY","","Book Store",1979,NA,"","","2/29/2020 3:24pm","7/27/2020 11:35am","500 Hudson St., Greenwich Village, NY","-74.006136","40.73299","500 hudson st, new york, ny 10014, usa","Geocoded"
503,"Charlie & Kelly's","(Closed Sundays) at Perry","259 W. 4th St.","Greenwich Village","NY","(M),(R)","Restaurant",1979,NA,"","","2/29/2020 3:24pm","7/27/2020 11:35am","259 W. 4th St., Greenwich Village, NY","-74.003141","40.7354258","259 west 4th street, new york, ny 10014, usa","Geocoded"
506,"Club Baths","('Tops' in N.Y.C) (Some YC, W, SM) at 2nd St.","24 1st Ave.","Greenwich Village","NY","(*),(YC),(SM),(W)","Baths",1979,NA,"","","2/29/2020 3:24pm","7/27/2020 11:35am","24 1st Ave., Greenwich Village, NY","-73.9879491","40.7236446","24 1st avenue, new york, ny 10009, usa","Geocoded"
510,"Djuna Books","","154 W. 10th St.","Greenwich Village","NY","(G)","Book Store",1979,NA,"","","2/29/2020 3:24pm","7/27/2020 11:35am","154 W. 10th St., Greenwich Village, NY","-74.0015401","40.734387","154 w 10th st, new york, ny 10014, usa","Geocoded"
509,"David's Pot Belly","(Late)","98 Christopher St.","Greenwich Village","NY","(M),(R)","Restaurant",1979,NA,"","","2/29/2020 3:24pm","7/27/2020 11:35am","98 Christopher St., Greenwich Village, NY","-74.004656","40.7331669","98 christopher st, new york, ny 10014, usa","Geocoded"
505,"Church of the Beloved Disciple ","","348 W. 14th St.","Greenwich Village","NY","","Church",1979,NA,"","","2/29/2020 3:24pm","7/27/2020 11:35am","348 W. 14th St., Greenwich Village, NY","-74.0047474","40.7404517","348 w 14th st, new york, ny 10014, usa","Geocoded"
508,"Danny's First","(Some B0 at Greenwich","139 Christopher St.","Greenwich Village","NY","(PT),(B)","Bars/Clubs",1979,NA,"","","2/29/2020 3:24pm","7/27/2020 11:35am","139 Christopher St., Greenwich Village, NY","-74.0071685","40.733018","139 christopher st, new york, ny 10014, usa","Geocoded"
507,"Cock Ring","(Disco) (Some W, SM, YC) at West Ave.","189 Christopher St.","Greenwich Village","NY","(D),(*),(YC),(SM),(W)","Bars/Clubs",1979,NA,"","","2/29/2020 3:24pm","7/27/2020 11:35am","189 Christopher St., Greenwich Village, NY","-74.0100576","40.7325749","189 christopher st, new york, ny 10014, usa","Geocoded"
511,"Duchess","(G only)","70 Grove St.","Greenwich Village","NY","(G),(*),(D)","Bars/Clubs",1979,NA,"","","2/29/2020 3:24pm","7/27/2020 11:35am","70 Grove St., Greenwich Village, NY","-74.002802","40.7331527","70 grove st, new york, ny 10014, usa","Geocoded"
512,"Duff's","(Italian R)","115 Christopher St.","Greenwich Village","NY","(M),(R)","Restaurant",1979,NA,"","","2/29/2020 3:24pm","7/27/2020 11:35am","115 Christopher St., Greenwich Village, NY","-74.0054357","40.7334062","115 christopher st, new york, ny 10014, usa","Geocoded"
515,"Emerald City","(Disco) (Upstairs) (Ozma (R) Downstairs) nr. 13th","59 5th Ave.","Greenwich Village","NY","(YC),(D),(*),(R)","Bars/Clubs,Restaurant",1979,NA,"","","2/29/2020 3:24pm","7/27/2020 11:35am","59 5th Ave., Greenwich Village, NY","-73.993907","40.7350091","59 5th ave, new york, ny 10003, usa","Geocoded"
513,"Duplex","(Expensive cabaret) (Disco)","55 Grove St.","Greenwich Village","NY","(D)","Bars/Clubs",1979,NA,"","","2/29/2020 3:24pm","7/27/2020 11:35am","55 Grove St., Greenwich Village, NY","-74.0035415","40.733207","55 grove st, new york, ny 10014, usa","Geocoded"
520,"Four Eleven","","411 Bleecker St.","Greenwich Village","NY","(M),(R)","Restaurant",1979,NA,"","","2/29/2020 3:24pm","7/27/2020 11:35am","411 Bleecker St., Greenwich Village, NY","-74.0050709","40.736316","411 bleecker st, new york, ny 10014, usa","Geocoded"
522,"Horn of Plenty","(Patio) at Bleecker","91 Charles St.","Greenwich Village","NY","(PE),(M),(R)","Restaurant",1979,NA,"","","2/29/2020 3:24pm","7/27/2020 11:35am","91 Charles St., Greenwich Village, NY","-74.0052007","40.7347572","91 charles st, new york, ny 10014, usa","Geocoded"
519,"Flamingo","(No booze- 'Jacks' & juice only) at Houston","599 Broadway ","Greenwich Village","NY","(*),(P),(YC)","Bars/Clubs",1979,NA,"","","2/29/2020 3:24pm","7/27/2020 11:35am","599 Broadway , Greenwich Village, NY","-73.9971632","40.7253375","ayer building, 599 broadway, new york, ny 10012, usa","Geocoded"
518,"Five Oaks","at Bleecker","49 Grove St.","Greenwich Village","NY","(M),(R),(E)","Restaurant",1979,NA,"","","2/29/2020 3:24pm","7/27/2020 11:35am","49 Grove St., Greenwich Village, NY","-74.0037967","40.7331585","49 grove st, new york, ny 10014, usa","Geocoded"
517,"Fedora's ","","239 W. 4th St.","Greenwich Village","NY","(M),(R)","Restaurant",1979,NA,"","","2/29/2020 3:24pm","7/27/2020 11:35am","239 W. 4th St., Greenwich Village, NY","-74.0029004","40.734537","239 west 4th street, new york, ny 10014, usa","Geocoded"
528,"Jeffrey's","(Cabaret E) (2 floors) betw. Bleecker & Hudson","228 W. 10th St.","Greenwich Village","NY","(R),(E)","Restaurant",1979,NA,"","","2/29/2020 3:24pm","7/27/2020 11:35am","228 W. 10th St., Greenwich Village, NY","-74.0051144","40.7337081","228 w 10th st, new york, ny 10014, usa","Geocoded"
527,"Jan Wallman's","","28 Cornelia St.","Greenwich Village","NY","(R),(E)","Restaurant",1979,NA,"","","2/29/2020 3:24pm","7/27/2020 11:35am","28 Cornelia St., Greenwich Village, NY","-74.0023544","40.7311877","28 cornelia st, new york, ny 10014, usa","Geocoded"
524,"Infinity","(Very M) (Unisex) (Disco) at 3rd Ave.","653 Broadway","Greenwich Village","NY","(*),(M),(D)","Bars/Clubs",1979,NA,"","","2/29/2020 3:24pm","7/27/2020 11:35am","653 Broadway, Greenwich Village, NY","-73.9957494","40.7270095","653 broadway, new york, ny 10012, usa","Geocoded"
523,"Inferno","(Disco)","5 W. 19th St.","Greenwich Village","NY","(YC),(D),(*)","Bars/Clubs",1979,NA,"","","2/29/2020 3:24pm","7/27/2020 11:35am","5 W. 19th St., Greenwich Village, NY","-73.991888","40.739494","5 w 19th st, new york, ny 10011, usa","Geocoded"
525,"International","(The Stud) ('wild back room') at Perry","733 Greenwich","Greenwich Village","NY","(D)","Bars/Clubs",1979,NA,"","","2/29/2020 3:24pm","7/27/2020 11:35am","733 Greenwich, Greenwich Village, NY","-74.006679","40.735173","733 greenwich st, new york, ny 10014, usa","Geocoded"
526,"Iron Horse Pub","7th Ave. at 2nd St.","","Greenwich Village","NY","(R),(E)","Restaurant",1979,NA,"","","2/29/2020 3:24pm","7/27/2020 11:35am",", Greenwich Village, NY","-74.0027418","40.7335719","greenwich village, new york, ny, usa","Geocoded"
531,"Keller's","(Some W, SM, Everything) (Good Sun.) nr. Barrow","384 West St.","Greenwich Village","NY","(W),(SM),(*)","Bars/Clubs",1979,NA,"","","2/29/2020 3:24pm","7/27/2020 11:35am","384 West St., Greenwich Village, NY","-74.0102763","40.732003","384 west st, new york, ny 10014, usa","Geocoded"
