ID,Title,status,lat,lon,description,streetaddress,city,state,Year,amenityfeatures,type,unclearaddress,uncleartype,notes,dateadded,lastmodified
3,Noble St.,Found,33.658482,-85.829655,,btwn. 8th & 16th,Anniston,AL,1994,Cruisy Area,Cruising Areas,checked,,,,6/12/2023 11:36am
2,Lagarde Park,Found,33.692729,-85.823936,,,Anniston,AL,1994,Cruisy Area,Cruising Areas,checked,,,,6/12/2023 11:35am
5,Haley Center Library & Sanford Park ,Found,32.603395,-85.486793,nr. Langton Hall (Auburn U),,Auburn,AL,1994,"Cruisy Area,(AYOR)",Cruising Areas,checked,,,,6/12/2023 11:39am
8,Barnes Memorial Library ,General Coordinates Used,33.518589,-86.810357,(at Lambda Resource Center) lesbigay library ,,Birmingham,AL,1994,,Info Lines & Services,checked,,Center address is 205 32nd St. S. ,,6/12/2023 11:58am
19,Alabama Forum,General Coordinates Used,33.518589,-86.810357,"Box 55894, 35255 328-9228",,Birmingham,AL,1994,,Publications,checked,,,,6/12/2023 11:54am
7,AA Gay/Lesbian,General Coordinates Used,33.518589,-86.810357,"(at Lambda Resource Center) 933-8964 (AA#) 8pm Wed, 11am Sat, 6pm Sun",,Birmingham,AL,1994,,Info Lines & Services,checked,,Center address is 205 32nd St. S. ,,6/12/2023 11:57am
11,Men's Night,General Coordinates Used,33.518589,-86.810357,(at Lambda Resource Center) 326-8600 2nd Mon 7pm ,,Birmingham,AL,1994,,Info Lines & Services,checked,,Center address is 205 32nd St. S. ,,6/12/2023 11:59am
9,Gay Information Line ,General Coordinates Used,33.38376,-87.122124 ,"326-8600, 6pm-10pm, from 1pm wknds ",,Birmingham,AL,1994,,Info Lines & Services,checked,,,,6/12/2023 11:59am
28,"""The Pumps""",General Coordinates Used,34.605925,-86.983342,,,Decatur,AL,1994,"Cruisy Area,(AYOR)",Cruising Areas,checked,,,,6/12/2023 12:25pm
26,Delano Park,Found,34.597248,-86.976437,,,Decatur,AL,1994,Cruisy Area,Cruising Areas,checked,,,,6/12/2023 12:27pm
27,Point Mallard Park,Found,34.57121,-86.93589,'- Swimmin' Hole (Summers),,Decatur,AL,1994,Cruisy Area,Cruising Areas,checked,,,,6/12/2023 12:27pm
30,Wilson Park ,Found,34.80322,-87.675219,(Nights),,Florence,AL,1994,"Cruisy Area,(AYOR)",Cruising Areas,checked,,,,6/12/2023 12:38pm
29,Veterans Park,Found,34.811018,-87.625245,(Days),,Florence,AL,1994,"Cruisy Area,(AYOR)",Cruising Areas,checked,,,,6/12/2023 12:38pm
33,Pink Triangle Alliance,General Coordinates Used,34.729901,-86.59007,"P.O. Box 2334, 35804 539-4235 resource & info line, 10am-early evenings only",,Huntsville,AL,1994,,Info Lines & Services,checked,,,,6/12/2023 12:42pm
32,Huntsville Help Line,General Coordinates Used,34.730369,-86.586104,"P.O. Box 92, 35804 539-1000, 24hrs, some lesbigay resources",,Huntsville,AL,1994,,Info Lines & Services,checked,,,,6/12/2023 12:40pm
36,Tallulah Bankhead Pkwy.,General Coordinates Used,34.730369,-86.586104,all overlooks,,Huntsville,AL,1994,"Cruisy Area,(AYOR)",Cruising Areas,checked,,,,6/12/2023 12:45pm
38,Jacksonville State U.,Found,33.824104,-85.765878,,Bibb Graves Hall & Ayer Hall,Jacksonville,AL,1994,"Cruisy Area,(AYOR)",Cruising Areas,checked,,,,6/12/2023 12:47pm
37,Germania Springs ,Found,33.8478,-85.757482,,,Jacksonville,AL,1994,Cruisy Area,Cruising Areas,checked,,,,6/12/2023 12:47pm
46,Old State Park,General Coordinates Used,30.695366,-88.039891,(opp. Holiday Inn-off causeway),,Mobile,AL,1994,Cruisy Area,Cruising Areas,checked,,,,6/12/2023 1:10pm
55,McInnis area,General Coordinates Used,32.292786,-86.252829,,,Montgomery,AL,1994,"Cruisy Area,(AYOR)",Cruising Areas,checked,,,,6/12/2023 3:22pm
54,Court Square ,Found,32.377599,-86.309296,,,Montgomery,AL,1994,Cruisy Area,Cruising Areas,checked,,,,6/12/2023 3:20pm
52,Block around Post Office,General Coordinates Used,32.379223,-86.307737,early evenings,,Montgomery,AL,1994,"Cruisy Area,(AYOR)",Cruising Areas,checked,,,,6/12/2023 3:18pm
56,Rosa L. Parks Ave.,Found,32.362592,-86.316613,at Mill St.,,Montgomery,AL,1994,Cruisy Area,Cruising Areas,checked,,,,6/12/2023 3:27pm
47,Black & White Men Together (BWMT),General Coordinates Used,32.373798,-86.311007,"P.O. Box 603, 36101 284-2421",,Montgomery,AL,1994,,Info Lines & Services,checked,,,,6/12/2023 3:18pm
53,Cooter's Pond,Found,32.429394,-86.400732,,,Montgomery,AL,1994,"Cruisy Area,(AYOR)",Cruising Areas,checked,,,,6/12/2023 3:20pm
51,Auburn University,Found,32.369595,-86.178834,,,Montgomery,AL,1994,"Cruisy Area,(AYOR)",Cruising Areas,checked,,,,6/12/2023 3:17pm
60,Gay/Lesbian/Bisexual Alliance,Found,33.214516,-87.545433,348-7210,U. of Alabama,Tuscaloosa,AL,1994,,Info Lines & Services,checked,,,,6/12/2023 3:35pm
59,Washington St. ,General Coordinates Used,32.413842,-87.022179,,,Selma,AL,1994,Cruisy Area,Cruising Areas,checked,,,,6/12/2023 3:36pm
58,Selma Mall ,Found,32.43312,-87.016506,,,Selma,AL,1994,Cruisy Area,Cruising Areas,checked,,,,6/12/2023 3:36pm
6,Autaugaville Rec. Park,General Coordinates Used,32.434025,-86.654702,,,Autaugaville,AL,1994,"Cruisy Area,(AYOR)",Cruising Areas,checked,,,,6/12/2023 3:37pm
57,Prattville Park ,Found,32.453906,-86.466914,-Broad St.,,Prattville,AL,1994,Cruisy Area,Cruising Areas,checked,,,,6/12/2023 3:37pm
62,AA Gay/Lesbian ,General Coordinates Used,61.217576,-149.899678,272-2312 (AA#) call for times & location,,Anchorage,AK,1994,,Info Lines & Services,checked,,,,6/12/2023 3:39pm
64,Anchorage Garden Buddies,General Coordinates Used,61.196105,-149.915966,"P.O. Box 104858, 99510  monthly men's social club",,Anchorage,AK,1994,,Info Lines & Services,checked,,,,6/12/2023 3:42pm
74,Identity Northview,General Coordinates Used,61.218923,-149.850373,"P.O. Box 2000070, 99520 258-4777 monthly newsletter, Fourth Fri Potluck Social",,Anchorage,AK,1994,,Publications,checked,,,,6/12/2023 3:43pm
80,Park Strip,Found,61.213666,-149.903704,,"at 9th & ""L"" St.s",Anchorage,AK,1994,Cruisy Area,Cruising Areas,checked,,,,6/12/2023 3:45pm
63,Anchorage Gay/Lesbian Info Line,General Coordinates Used,61.196105,-149.915966,"258-4777, irregular hours leave message ",,Anchorage,AK,1994,,Info Lines & Services,checked,,,,6/12/2023 3:42pm
85,Palace Saloon,General Coordinates Used,64.837778,-147.716389,"456-5960 4pm-9pm, til 3:30am Fri & Sat, more gay clientele after 11pm, tourist spot otherwide",Alaskaland,Fairbanks,AK,1994,"(GF),(D),(E)",Bars,checked,,,,6/19/2023 4:09pm
81,Gay Info Line,General Coordinates Used,64.837778,-147.716389,488-6636 leave message,,Fairbanks,AK,1994,,Info Lines & Services,checked,,,,6/19/2023 4:07pm
87,University of Alaska Library,Found,64.856934,-147.820022,,,Fairbanks,AK,1994,"Cruisy Area,(AYOR)",Cruising Areas,checked,,,,6/19/2023 4:10pm
82,Gay/Lesbian Info Line,General Coordinates Used,64.839827,-147.719466,"P.O. Box 74552, 99707 452-3745 info on local events",,Fairbanks,AK,1994,,Info Lines & Services,checked,,,,6/19/2023 4:09pm
88,Southeast  Alaska Gay and Lesbian Switchboard (S.E.A.G.L.A),General Coordinates Used,58.300493,-134.420131,586-4297 7PM-9PM Fri,,Juneau,AK,1994,,Info Lines & Services,checked,,,,6/19/2023 4:14pm
97,Thorp Park,Found,35.203668,-111.658355,,,Flagstaff,AZ,1994,"Cruisy Area,(AYOR)",Cruising Areas,checked,,,,6/19/2023 8:29pm
92,Community Real Estate Referrals ,General Coordinates Used,35.198284,-111.651302,(800)346-5592 gay realtor at your service,,Flagstaff,AZ,1994,,Info Lines & Services,checked,,,,6/19/2023 8:27pm
93,Gay/Lesbian Community Phone Line,General Coordinates Used,35.198284,-111.651302,774-1521,,Flagstaff,AZ,1994,,Info Lines & Services,checked,,,,6/19/2023 8:28pm
101,Park of Canals,General Coordinates Used,33.440476,-111.813879,,on N. Horne St.,Mesa,AZ,1994,,Cruising Areas,checked,,,,6/19/2023 8:32pm
102,Reed & Pioneer Park ,Found,33.416972,-111.819674,,,Mesa,AZ,1994,"Cruisy Area,(AYOR)",Cruising Areas,checked,,,,6/19/2023 8:33pm
105,Gay Helpline,General Coordinates Used,33.555703,-112.1121,"265-1102, 7pm-midnight Tues-Sat",,Phoenix,AZ,1994,,Info Lines & Services,checked,,,,6/19/2023 9:01pm
121,Durango's at Flex Comples,General Coordinates Used,33.448377,-112.074037,(see Men's Clubs) 271-9017 10am-1am,,Phoenix,AZ,1994,"(NH),(PC)",Bars,checked,,Flex Complex's address is 1517 S. Black Canyon Hwy.,,6/19/2023 9:01pm
145,Resource,General Coordinates Used,33.448377,-112.074037,"P.O. Box 5948, 85010 256-7476",,Phoenix,AZ,1994,,Publications,checked,,,,6/19/2023 9:11pm
104,Community Real Estate Referrals,General Coordinates Used,33.448377,-112.074037,(800)346-5592 gay realtor at your service,,Phoenix,AZ,1994,,Info Lines & Services,checked,,,,6/19/2023 9:53pm
146,Western Express,General Coordinates Used,33.453877,-111.953395,"P.O. Box 5950, 85010 254-1324",,Phoenix,AZ,1994,,Publications,checked,,,,6/19/2023 9:25pm
103,Cambelback Business & Professional Assoc.,General Coordinates Used,33.538652,-112.185987,"P.O. Box 2097, 85001 225-8888",,Phoenix,AZ,1994,,Info Lines & Services,checked,,,,6/19/2023 8:49pm
141,Arizona Office of Tourism ,General Coordinates Used,33.448377,-112.074037,542-8687,,Phoenix,AZ,1994,,Travel/Tour Operators,checked,,,,6/19/2023 8:42pm
144,Echo Magazine,General Coordinates Used,33.448377,-112.074037,"P.O. Box 1808, 85001 266-0550",,Phoenix,AZ,1994,,Publications,checked,,,,6/19/2023 9:01pm
110,"Westways ""Private"" Botique Resort Inn",General Coordinates Used,33.650181,-112.100108,"P.O. Box 41624, 85080 582-3868 deluxe resort",,Phoenix,AZ,1994,"(MW),(SW),(WC),(IGTA)",Accommodations,checked,,,,6/19/2023 9:26pm
107,Lesbian/Gay Community Switchboard,General Coordinates Used,33.448377,-112.074037,"234-2752/234-0873 (TDD), 10am-10pm (volunteers permitting)",,Phoenix,AZ,1994,,Info Lines & Services,checked,,,,6/19/2023 9:03pm
159,Sipapu Lodge,General Coordinates Used,34.86974,-111.76099,"P.O. Box 552, 86336 282-2833 full brkfst",,Sedona,AZ,1994,(GF),Accommodations,checked,,,,6/19/2023 9:30pm
160,Park,General Coordinates Used,34.824424,-111.805914,at Red Rock Crossing (way back),,Sedona,AZ,1994,Cruisy Area,Cruising Areas,checked,,,,6/19/2023 9:29pm
163,West side of Mill Ave.,General Coordinates Used,33.42551,-111.940005,(by the Coffee Plantation) ,,Tempe,AZ,1994,"Cruisy Area,(AYOR)",Cruising Areas,checked,,,,6/19/2023 9:35pm
162,Papago Park ,Found,33.453632,-111.948693,southern part,,Tempe,AZ,1994,"Cruisy Area,(AYOR)",Cruising Areas,checked,,,,6/19/2023 9:33pm
164,City Park,Found,31.713073,-110.068154,,,Tombstone,AZ,1994,"Cruisy Area,(AYOR)",Cruising Areas,checked,,,,6/19/2023 9:36pm
165,AA Gay/Lesbian,General Coordinates Used,32.222607,-110.974711,"624-4183 (AA#) 8pm Mon, Th-Sat",,Tucson,AZ,1994,,Info Lines & Services,checked,,,,6/19/2023 9:36pm
166,Community Real Estate Referrals,General Coordinates Used,32.222607,-110.974711,(800)346-5592 gay realtor at your service,,Tucson,AZ,1994,,Info Lines & Services,checked,,,,6/19/2023 9:37pm
173,Congress Tap Room,Found,32.222248,-110.966648,(inside Hotel Congress) 11am-1am ,,Tucson,AZ,1994,"(GF),(NH),(OC)",Bars,checked,,,,6/19/2023 9:37pm
183,"Observer, The",General Coordinates Used,32.222607,-110.974711,"P.O. Box 50733, 85703 622-7176",,Tucson,AZ,1994,,Publications,checked,,,,6/19/2023 9:40pm
188,Joe Henry Park,Found,32.728158,-114.648609,,,Yuma,AZ,1994,"Cruisy Area,(AYOR)",Cruising Areas,checked,,,,6/19/2023 9:41pm
100,London Bridge,Found,34.467188,-114.352661,(is going down!),,Lake Havasu City,AZ,1994,Cruisy Area,Cruising Areas,checked,,,,6/19/2023 9:42pm
98,Bowling Alley & Rec. Center,General Coordinates Used,31.555216,-110.349922,,,Ft. Huachuca,AZ,1994,"Cruisy Area,(AYOR)",Cruising Areas,checked,,,,6/19/2023 9:43pm
195,Purple Iris Inn,General Coordinates Used,36.393689,-93.707729,"RR 6 Box 339 (Hwy 62 W.) 253-8748/(800)831-4747, seasonal ",,Eureka Springs,AR,1994,"(GF),(WC)",Accommodations,checked,,,,6/19/2023 10:07pm
193,"Gardener's Cottage, The",General Coordinates Used,35.07861,-92.317823,"253-9111 priv. country cottage for 2, seasonal",,Eureka Springs,AR,1994,(GF),Accommodations,checked,,,,6/19/2023 9:58pm
208,Flat Rock Bench,General Coordinates Used,36.066242,-94.157853,mixed crowd but fun,,Fayetteville,AR,1994,"Cruisy Area,(N)",Cruising Areas,checked,,,,6/19/2023 10:10pm
204,AA Live & Let Live Group,General Coordinates Used,36.066242,-94.157853,"521-5260 7:30pm Mon, 5pm Sat",,Fayetteville,AR,1994,,Info Lines & Services,checked,,,,6/19/2023 10:09pm
205,Gay/Lesbian Student Association,General Coordinates Used,36.066242,-94.157853,"University of AR, AU517, 72701 ",,Fayetteville,AR,1994,,Info Lines & Services,checked,,,,6/19/2023 10:10pm
209,Lake Fayetteville,Found,36.135807,-94.144443,,,Fayetteville,AR,1994,"Cruisy Area,(AYOR)",Cruising Areas,checked,,,,6/19/2023 10:10pm
211,3rd & Garrison Sts. ,Found,35.389097,-94.428005,,,Ft. Smith,AR,1994,"Cruisy Area,(AYOR)",Cruising Areas,checked,,,,6/19/2023 10:13pm
213,De Soto Park,Found,34.536275,-93.029602,,,Hot Springs,AR,1994,"Cruisy Area,(AYOR)",Cruising Areas,checked,,,,6/20/2023 1:19pm
224,Arkansas Department of Tourism,Found,34.752012,-92.282065,(800)NATURAL,,Little Rock,AR,1994,,Travel/Tour Operators,checked,,,,6/20/2023 1:42pm
225,Travel by Philip ,General Coordinates Used,34.744462,-92.288016,277-7690,,Little Rock,AR,1994,(IGTA),Travel/Tour Operators,checked,,,,6/20/2023 1:43pm
215,Gay/Lesbian Switchboard,General Coordinates Used,34.746481,-92.289595,"P.O. Box 45053, 72214 666-3340/(800)448-8305 (AR only) 6:30pm-10:30pm, info & referrals ",,Little Rock,AR,1994,,Info Lines & Services,checked,,,,6/20/2023 1:36pm
226,Triangle Journal News,General Coordinates Used,34.746481,-92.289595,"Box 11485, Memphis, TN 38111
 (901)454-1411",,Little Rock,AR,1994,,Publications,checked,,,,6/20/2023 1:43pm
214,AA Gay/Lesbian ,General Coordinates Used,34.827811,-92.345685 ,664-7303 (AA#) 5pm Sun & 8pm Fri at 4401 Woodlawn (Pulaski Heights Presbyterian Church); 8pm Wed at 3rd & Pulaski (Capitol View United Methodist,,Little Rock,AR,1994,,Info Lines & Services,checked,,,,6/20/2023 1:25pm
220,Michael's ,Found,34.735062,-92.272538,"(at Little Rock Inn) 9pm-2am, 4pm-10pm Sun",,Little Rock,AR,1994,"(MW),(D),(S)",Bars,checked,,Inn address is 601 Center St.,,6/20/2023 1:36pm
218,Christopher's Lounge,Found,34.735062,-92.272538,"(at Little Rock Inn) 4pm-2am, 7pm-1am Sat, piano bar",1401 S Main St,Little Rock,AR,1994,,Bars,checked,,Inn address is 601 Center St.,,6/20/2023 1:26pm
229,"""Mary Sue Rest Stop""",General Coordinates Used,33.430483,-94.036174,"1-30 E., 1 1/2 mi E. of State Line Ave.",,Texarkana,AR,1994,"Cruisy Area,(AYOR)",Cruising Areas,checked,,,,6/20/2023 2:35pm
228,Russellville State Park,Found,35.225281,-93.155952,Lake Dardanelle,,Russellville,AR,1994,"Cruisy Area,(AYOR)",Cruising Areas,checked,,,,6/20/2023 2:35pm
189,U of Central Arkansas Gay/Lesbian Student Union,General Coordinates Used,35.091751,-92.436652,"P.O. Box 7006, 72032",,Conway,AR,1994,,Info Lines & Services,checked,,,,6/20/2023 2:35pm
230,Double Tree Ranch ,General Coordinates Used,36.043403,-90.671223,"P.O. Box 52, 72474  236-7711 RV park & campsites",,Walcott,AR,1994,(GF),Accommodations,checked,,,,6/20/2023 2:36pm
233,Gay/Lesbian Hotline of Orange County,General Coordinates Used,33.836593,-117.914301,534-3261 volunteers 6:30pm-10:30pm,,Anaheim,CA,1994,,Info Lines & Services,checked,,,,6/20/2023 2:40pm
232,Gay/Lesbian Community Services Center,General Coordinates Used,33.836593,-117.914301,"534-0862 noon-10pm, from 6pm wknds",,Anaheim,CA,1994,,Info Lines & Services,checked,,,,6/20/2023 2:40pm
236,Nude beach on American River,General Coordinates Used,38.896565,-121.07689,downstream ,,Auburn,CA,1994,Cruisy Area,Cruising Areas,checked,,,,6/20/2023 2:40pm
246,Beach Park ,Found,35.379936,-119.040635,"(Nights, AYOR)",21st & Oak Sts. ,Bakersfield,CA,1994,"Cruisy Area,(AYOR)",Cruising Areas,checked,,,,6/20/2023 2:41pm
239,Gay/Lesbian Phone Line ,General Coordinates Used,35.373292,-119.018712,328-0729 (message machine) updated info on local support & social groups ,,Bakersfield,CA,1994,,Info Lines & Services,checked,,,,6/20/2023 2:43pm
237,Friends,General Coordinates Used,35.373292,-119.018712,"P.O. Box 304, 93302  398-8663 support group & community outreach",,Bakersfield,CA,1994,,Info Lines & Services,checked,,,,6/20/2023 2:43pm
254,MIX ,General Coordinates Used,37.871523,-122.273042,(at Thunder Bay) 843-5582 8pm-4am Fri,,Berkeley,CA,1994,"(*),(MW),(D),(18+),(YC)",Bars,checked,,Thunder Bay's address is 1 Bolivar Dr. ,,6/20/2023 2:49pm
264,U.C.B. Hearst Gym,Found,37.869593,-122.256686,,,Berkeley,CA,1994,"Cruisy Area,(AYOR)",Cruising Areas,checked,,,,6/20/2023 2:49pm
253,Elmwood House,Found,37.863484,-122.253448,540-5123,2609 College Ave.,Berkeley,CA,1994,(GF),Accommodations,checked,,,,6/20/2023 2:46pm
250,Gay/Lesbian Alanon ,Found,37.86112,-122.259311,"(at Pacific Center) 548-8283, 6:30pm Fri",,Berkeley,CA,1994,,Info Lines & Services,checked,,Pacific Center address is 2712 Telegraph Ave. ,,6/20/2023 2:48pm
249,Fruit Punch,General Coordinates Used,37.871523,-122.273042,94.1FM (KPFA) 848-6767 lesbigay radio 7pm Wed,,Berkeley,CA,1994,,Info Lines & Services,checked,,,,6/20/2023 2:47pm
251,Gay Switchboard,Found,37.86112,-122.259311,"(at Pacific Center) 841-6224 (TTY) 10am-10pm Mon-Fri, til 4pm Sat",,Berkeley,CA,1994,,Info Lines & Services,checked,,Pacific Center address is 2712 Telegraph Ave. ,,6/20/2023 2:48pm
248,Community Real Estate Referrals ,General Coordinates Used,37.871523,-122.273042,(800)346-5592 gay realtor at your service,,Berkeley,CA,1994,,Info Lines & Services,checked,,,,6/20/2023 2:46pm
263,Aquatic Park,Found,37.859681,-122.298756,,,Berkeley,CA,1994,"Cruisy Area,(AYOR)",Cruising Areas,checked,,,,6/20/2023 2:46pm
272,Carmel Park Beach,Found,36.539474,-121.928334,from dunes to N. end,,Carmel,CA,1994,Cruisy Area,Cruising Areas,checked,,,,6/20/2023 3:06pm
277,Bidwell Park Cedar Grove,Found,39.810313,-121.722796,"& upper part, by the creek",,Chico,CA,1994,"Cruisy Area,(AYOR)",Cruising Areas,checked,,,,6/20/2023 3:13pm
275,Gay Hotline,General Coordinates Used,39.728494,-121.837478,891-5718 (priv. home) hrs vary,,Chico,CA,1994,,Info Lines & Services,checked,,,,6/20/2023 3:15pm
274,Chico State Student Group,Found,39.729665,-121.847887,898-4420 ,,Chico,CA,1994,,Info Lines & Services,checked,,,,6/20/2023 3:14pm
282,Library Park,Found,39.043103,-122.913873,Lakeport,,Clearlake,CA,1994,Cruisy Area,Cruising Areas,checked,,,,6/20/2023 3:17pm
281,Kneeling Park,Found,39.121909,-122.855206,(Fun),,Clearlake,CA,1994,Cruisy Area,Cruising Areas,checked,,,,6/20/2023 3:17pm
292,Henry Dana St. Park,General Coordinates Used,33.467226,-117.698101,,,Dana Point,CA,1994,Cruisy Area,Cruising Areas,checked,,,,6/20/2023 3:18pm
295,Wells Park,Found,32.799976,-116.942355,,,El Cajon,CA,1994,Cruisy Area,Cruising Areas,checked,,,,6/20/2023 3:20pm
299,Grape Day Park,Found,33.123954,-117.083381,Heritage section,,Escondido,CA,1994,Cruisy Area,Cruising Areas,checked,,,,6/20/2023 3:20pm
303,Old Town,General Coordinates Used,40.802071,-124.163673,(Nights),,Eureka,CA,1994,Cruisy Area,Cruising Areas,checked,,,,6/20/2023 3:20pm
304,Solano County Gay/Lesbian Info Line,General Coordinates Used,38.249196,-122.040515,"448-1010, evenings call 449-0550, ask for Kristin or Kathy",,Fairfield,CA,1994,,Info Lines & Services,checked,,,,6/20/2023 3:21pm
309,Coyote Hills Regional Park ,Found,37.556629,-122.09406,,,Fremont,CA,1994,"Cruisy Area,(AYOR)",Cruising Areas,checked,,,,6/20/2023 3:21pm
310,Bulletin Board at Valley Women's Books,General Coordinates Used,36.737798,-119.787125,popular resource for community info ,,Fresno,CA,1994,,Info Lines & Services,checked,,,,6/20/2023 3:40pm
314,"Yosemite Chapter, Knights of Malta",General Coordinates Used,36.737798,-119.787125,"P.O. Box 4162, 93744 233-2014 lesbigay leather group",,Fresno,CA,1994,,Info Lines & Services,checked,,,,6/20/2023 3:37pm
327,Tower District,Found,36.757671,-119.801037,,Corner of Olive & Wishon,Fresno,CA,1994,Cruisy Area,Cruising Areas,checked,,,,6/20/2023 3:25pm
311,Fresno Lesbian/Gay & Bisexual Youth Alliance,General Coordinates Used,36.737798,-119.787125,485-5333,,Fresno,CA,1994,,Info Lines & Services,checked,,,,6/20/2023 3:39pm
322,Pink Pages,General Coordinates Used,36.737798,-119.787125,"P.O. Box 4959, 93744-4959 485-5333, annual ",,Fresno,CA,1994,,Publications,checked,,,,6/20/2023 3:33pm
326,Radio Park ,Found,36.771684,-119.773827,,1st & Clinton,Fresno,CA,1994,Cruisy Area,Cruising Areas,checked,,,,6/20/2023 3:23pm
328,Cal. St. Ful. ,Found,33.884159,-117.884093,PA bldg.,,Fullerton,CA,1994,"Cruisy Area,(AYOR)",Cruising Areas,checked,,,,6/20/2023 3:40pm
339,Campground & R.R. bridge ,Found,34.473356,-120.229478,,,Gaviota State Beach,CA,1994,"Cruisy Area,(AYOR)",Cruising Areas,checked,,,,6/20/2023 3:43pm
350,Maze Stone County Park ,Found,33.781393,-117.056477,,4.5 mi. W. on Hwy 74,Hemet,CA,1994,Cruisy Area,Cruising Areas,checked,,,,6/20/2023 4:40pm
349,Gibbel Park,Found,33.749512,-116.999223,,,Hemet,CA,1994,"Cruisy Area,(AYOR)",Cruising Areas,checked,,,,6/20/2023 4:38pm
348,Inland Empire Couples,General Coordinates Used,33.74752,-116.971968,652-6918,,Hemet,CA,1994,,Info Lines & Services,checked,,,,6/20/2023 4:39pm
382,Just S. of Aliso Pier,General Coordinates Used,33.510027,-117.752554,,,Laguna Beach,CA,1994,"Cruisy Area,(AYOR)",Cruising Areas,checked,,,,6/20/2023 4:59pm
383,West St. Beach,General Coordinates Used,33.542719,-117.785357,"N. of Laguna Royal, S. of Laguna ",,Laguna Beach,CA,1994,Cruisy Area,Cruising Areas,checked,,,,6/20/2023 5:09pm
369,Hunky's Video Bar,Found,33.531573,-117.774944,(at Coast Inn) 8am-2am ,,Laguna Beach,CA,1994,"(MW),(D),(F),(V),(YC)",Bars,checked,,Cost Inn's address is 1401 S. Coast Hwy.,,6/20/2023 4:50pm
372,Newport Station,General Coordinates Used,33.542719,-117.785357,"(see Costa Mesa) 9pm-2am Tues, Wed, Th & Sat ",,Laguna Beach,CA,1994,"(*),(MW),(D),(E),(S),(V),(YC)",Bars,checked,,,,6/20/2023 5:08pm
362,Community Real Estate Referrals ,General Coordinates Used,33.510027,-117.752554,(800)346-5592 gay realtor at your service,,Laguna Beach,CA,1994,,Info Lines & Services,checked,,,,6/20/2023 4:59pm
380,Orange County Blade,General Coordinates Used,33.542719,-117.785357,"P.O. Box 1538, 92652 494-4898",,Laguna Beach,CA,1994,,Publications,checked,,,,6/20/2023 5:08pm
363,Laguna Outreach ,General Coordinates Used,33.510027,-117.752554,497-4237 educational/social org. for Orange County,,Laguna Beach,CA,1994,,Info Lines & Services,checked,,,,6/20/2023 5:00pm
373,Coast Inn Cafe,Found,33.531573,-117.774944,(at Coast Inn) 8am-10pm,,Laguna Beach,CA,1994,(GF),Restaurants & Cafes,checked,,Cost Inn's address is 1401 S. Coast Hwy.,,6/20/2023 4:50pm
368,Boom Boom Boom ,Found,33.531573,-117.774944,"(at Coast Inn) 11am-2am, CW Mon",,Laguna Beach,CA,1994,"(*),(MW),(D),(E),(S),(V),(YC)",Bars,checked,,Cost Inn's address is 1401 S. Coast Hwy.,,6/20/2023 4:50pm
385,Nevada Bed & Breakfast,General Coordinates Used,38.958716,-119.942691,(702)588-5559 hot tub,,Lake Tahoe,CA,1994,(MW),Accommodations,checked,,,,6/20/2023 5:12pm
393,AA Gay/Lesbian (Atlantic Alano Club),General Coordinates Used,33.77005,-118.193739 ,"437-2225, 12:30pm, 6pm, 8pm",1936 E. 4th St. & Cherry ,Long Beach,CA,1994,,Info Lines & Services,checked,,,,6/20/2023 5:13pm
425,"Beach at ""A"" St. & Ocean",Found,33.756852,-118.141338,,,Long Beach,CA,1994,Cruisy Area,Cruising Areas,checked,,,,6/22/2023 8:26am
426,Beach at Granada & Ocean,Found,33.756852,-118.141338,,,Long Beach,CA,1994,Cruisy Area,Cruising Areas,checked,,,,6/22/2023 8:26am
394,Community Real Estate Referrals,General Coordinates Used,33.783824,-118.11409,(800)346-5592 gay realtor at your service,,Long Beach,CA,1994,,Info Lines & Services,checked,,,,6/22/2023 8:28am
591,WAVES,General Coordinates Used,34.089721,-118.370293,"P.O. Box 5039, 90409 (310)399-0555, beach city social/political group",,Los Angeles,CA,1994,,Info Lines & Services,checked,,,,6/22/2023 9:57am
428,Asian/Pacific Lesbian & Gays,General Coordinates Used,34.090711,-118.337459,"P.O. Box 443 Ste., 109 W. Hollywood, 90046 (818)894-7723",,Los Angeles,CA,1994,,Info Lines & Services,checked,,,,6/22/2023 8:48am
431,Black & White Men Together (BWMT) Los Angeles ,General Coordinates Used,34.052234,-118.243685,"(213)664-4716, 7pm Sat ",,Los Angeles,CA,1994,,Info Lines & Services,checked,,,,6/22/2023 8:51am
536,Community Real Estate Referrals,General Coordinates Used,34.052234,-118.243685,(800)346-5592 gay realtor at your service,,Los Angeles,CA,1994,,Info Lines & Services,checked,,,,6/22/2023 9:00am
435,Gay/Lesbian Youth Phone LIne,General Coordinates Used,34.052234,-118.243685,"(213)993-7475, referrals & support for those 23 & under, 7pm-10pm",,Los Angeles,CA,1994,,Info Lines & Services,checked,,,,6/22/2023 9:05am
447,Planet Homo,General Coordinates Used,34.052234,-118.243685,"P.O. Box 461300, 90046",,Los Angeles,CA,1994,,Publications,checked,,,,6/22/2023 9:24am
436,"""IM-RU? Gay Radio""",General Coordinates Used,34.052234,-118.243685,"KPFK LA 90.7-FM (818)985-2711, 10pm Sun",,Los Angeles,CA,1994,,Info Lines & Services,checked,,,,6/22/2023 8:42am
540,Community Real Estate Referrals,General Coordinates Used,34.052234,-118.243685,(800)346-5592 gay realtor at your service,,Los Angeles,CA,1994,,Info Lines & Services,checked,,,,6/22/2023 9:00am
565,Community Real Estate Referrals,General Coordinates Used,34.052234,-118.243685,(800)346-5592 gay realtor at your service,,Los Angeles,CA,1994,,Info Lines & Services,checked,,,,6/22/2023 9:00am
606,Will Rogers State Beach ,Found,34.034319,-118.535257,Santa Monica-on PCH at Chautauqua just S. of volleyball courts,,Los Angeles,CA,1994,"Cruisy Area,(AYOR)",Cruising Areas,checked,,,,6/22/2023 10:00am
448,Black Jack,Found,34.083473,-118.351515,"Box 83515, 90083-0515",,Los Angeles,CA,1994,,Men's Clubs,checked,,,,6/22/2023 8:53am
439,"""This Way Out""",General Coordinates Used,34.052234,-118.243685,"KPFK LA 90.7 FM (818)985-2711, 3:30pm Fri, international lesbian/gay news program ",,Los Angeles,CA,1994,,Info Lines & Services,checked,,,,6/22/2023 8:42am
434,"Gay Connection, The ",General Coordinates Used,34.052234,-118.243685,"(900)505-MEET talk and/or meet with other men from your area, at only 99c per minute",,Los Angeles,CA,1994,,Info Lines & Services,checked,,,,6/22/2023 9:05am
541,Uptown Gay/Lesbian Alliance,General Coordinates Used,34.089721,-118.370293,"P.O. Box 65111, 90065 258-8842 monthly social 2pm, 2nd Sun, newsletter",,Los Angeles,CA,1994,,Info Lines & Services,checked,,,,6/22/2023 9:57am
590,South Bay Lesbian/Gay Community Org.,General Coordinates Used,34.090711,-118.337459,"P.O. Box 2777, Redondo Beach, 90278 379-2850 support & education system for El Segundo, Manhattan/Hermosa/Redondo Beaches, Torrance, Palos Verdes ",,Los Angeles,CA,1994,,Info Lines & Services,checked,,,,6/22/2023 9:54am
461,Temple,General Coordinates Used,34.089721,-118.370293,"(call for locations) 243-5221 underground house, Fri & Sat",,Los Angeles,CA,1994,"(D),(A)",Bars,checked,,,,6/22/2023 9:56am
605,Beach S. of Muscle Beach,Found,33.983499,-118.471994,Venice,,Los Angeles,CA,1994,Cruisy Area,Cruising Areas,checked,,,,6/22/2023 8:50am
589,Community Real Estate Referrals ,General Coordinates Used,34.052234,-118.243685,(800)346-5592 gay realtor at your service,,Los Angeles,CA,1994,,Info Lines & Services,checked,,,,6/22/2023 9:00am
473,Wayne's Leather Rack,Found,34.083452,-118.292424,(at Griff's bar) 8pm-midnight,,Los Angeles,CA,1994,,Erotica,checked,,Griff's address is 4216 Melrose,,6/22/2023 10:00am
433,Community Real Estate Referrals ,General Coordinates Used,34.052234,-118.243685,(800)346-5592 gay realtor at your service,,Los Angeles,CA,1994,,Info Lines & Services,checked,,,,6/22/2023 9:00am
607,Ellis Lake,Found,39.146766,-121.588173,,,Marysville,CA,1994,"Cruisy Area,(AYOR)",Cruising Areas,checked,,,,6/22/2023 10:09am
608,River Front Park,Found,39.14156,-121.604105,,,Marysville,CA,1994,"Cruisy Area,(AYOR)",Cruising Areas,checked,,,,6/22/2023 10:09am
614,Stanford Inn by the Sea,Found,39.300047,-123.79064,937-5615,Coast Hwy. & Comptche-Ukiah Rd.,Mendocino,CA,1994,(GF),Accommodations,checked,,,,6/22/2023 10:09am
610,Gull's Nest,General Coordinates Used,39.307674,-123.799459,"(800)262-7801 (Mendo Coastal Reservations) 2 bdrm townhouse, hot tub, fireplace",,Mendocino,CA,1994,(GF),Accommodations,checked,,,,6/22/2023 10:09am
611,Mendocino Costal Reservations ,General Coordinates Used,39.307674,-123.799459,(800)262-7801,,Mendocino,CA,1994,(GF),Accommodations,checked,,,,6/22/2023 10:09am
626,AA Gay/Lesbian,General Coordinates Used,36.600238,-121.894676,"373-3713 (AA#) at the Little House in the Park, 8pm Th, men-only 8pm Mon",,Monterey,CA,1994,,Info Lines & Services,checked,,,,6/22/2023 10:12am
633,Sunset Drive & beach parks,General Coordinates Used,36.616069,-121.934656,,,Monterey,CA,1994,"Cruisy Area,(AYOR)",Cruising Areas,checked,,,,6/22/2023 10:35am
632,Garrapata Beach,Found,36.422101,-121.914599,N. end 9.3 mi. S. of Rio Rd. (Carmel Hwy. 1,,Monterey,CA,1994,Cruisy Area,Cruising Areas,checked,,,,6/22/2023 10:34am
637,Morro Rock,Found,35.369419,-120.86768,,,Morro Bay,CA,1994,Cruisy Area,Cruising Areas,checked,,,,6/22/2023 10:35am
640,Bed and Breakfast Inns of Napa,General Coordinates Used,38.297538,-122.286865,226-7459 call for brochure,,Napa,CA,1994,(GF),Accommodations,checked,,,,6/22/2023 10:36am
646,Community Real Estate Referrals,General Coordinates Used,37.804351,122.271164,(800)346-5592 gay realtor at your service,,Oakland,CA,1994,,Info Lines & Services,checked,,,,6/22/2023 10:36am
661,Beach,Found,33.195369,-117.384897,from pier S. ,,Oceanside,CA,1994,"Cruisy Area,(AYOR)",Cruising Areas,checked,,,,6/22/2023 10:37am
663,"Gay Connection, The",General Coordinates Used,33.787914,-117.853101,"(900)505-6339 talk and/or meet with other men from the area, at only 99c per minute",,Orange,CA,1994,,Info Lines & Services,checked,,,,6/22/2023 10:38am
668,Desert Business Assn.,General Coordinates Used,33.830296,-116.545292,"P.O. Box 773, 92263 324-0178 Gay/Lesbian business association",,Palm Springs,CA,1994,(IGTA),Info Lines & Services,checked,,,,6/22/2023 10:51am
701,Dates Bar & Deli,Found,33.792434,-116.482356,(at The Villa) 10am-midnight,,Palm Springs,CA,1994,"(*),(F)",Bars,checked,,"Villa's address is 67-670 Carey Rd., Cathedral City",,6/22/2023 10:51am
667,AA Gay/Lesbian,General Coordinates Used,33.830296,-116.545292,324-4880 (AA#),,Palm Springs,CA,1994,,Info Lines & Services,checked,,,,6/22/2023 10:39am
709,"Café at Desert Palms, The",General Coordinates Used,33.830296,-116.545292,"324-5100 9am-3pm dinner 6pm-10pm, dessert & coffee til 2am ",,Palm Springs,CA,1994,"(*),(MW)",Restaurants & Cafes,checked,,,,6/22/2023 10:42am
703,"Poolside Bar, The",Found,33.80313,-116.545632,"(at Desert Palms Inn) 324-5100 piano bar, 9am-2am",,Palm Springs,CA,1994,"(F),(E)",Bars,checked,,"Desert Palm's address is 67-580 E. Palm Canyon Dr., Cathedral City ",,6/22/2023 11:01am
669,Gay/Lesbian Alliance of the Desert,General Coordinates Used,33.830296,-116.545292,"P.O. Box 861, Cathedral City, 922235 322-8769 community center, 24hr helpline ",,Palm Springs,CA,1994,,Info Lines & Services,checked,,,,6/22/2023 10:52am
727,Lesbian/Gay/Bisexual Community Center,General Coordinates Used,37.441883,-122.143019,"P.O. Box 8265, Standford, 94309 723-1488 recorded info",,Palo Alto,CA,1994,,Info Lines & Services,checked,,,,6/22/2023 11:06am
735,Rancho Cicado Retreat ,General Coordinates Used,38.481853,-120.844659,"P.O. Box 225, 95669 245-4841 May-Sept., secluded riverside retreat in Sierra foothills",,Plymouth,CA,1994,"(SW),(N)",Accommodations,checked,,,,6/22/2023 11:08am
736,AA Gay/Lesbian,General Coordinates Used,34.060271,-117.758368,626-2884 (AA#),,Pomona,CA,1994,,Info Lines & Services,checked,,,,6/22/2023 11:08am
737,Gay/Lesbian Community Center Hotline,General Coordinates Used,34.060271,-117.758368,"824-7618, 6:30pm-10pm info & referrals",,Pomona,CA,1994,,Info Lines & Services,checked,,,,6/22/2023 11:09am
740,Back Alley Bar,Found,34.057812,-117.737328,"(at Alibi East) 9pm-3am Fri & Sat, cruise bar",,Pomona,CA,1994,,"Bars,Cruising Areas",checked,,Alibi East's address is 225 S. San Antonio Ave.,,6/22/2023 11:09am
745,Park along river,Found,40.174536,-122.229586,(earl evenings),,Red Bluff,CA,1994,Cruisy Area,Cruising Areas,checked,,,,6/22/2023 11:11am
744,Dog Island Park,Found,40.183737,-122.239013,(days),,Red Bluff,CA,1994,Cruisy Area,Cruising Areas,checked,,,,6/22/2023 11:11am
748,Clear Creek Rd.,General Coordinates Used,40.58654,-122.391675,"4 mi. W. of old 99, nude beach (summers)",,Redding,CA,1994,Cruisy Area,Cruising Areas,checked,,,,6/22/2023 11:12am
749,Lake Redding Park,Found,40.595133,-122.400309,near boat ramp,,Redding,CA,1994,"Cruisy Area,(AYOR)",Cruising Areas,checked,,,,6/22/2023 11:12am
754,Great Outdoors Inland Empire Chapter,General Coordinates Used,33.980601,-117.375494,"P.O. Box 56586, 92517 888-7993 outdoor social group",,Riverside,CA,1994,,Info Lines & Services,checked,,,,6/22/2023 11:15am
759,Community Real Estate Referrals,General Coordinates Used,38.501858,-122.99611,"(800)346-5592, gay realtor at your service",,Russian River,CA,1994,,Info Lines & Services,checked,,,,6/22/2023 11:19am
762,Camelot Resort,Found,38.503173,-123.000295,86902538/(800)922-7807,4th & Mill,Russian River,CA,1994,"(GF),(SW)",Accommodations,checked,,,,6/22/2023 11:18am
791,Tye-Dye Guy,Found,38.501871,-122.999648,"(across from Fife's) open wknds, a must-see for the gay traveller",River Rd.,Russian River,CA,1994,(*),Bookstores/Retail Shops,checked,,Fife's address is 16467 River Rd.,,6/22/2023 11:38am
760,Country Inns of the Russian River,General Coordinates Used,38.501858,-122.99611,"P.O. Box 2416, 95446 (800)927-4667 info & referrals ",,Russian River,CA,1994,,Info Lines & Services,checked,,,,6/22/2023 11:19am
776,Russian River Resort (Triple R Resort),Found,38.503173,-123.000295,869-0691 cocktail lounge,4th & Mill St.,Russian River,CA,1994,"(MW),(F)",Accommodations,checked,,,,6/22/2023 11:34am
792,"""Nude"" beach",Found,38.507345,-122.883019,on Russian River at Wohler Bridge,,Russian River,CA,1994,Cruisy Area,Cruising Areas,checked,,,,6/22/2023 11:37am
789,River Inn Restaurant,Found,38.502102,-122.996254,"(next to River Theatre) 869-0481 local favorite, seasonal ",River Rd.,Russian River,CA,1994,(GF),Restaurants & Cafes,checked,,,,6/22/2023 11:33am
824,Paradise Beach,Found,38.58126,-121.423108,on American River ,,Sacramento,CA,1994,"Cruisy Area,(AYOR)",Cruising Areas,checked,,,,6/22/2023 12:25pm
823,Beach,Found,38.597666,-121.506661,at junction of Am. & Sacto. rivers,,Sacramento,CA,1994,"Cruisy Area,(AYOR)",Cruising Areas,checked,,,,6/22/2023 11:53am
798,Pillars,General Coordinates Used,38.581572,-121.4944,"331-3602 men's social group, 6:30pm 2nd Fri",,Sacramento,CA,1994,,Info Lines & Services,checked,,,,6/22/2023 12:25pm
821,American River Access,Found,38.565615,-121.382507,off La Rivera Dr. near Howe Ave. & Watt Ave.,,Sacramento,CA,1994,"Cruisy Area,(AYOR)",Cruising Areas,checked,,,,6/22/2023 11:46am
794,"Gay Connection, The",General Coordinates Used,38.581572,-121.4944,"(900)505-MEET, talk and/or meet with other men from your area, for only 99c per minute",,Sacramento,CA,1994,,Info Lines & Services,checked,,,,6/22/2023 11:57am
796,Men's Coming Out Group,Found,38.576213,-121.479906,(at Lambda Center) Mon 5:30pm,,Sacramento,CA,1994,,Info Lines & Services,checked,,"Lambda Center's address is 1931 ""L"" St.",,6/22/2023 12:23pm
809,Café Lambda,Found,38.576213,-121.479906,(at Lambda Center) 442-0185 Fri 8pm-midnight,,Sacramento,CA,1994,"(MW),(F),(E)",Restaurants & Cafes,checked,,"Lambda Center's address is 1931 ""L"" St.",,6/22/2023 11:55am
822,Beach & levee on American River,Found,38.600118,-121.484667,"at end of N. 10th St., off Richards Blvd.",,Sacramento,CA,1994,"Cruisy Area,(AYOR)",Cruising Areas,checked,,,,6/22/2023 11:52am
793,Community Real Estate Referrals ,General Coordinates Used,38.581572,-121.4944,"(800)346-5592, gay realtor at your service",,Sacramento,CA,1994,,Info Lines & Services,checked,,,,6/22/2023 12:10pm
827,"Gay Connection, The",General Coordinates Used,34.108345,-117.289765,"(900)5050-MEET, talk and/or meet with other men from your area, at only 99c per minute",,San Bernardino,CA,1994,,Info Lines & Services,checked,,,,6/22/2023 1:45pm
829,Inland Empire Couples,General Coordinates Used,34.108345,-117.289765,"P.O. Box 273, Bloomington 92316 781-9232",,San Bernardino,CA,1994,,Info Lines & Services,checked,,,,6/22/2023 1:46pm
826,AA Gay/Lesbian,General Coordinates Used,34.108345,-117.289765,825-4700 (AA#),,San Bernardino,CA,1994,,Info Lines & Services,checked,,,,6/22/2023 1:37pm
828,Gay/Lesbian Community Center,General Coordinates Used,34.108345,-117.289765,"Colton  824-7618/884-5447 6:30pm-10pm, counseling, library, hotline",582 W. Valley Ste. #4,San Bernardino,CA,1994,,Info Lines & Services,checked,,,,6/22/2023 1:46pm
838,Senda de Playa Beach ,Found,33.951792,-118.448844,,,San Clemente,CA,1994,Cruisy Area,Cruising Areas,checked,,,,6/22/2023 1:51pm
837,San Onofre Beach State Park ,Found,33.372808,-117.565601,N. end of Camp Pendleton,,San Clemente,CA,1994,"Cruisy Area,(N),(AYOR)",Cruising Areas,checked,,,,6/22/2023 1:50pm
841,Community Real Estate Referrals ,General Coordinates Used,32.715738,-117.161084,"(800)346-5592, gay realtor at your service",,San Diego,CA,1994,,Info Lines & Services,checked,,,,6/22/2023 2:11pm
900,Groundworks Books,Found,32.877134,-117.2401,"UCSD Student Center, 0323, La Jolla 452-9625, 10am-8pm",,San Diego,CA,1994,,Bookstores/Retail Shops,checked,,,,6/22/2023 2:24pm
842,Gay/Lesbian Asian Pacific Social Support,General Coordinates Used,32.715738,-117.161084,"P.O. Box 89174, 92138  282-2474, 2nd & 4th Sat",,San Diego,CA,1994,,Info Lines & Services,checked,,,,6/22/2023 2:18pm
846,Orgullo ,General Coordinates Used,32.715738,-117.161084,284-7595 gay Latino group,,San Diego,CA,1994,,Info Lines & Services,checked,,,,6/22/2023 2:31pm
843,Girth & Mirth,General Coordinates Used,32.715738,-117.161084,"P.O. Box 86822, 92138 563-9000, 7pm Mon",,San Diego,CA,1994,,Info Lines & Services,checked,,,,6/22/2023 2:22pm
935,Torry Pines Beach State Park,Found,32.933677,-117.260678,"'- Blacks Beach - half hr. walk from parking lot (active bushes, north end of famed nude beach)",,San Diego,CA,1994,"Cruisy Area,(AYOR)",Cruising Areas,checked,,,,6/22/2023 2:43pm
907,"Undersea Expeditions, Inc.",General Coordinates Used,32.802458,-117.235585,"P.O. Box 9455, Pacific Beach, 92169 270-2900/(800)669-0310 personalized gay/lesbian scuba tours worldwide",,San Diego,CA,1994,"(*),(IGTA)",Travel/Tour Operators,checked,,,,6/22/2023 2:44pm
845,Lesbian/Gays of African Descent United,General Coordinates Used,32.715738,-117.161084,"P.O. Box 620448, 92162 496-3372 social/support group",,San Diego,CA,1994,,Info Lines & Services,checked,,,,6/22/2023 2:26pm
840,Black & White Men Together (BWMT),General Coordinates Used,32.715738,-117.161084,528-1815 ,,San Diego,CA,1994,,Info Lines & Services,checked,,,,6/22/2023 2:09pm
909,Frontera Gay  ,General Coordinates Used,32.715738,-117.161084,"P.O. Box 620626, 92162 covers Mexico ",,San Diego,CA,1994,,Publications,checked,,,,6/22/2023 2:18pm
847,SAGE of California,General Coordinates Used,32.740978,-117.249975,282-1395 seniors' social group,,San Diego,CA,1994,,Info Lines & Services,checked,,,,6/22/2023 2:35pm
857,Quince St. Trolley Bed & Breakfast ,Found,32.736604,-117.161593,"P.O. Box 7654, 92167 226-8454 real trolley car suite",,San Diego,CA,1994,(GF),Accommodations,checked,,,,6/22/2023 2:33pm
939,Community Real Estate Referrals,General Coordinates Used,37.77493,-122.419415,"(800)346-5592, gay realtor at your service",,San Francisco,CA,1994,,Info Lines & Services,checked,,,,6/22/2023 4:17pm
976,Elephant Walk,Found,37.760976,-122.43519,piano bar,18th & Castro,San Francisco,CA,1994,"(*),(NH),(F),(E)",Bars,checked,,,,6/22/2023 4:23pm
941,"Gay Connection, The",General Coordinates Used,37.77493,-122.419415,"(900)505-MEET, talk and/or meet with other men from your area, at only 99c per minute",,San Francisco,CA,1994,,Info Lines & Services,checked,,,,6/22/2023 4:26pm
1143,Community Real Estate Referrals ,General Coordinates Used,37.77493,-122.419415,"(800)346-5592, gay realtor at your service",,San Francisco,CA,1994,,Info Lines & Services,checked,,,,6/22/2023 4:17pm
942,Gay/Lesbian Sierrans ,General Coordinates Used,37.77493,-122.419415,281-5666 outdoor organization ,,San Francisco,CA,1994,,Info Lines & Services,checked,,,,6/22/2023 4:26pm
943,Lesbian/Gay Switchboard ,General Coordinates Used,37.77493,-122.419415,"(510)841-6224 info, referrals, rap line, 10am-10pm Mon-Fri",,San Francisco,CA,1994,,Info Lines & Services,checked,,,,6/22/2023 4:48pm
1087,Greens ,Found,37.806662,-122.432106,Fort Mason 771-6222 upscale gourmet vegetarian,,San Francisco,CA,1994,(GF),Restaurants & Cafes,checked,,,,6/22/2023 4:42pm
944,Links ,General Coordinates Used,37.77493,-122.419415,"P.O. Box 420989, 94142 255-2157 social S/M network",,San Francisco,CA,1994,,Info Lines & Services,checked,,,,6/22/2023 4:52pm
952,Community Real Estate Referrals,General Coordinates Used,37.77493,-122.419415,"(800)346-5592, gay realtor at your service",,San Francisco,CA,1994,,Info Lines & Services,checked,,,,6/22/2023 4:17pm
940,Gay Area Youth Switchboard ,General Coordinates Used,37.77493,-122.419415,"P.O. Box 846, 94101 386-4297, for youth only",,San Francisco,CA,1994,,Info Lines & Services,checked,,,,6/22/2023 4:26pm
938,Black & White Men Together (BWMT) - National Association ,General Coordinates Used,37.77493,-122.419415,(800)624-2968,,San Francisco,CA,1994,,Info Lines & Services,checked,,,,6/22/2023 3:57pm
1094,Golden Gate Park,General Coordinates Used,37.769421,-122.486214,btwn. windmills ,,San Francisco,CA,1994,"Cruisy Area,(AYOR)",Cruising Areas,checked,,,,6/22/2023 4:26pm
946,Mi Casa Su Casa,General Coordinates Used,37.77493,-122.419415,(510)268-8534 international home exchange network,,San Francisco,CA,1994,(MW),Accommodations,checked,,,,6/22/2023 4:54pm
1160,Basque Hotel & Restaurant ,Found,37.798236,-122.406457,788-9404 Uphill Alley off Broadway btwn. Columbus & Kearney,,San Francisco,CA,1994,"(GF),(BW)",Restaurants & Cafes,checked,,,,6/22/2023 4:50pm
1147,"King George Hotel, The",Found,37.786777,-122.409291,781-5050/(800)288-6005,334 Mason St.,San Francisco,CA,1994,"(GF),(F)",Accommodations,checked,,,,6/22/2023 4:46pm
1142,Polk St.,General Coordinates Used,37.791351,-122.420851,btwn. Geary & California ,,San Francisco,CA,1994,"Cruisy Area,(H)",Cruising Areas,checked,,,,6/22/2023 5:23pm
1095,"""Land's End""",General Coordinates Used,37.77493,-122.419415,"(Aka ""Glands End"")",,San Francisco,CA,1994,"Cruisy Area,(AYOR)",Cruising Areas,checked,,,,6/22/2023 2:55pm
936,AA Gay/Lesbian,General Coordinates Used,37.77493,-122.419415,621-1326 (AA#),,San Francisco,CA,1994,,Info Lines & Services,checked,,,,6/22/2023 2:55pm
1070,Folsom St.,General Coordinates Used,37.779486,-122.404427,btwn. 5th & 6th (late),,San Francisco,CA,1994,Cruisy Area,Cruising Areas,checked,,,,6/22/2023 4:25pm
1040,"Black Stallion Inn, The",Found,37.758749,-122.434549,(see Castro section) ,635 Castro St.,San Francisco,CA,1994,(L),Accommodations,checked,,,,6/22/2023 3:59pm
947,Western Exposure,General Coordinates Used,37.77493,-122.419415,"P.O. Box 2116, Berkeley, 94702 (510)869-4395, travel exchange programs",,San Francisco,CA,1994,,Accommodations,checked,,,,6/22/2023 5:26pm
1060,Olive Oils,General Coordinates Used,37.77263,-122.386967,"Pier 50, China Vasin Way 495-3099 full bar, patio",,San Francisco,CA,1994,(GF),Restaurants & Cafes,checked,,,,6/22/2023 4:57pm
1085,Café Corbus,Found,37.777249,-122.422384,(at The Muscle System) coffee bar & sandwiches ,364 Hayes St.,San Francisco,CA,1994,,Restaurants & Cafes,checked,,The Muscle System's address is 364 Hayes St.,,6/22/2023 4:02pm
1178,"Gay Connection, The",General Coordinates Used,37.33874,-121.885252,"(900)505-MEET talk and/or meet with other men from your area, at only 99¢ per minute ",,San Jose,CA,1994,,Bars,checked,,,,6/22/2023 5:45pm
1190,Our Paper,General Coordinates Used,37.33874,-121.885252,"P.O. Box 23387, 95153  226-0823",,San Jose,CA,1994,,Publications,checked,,,,6/22/2023 5:46pm
1186,Tynker's Dam,Found,37.323841,-121.969727,(see Santa Clara),46 Saratoga,San Jose,CA,1994,,Bars,checked,,,,6/22/2023 5:49pm
1194,St. James Square ,Found,37.338702,-121.891469,"(Late, AYOR)",,San Jose,CA,1994,"Cruisy Area,(AYOR)",Cruising Areas,checked,,,,6/22/2023 5:48pm
1179,South Bay Leather/Uniform Group,General Coordinates Used,37.354108,-121.955236,"P.O. Box 2519, Santa Clara 95055 socials, workshops, newsletter",,San Jose,CA,1994,,Bars,checked,,,,6/22/2023 5:48pm
1176,South Bay Leather/Uniform Group ,General Coordinates Used,37.354108,-121.955236,"P.O. Box 2519, Santa Clara 95055 socials, workshops, newsletter",,San Jose,CA,1994,,Info Lines & Services,checked,,,,6/22/2023 5:48pm
1175,"Gay Connection, The",General Coordinates Used,37.33874,-121.885252,"(900)505-MEET talk and/or meet with other men from your area, at only 99¢ per minute ",,San Jose,CA,1994,,Info Lines & Services,checked,,,,6/22/2023 5:45pm
1199,Pismo Dunes,General Coordinates Used,35.282752,-120.659616,Grande Ave. to beach,,San Luis Obispo,CA,1994,"Cruisy Area,(AYOR)",Cruising Areas,checked,,,,6/24/2023 5:05pm
1197,Diamond Cove,Found,35.174193,-120.716813,W. of Pirates Cove & down a cliff,,San Luis Obispo,CA,1994,Cruisy Area,Cruising Areas,checked,,,,6/24/2023 5:04pm
1198,Pirates Cove Beach ,Found,35.175962,-120.715886,left turn off Avila ,,San Luis Obispo,CA,1994,"Cruisy Area,(N)",Cruising Areas,checked,,,,6/24/2023 5:05pm
1201,Coyote Point ,Found,37.587268,-122.319101,"beach & parking lot, off US 101 btwn. San Mateo & Burlingame ",,San Mateo,CA,1994,"Cruisy Area,(AYOR)",Cruising Areas,checked,,,,6/22/2023 5:55pm
1214,Padero Lane Beach,Found,34.41613,-119.567803,"(Summers, AYOR)",,Santa Barbara,CA,1994,"Cruisy Area,(AYOR)",Cruising Areas,checked,,,,6/22/2023 5:58pm
1213,East Beach,Found,34.415256,-119.676353,,,Santa Barbara,CA,1994,"Cruisy Area,(N)",Cruising Areas,checked,,,,6/22/2023 5:57pm
1212,Cabrillo Beach,Found,33.71101,-118.283293,E. of Wharf,,Santa Barbara,CA,1994,Cruisy Area,Cruising Areas,checked,,,,6/22/2023 5:57pm
1227,Beer Can Beach,Found,36.952162,-121.882944,,,Santa Cruz,CA,1994,"Cruisy Area,(AYOR)",Cruising Areas,checked,,,,6/24/2023 12:32pm
1229,Frederick St. Park,Found,36.972044,-122.001677,,,Santa Cruz,CA,1994,"Cruisy Area,(AYOR)",Cruising Areas,checked,,,,6/24/2023 12:32pm
1218,AA Gay/Lesbian,General Coordinates Used,36.974117,-122.030796,457-2559 (AA#),,Santa Cruz,CA,1994,,Info Lines & Services,checked,,,,6/24/2023 12:32pm
1228,Bonney Doon Baach,Found,36.999672,-122.181635,8 mi. N. on Hwy 1.,,Santa Cruz,CA,1994,Cruisy Area,Cruising Areas,checked,,,,6/24/2023 12:32pm
1231,Waller Park,Found,34.903665,-120.44022,,,Santa Maria,CA,1994,"Cruisy Area,(AYOR)",Cruising Areas,checked,,,,6/24/2023 12:45pm
1240,Black Sand Beach ,Found,37.82433,-122.50869,off Lookout Rd.,,Sausalito,CA,1994,Cruisy Area,Cruising Areas,checked,,,,6/24/2023 12:49pm
1239,Bill Jones Houseboat,Found,37.874813,-122.501802,"332-2270 B&B, largest floating house on SF bay",B-61 Issaquah Dock,Sausalito,CA,1994,(IGTA),Accommodations,checked,,,,6/24/2023 12:50pm
1243,Fremont Park,Found,37.957721,-121.287705,opposite Post Office,,Stockton,CA,1994,"Cruisy Area,(AYOR)",Cruising Areas,checked,,,,6/24/2023 1:00pm
1263,Bates Beach,General Coordinates Used,34.280492,-119.29452,btwn. here & Santa Barbara (no motel),,Ventura,CA,1994,"Cruisy Area,(AYOR)",Cruising Areas,checked,,,,6/24/2023 12:28pm
1264,Emma Wood St. Beach,Found,34.29323,-119.339852,,,Ventura,CA,1994,Cruisy Area,Cruising Areas,checked,,,,6/24/2023 12:29pm
1259,Gay/Lesbian Resource Center of Ventura County,General Coordinates Used,34.280492,-119.29452,"P.O. Box 3480, Camarillo, 93011 389-1530 taped info on meetings, resources, groups",,Ventura,CA,1994,,Info Lines & Services,checked,,,,6/24/2023 12:31pm
1267,Pebble Beach Park ,Found,34.508323,-117.308224,,,Victorville,CA,1994,"Cruisy Area,(AYOR)",Cruising Areas,checked,,,,6/24/2023 1:03pm
474,Community Real Estate Referrals ,General Coordinates Used,34.090009,-118.361744,(800)346-5592 gay realtor at your service,,West Hollywood,CA,1994,,Info Lines & Services,checked,,,,6/24/2023 3:20pm
485,Hollywood Boys' Club,Found,34.082553,-118.386339,(at Studio One) 9pm-2am Fri,,West Hollywood,CA,1994,"(D),(YC)",Bars,checked,,Studio One's address is 652 N. La Peer,,6/24/2023 3:21pm
535,Beverly Center ,Found,34.075171,-118.377355,(Queens for Days!),,West Hollywood,CA,1994,Cruisy Area,Cruising Areas,checked,,,,6/24/2023 3:20pm
231,Kenton Mine Lodge ,Found,39.455192,-120.859995,"P.O. Box 942, 95910 287-3212 rooms and cabins in the Sierra",,Alleghany,CA,1994,"(MW),(F)",Accommodations,checked,,,,6/24/2023 4:10pm
235,Atascadero Lake County Park ,Found,35.466515,-120.67034,nr. zoo,,Atascadero,CA,1994,Cruisy Area,Cruising Areas,checked,,,,6/24/2023 3:28pm
392,Ken Adam Park,Found,34.681196,-120.457963,,,Lompoc,CA,1994,"Cruisy Area,(AYOR)",Cruising Areas,checked,,,,6/24/2023 3:28pm
625,Legg Lake,Found,34.033319,-118.059225,N. end,,Montebello,CA,1994,"Cruisy Area,(AYOR)",Cruising Areas,checked,,,,6/24/2023 3:30pm
285,Park on Villa Ave. btwn. Barstow Ave. & Bullard Ave.,Found,36.818788,-119.714263,(days & early evenings),,Clovis,CA,1994,Cruisy Area,Cruising Areas,checked,,,,6/24/2023 3:40pm
284,Park at corner of Clovis Ave. & Sierra Ave. ,Found,36.829814,-119.700908,(days & early evenings),,Clovis,CA,1994,Cruisy Area,Cruising Areas,checked,,,,6/24/2023 3:38pm
330,Gay/Lesbian Hotline Orange County,General Coordinates Used,33.774269,-117.937995,"534-3261, 6:30-10:30pm, clsd wknds",,Garden Grove,CA,1994,,Info Lines & Services,checked,,,,6/24/2023 3:40pm
1248,"Billy Club, The",Found,39.150219,-123.209269,"462-2115 social group P.O. Box 381, 95482",,Ukiah,CA,1994,,Men's Clubs,checked,,,,6/24/2023 3:54pm
266,Grey Squirrel Resort ,Found,34.238718,-116.942969,"866-4335 cabins, rooms, one suite w/  jacuzzi, pets by arrangement ",,Big Bear,CA,1994,"(GF),(SW)",Accommodations,checked,,,,6/24/2023 4:24pm
267,Hillcrest Lodge ,Found,34.238887,-116.924216,"866-7330 cabins, condos & motel units",,Big Bear,CA,1994,(GF),Accommodations,checked,,,,6/24/2023 4:25pm
268,Holland Hues,General Coordinates Used,34.243896,-116.911421,(818)285-8904 2 bdrm cabin centrally located ,,Big Bear,CA,1994,(MW),Accommodations,checked,,,,6/24/2023 4:25pm
639,"Giant Redwoods RV & Camp, The",Found,40.262258,-123.877741,"P.O. Box 222, 95554 943-3198 on the Eel river",,Myers Flat,CA,1994,(GF),Accommodations,checked,,,,6/24/2023 4:26pm
354,Main St. & Pacific Coast Hwy. ,Found,33.657111,-118.002064,,,Huntington Beach,CA,1994,"Cruisy Area,(AYOR)",Cruising Areas,checked,,,,6/24/2023 4:29pm
353,Huntington Beach Pier,Found,33.655206,-118.004062,,,Huntington Beach,CA,1994,"Cruisy Area,(AYOR)",Cruising Areas,checked,,,,6/24/2023 4:28pm
617,Applegate Park ,Found,37.313099,-120.479231,"off ""M"" St. ",,Merced,CA,1994,"Cruisy Area,(AYOR)",Cruising Areas,checked,,,,6/24/2023 4:38pm
1173,San Gregorio Beach,Found,37.322999,-122.403308,1 mile N. of State Beach,,San Gregorio,CA,1994,Cruisy Area,Cruising Areas,checked,,,,6/24/2023 4:33pm
1253,Solano County Gay/Lesbian Info Line,Found,38.356917,-121.989332,448-1010,,Vacaville,CA,1994,,Info Lines & Services,checked,,,,6/24/2023 4:47pm
1254,Solano Lambda Men's Association,Found,38.356917,-121.989332,"(at Vacaville Book Co.) 7:30pm, 2nd & 4th Tues",,Vacaville,CA,1994,,Info Lines & Services,checked,,,,6/24/2023 4:47pm
1269,Mooney Grove Park ,Found,36.279922,-119.308948,"(days, AYOR)",,Visalia,CA,1994,"Cruisy Area,(AYOR)",Cruising Areas,checked,,,,6/24/2023 4:47pm
1268,Ave. 283,Found,36.30546,-119.364537,off Shirk Rd. by Fwy. 99 (nights),,Visalia,CA,1994,Cruisy Area,Cruising Areas,checked,,,,6/24/2023 4:53pm
1282,Eel River,General Coordinates Used,39.61714,-123.355957,"N. of town (warm summer days, AYOR)",,Willits,CA,1994,"Cruisy Area,(AYOR)",Cruising Areas,checked,,,,6/24/2023 4:58pm
1283,"Ahwahnee Hotel, The",Found,37.746154,-119.574336,"Yosemite Village 252-4848 incredibly dramatic, expensive grand fortress",,Yosemite National Park,CA,1994,,Accommodations,checked,,,,6/24/2023 4:36pm
1284,"""Rest Stop""",Found,37.652156,-119.702773,"at turn to Glacier Point on road to valley (days & early nights, AYOR)",,Yosemite National Park,CA,1994,"Cruisy Area,(AYOR)",Cruising Areas,checked,,,,6/24/2023 4:35pm
1244,Friends of Common Interest ,General Coordinates Used,33.493424,-117.148816,"674-2262, social group 8:30pm Wed & 7:30pm 2nd Tues (dinner), call for lcoations",,Temecula,CA,1994,,Info Lines & Services,checked,,,,6/24/2023 4:59pm
1285,Aspen Gay/Lesbian Community,General Coordinates Used,39.191098,-106.817539,"P.O. Box 3143, 81612 925-9249 resource & info service, outdoor activities, monthly events ",,Aspen,CO,1994,,Info Lines & Services,checked,,,,6/26/2023 9:12am
1289,Hyman St. Mall ,General Coordinates Used,39.191098,-106.817539,,,Aspen,CO,1994,Cruisy Area,Cruising Areas,checked,,,,6/26/2023 9:12am
1298,Chatauqua Park,Found,40.000082,-105.281954,,,Boulder,CO,1994,Cruisy Area,Cruising Areas,checked,,,,6/26/2023 9:13am
1291,Lesbian/Bisexual/Gay/ Community Alliance,Found,40.006728,-105.271484,"492-8567 events schedule, resource info",University of Colorado Boulder,Boulder,CO,1994,,Info Lines & Services,checked,,,,6/26/2023 9:16am
1296,Colorado Community Directory ,General Coordinates Used,40.014986,-105.270546,"P.O. Drawer 2270, 80306 443-7768 extensive statewide resources",,Boulder,CO,1994,,Publications,checked,,,,6/26/2023 9:14am
1290,Community Real Estate Referrals ,General Coordinates Used,40.014986,-105.270546,(800)346-5592 gay realtor at your service,,Boulder,CO,1994,,Info Lines & Services,checked,,,,6/26/2023 9:14am
1293,Marquee ,General Coordinates Used,40.014986,-105.270546,"447-1803 7pm-2am, clsd Mon",,Boulder,CO,1994,"(GF),(D),(A)",Bars,checked,,,,6/26/2023 9:16am
1299,Bunk House,Found,39.52572,-106.046361,"P.O. Box 6, 80424 453-6475 ski resort, rustic, full brkfst, hot tub, also Mountain House, 4-6 person cabin ",,Breckenridge,CO,1994,,Accommodations,checked,,,,6/26/2023 9:19am
1302,Pikes Peak Paradise ,Found,38.982237,-105.101206,"687-6656/(800)728-8282 elegant, great views, full brkfst ",,Colorado Springs,CO,1994,(GF),Accommodations,checked,,,,6/26/2023 9:21am
1308,Monument Valley Park ,Found,38.845493,-104.828681,,,Colorado Springs,CO,1994,Cruisy Area,Cruising Areas,checked,,,,6/26/2023 9:20am
1300,Community Real Estate Referrals ,General Coordinates Used,38.833882,-104.821363,(800)346-5592 gay realtor at your service ,,Colorado Springs,CO,1994,,Info Lines & Services,checked,,,,6/26/2023 9:19am
1301,Gay/Lesbian Helpline ,General Coordinates Used,38.833882,-104.821363,"P.O. Box 574, 80901 471-4429, 6pm-9pm ",,Colorado Springs,CO,1994,,Info Lines & Services,checked,,,,6/26/2023 9:20am
1310,African-American Gay Men's Group ,General Coordinates Used,39.739236,-104.990251,(at Gay/Lesbian Community Center) 837-1598,,Denver,CO,1994,,Info Lines & Services,checked,,"Center's address is 1245 E. Colfax Ave., Ste. 125",,6/26/2023 9:26am
1368,The Point ,Found,39.786541,-105.055011,NW of I-70 & Sheridan Rd.,,Denver,CO,1994,"Cruisy Area,(AYOR)",Cruising Areas,checked,,,,6/26/2023 9:30am
1317,Mile Hi B&B ,General Coordinates Used,39.739236,-104.990251,329-7827 ,,Denver,CO,1994,"(MW),(SW)",Accommodations,checked,,,,6/26/2023 9:29am
1367,Cheesman Park ,Found,39.733468,-104.964417,nr. pavillion,,Denver,CO,1994,"Cruisy Area,(AYOR)",Cruising Areas,checked,,,,6/26/2023 9:28am
1311,Asian Gay/Lesbian Alliance,General Coordinates Used,39.739236,-104.990251,499-6769,,Denver,CO,1994,,Info Lines & Services,checked,,,,6/26/2023 9:26am
1312,Community Real Estate Referrals ,General Coordinates Used,39.747363,-105.108354,"(800)346-5592, gay realtor at your service",,Denver,CO,1994,,Info Lines & Services,checked,,,,6/26/2023 9:28am
1313,"Gay Connection, The",General Coordinates Used,39.739236,-104.990251,"(900)346-MEET and/or talk with other men from the area, at only 99¢ per minute",,Denver,CO,1994,,Info Lines & Services,checked,,,,6/26/2023 9:29am
1370,Timber Ridge 200,General Coordinates Used,39.630264,-106.043352,938-8908 condo real ,,Dillon,CO,1994,"(GF),(SW)",Accommodations,checked,,,,6/26/2023 9:35am
1369,Tanrydoon ,General Coordinates Used,39.601363,-105.89621,"P.O. Box 138-C, Montezuma Rte. 468-1956 exclusively gay B&B",,Dillon,CO,1994,,Accommodations,checked,,,,6/26/2023 9:35am
1373,Narrow Gauge Tram Station,General Coordinates Used,37.27528,-107.880067,,,Durango,CO,1994,"Cruisy Area,(AYOR)",Cruising Areas,checked,,,,6/26/2023 9:56am
1372,Main Mall ,Found,37.272956,-107.881675,"(days, AYOR)",,Durango,CO,1994,"Cruisy Area,(AYOR)",Cruising Areas,checked,,,,6/26/2023 9:56am
1375,Gay/Lesbian Alliance ,General Coordinates Used,40.58526,-105.084423,"Lory Student Ctr., CSU Box 206, 80523 491-7232",,Fort Collins,CO,1994,,Info Lines & Services,checked,,,,6/26/2023 9:57am
1379,Hawthorne & Lincoln Parks,Found,39.075019,-108.544832,(clsd midnight),,Grand Junction,CO,1994,"Cruisy Area,(AYOR)",Cruising Areas,checked,,,,6/26/2023 9:58am
1381,Island Grove Park ,Found,40.438617,-104.702579,,,Greeley,CO,1994,"Cruisy Area,(AYOR)",Cruising Areas,checked,,,,6/26/2023 10:00am
1380,Gay/Lesbian Group Service ,Found,40.40627,-104.69446,(U of Northern Colorado) 351-2065 leave msg. for referrals ,,Greeley,CO,1994,,Info Lines & Services,checked,,,,6/26/2023 9:59am
1384,Mineral Palace Park ,Found,38.28112,-104.607067,,,Pueblo,CO,1994,"Cruisy Area,(AYOR)",Cruising Areas,checked,,,,6/26/2023 10:00am
1387,Express Vail Adventures ,General Coordinates Used,39.643324,-106.37808,524-7684/(800)572-8850,,Vail,CO,1994,,Travel/Tour Operators,checked,,,,6/26/2023 10:02am
1389,Dougal's ,Found,39.919148,-105.789557,"(at Silverado II) 726-8732 5pm-10pm, full bar ",,Winter Park,CO,1994,"(GF),(WC)",Restaurants & Cafes,checked,,Silverado II's address is 490 Kings Crossing Rd. ,,6/26/2023 10:03am
1385,Elk River Estates,General Coordinates Used,40.484977,-106.831716,"879-7556 B&B, ski resort",,Steamboat Springs,CO,1994,"(GF),(F)",Accommodations,checked,,,,6/26/2023 10:05am
1374,Sundance Cottages ,General Coordinates Used,40.36249,-105.563283,586-3922 ,,Estes Park,CO,1994,"(GF),(WC)",Accommodations,checked,,,,6/26/2023 10:06am
1394,Main St.,General Coordinates Used,41.198022,-73.201272,nr. downtown ,,Bridgeport,CT,1994,"Cruisy Area,(H),(AYOR)",Cruising Areas,checked,,,,6/26/2023 10:54am
1402,Hammonasset State Beach ,Found,41.266698,-72.558421,,,Hammonasset,CT,1994,"Cruisy Area,(AYOR)",Cruising Areas,checked,,,,6/26/2023 10:54am
1420,Constitution Plaza,Found,41.766818,-72.67035,,,Hartford,CT,1994,"Cruisy Area,(AYOR)",Cruising Areas,checked,,,,6/26/2023 10:56am
1406,Men of All Colors Together (MACT/CT),General Coordinates Used,41.763964,-72.667475,"P.O. Box 2735, 06146 346-0199",,Hartford,CT,1994,,Info Lines & Services,checked,,,,6/26/2023 10:56am
1407,XX Club,General Coordinates Used,41.763964,-72.667475,"P.O. Box 387, 06141 transsexual support group",,Hartford,CT,1994,,Info Lines & Services,checked,,,,6/26/2023 10:57am
1403,AA Gay/Lesbian ,General Coordinates Used,41.763964,-72.667475,(see listings in Metroline),,Hartford,CT,1994,,Info Lines & Services,checked,,,,6/26/2023 10:54am
1421,"""The Dikes""",General Coordinates Used,41.763964,-72.667475,"E. to W. Service Rd. off I-91 N., Riverside Park",,Hartford,CT,1994,"Cruisy Area,(AYOR)",Cruising Areas,checked,,,,6/26/2023 10:54am
1405,Gay/Lesbian Guide Line,General Coordinates Used,41.763964,-72.667475,"327-0767 support, info, referrals, 7-10pm Tues & Th",,Hartford,CT,1994,,Info Lines & Services,checked,,,,6/26/2023 10:56am
1404,Community Real Estate Referrals ,General Coordinates Used,41.763964,-72.667475,"(800)346-5592, gay realtor at your service",,Hartford,CT,1994,,Info Lines & Services,checked,,,,6/26/2023 10:56am
1424,Hubbard Park,Found,41.548248,-72.836131,,,Meriden,CT,1994,"Cruisy Area,(AYOR)",Cruising Areas,checked,,,,6/26/2023 10:57am
1425,Milford Country News,General Coordinates Used,41.230698,-73.064036,Rte. 1,,Milford,CT,1994,Cruisy Area,Cruising Areas,checked,,,,6/26/2023 10:57am
1435,Long Wharf Dr.,General Coordinates Used,41.292634,-72.919248,parking lot ,,New Haven,CT,1994,"Cruisy Area,(AYOR)",Cruising Areas,checked,,,,6/26/2023 10:59am
1436,Yale U.,Found,41.311348,-72.926061,Woolsey Hall & Library ,,New Haven,CT,1994,"Cruisy Area,(AYOR)",Cruising Areas,checked,,,,6/26/2023 10:59am
1427,Community Real Estate Referrals ,General Coordinates Used,41.308274,-72.927883,"(800)346-5592, gay realtor at your service ",,New Haven,CT,1994,,Info Lines & Services,checked,,,,6/26/2023 10:58am
1437,New London People's Forum Affirming Lesbian & Gay Identity,General Coordinates Used,41.355654,-72.099521,"443-8855 7:30pm Wed, social support group",,New London,CT,1994,,Info Lines & Services,checked,,,,6/26/2023 11:00am
1439,Ocean Park Beach,Found,41.309373,-72.098616,nr. boardwalk ,,New London,CT,1994,"Cruisy Area,(AYOR)",Cruising Areas,checked,,,,6/26/2023 11:00am
1440,Lynn Deming Park ,Found,41.569962,-73.44031,,,New Milford,CT,1994,"Cruisy Area,(AYOR)",Cruising Areas,checked,,,,6/26/2023 11:01am
1450,Cove Island Beach,Found,41.04695,-73.505113,,,Stamford,CT,1994,Cruisy Area,Cruising Areas,checked,,,,6/26/2023 11:03am
1449,Gay/Lesbian Guide Line,General Coordinates Used,41.05343,-73.538734,"327-0767, 7pm-10pm Tu & Th, counseling & referral ",,Stamford,CT,1994,,Info Lines & Services,checked,,,,6/26/2023 11:03am
1454,Lakewood Ponds,Found,41.578213,-73.024696,,,Waterbury,CT,1994,Cruisy Area,Cruising Areas,checked,,,,6/26/2023 11:04am
1456,Sherwood Isle State Park,Found,41.116614,-73.332136,"E. beach, far end, I-95 exit 18 (Summers, AYOR)",,Westport,CT,1994,"Cruisy Area,(AYOR)",Cruising Areas,checked,,,,6/26/2023 11:05am
1395,Gay/Lesbian Helplines ,General Coordinates Used,41.394817,-73.454011,"354-5170, answering service, live some weekday nights",,Danbury,CT,1994,Cruisy Area,Info Lines & Services,checked,,,,6/26/2023 11:06am
1398,"Oldtown, Dikes Pt. Park ",Found,41.532809,-73.437608,E. side of Lake Candlewood,,Danbury,CT,1994,"Cruisy Area,(AYOR)",Cruising Areas,checked,,,,6/26/2023 11:06am
1446,Frog Rock ,General Coordinates Used,41.897598,-71.962574,,,Pomfret,CT,1994,"Cruisy Area,(AYOR)",Cruising Areas,checked,,,,6/26/2023 11:09am
1441,Gay Men's Group of Fairfield County ,General Coordinates Used,41.117744,-73.408157,"(at Triangle Ctr.) 846-4905 7:30pm, 3rd Tues. social/support",,Norwalk,CT,1994,,Info Lines & Services,checked,,Triangle Center's address is 37 North Ave.,,6/26/2023 11:10am
1451,Bisexual/Gay/Lesbian Association,General Coordinates Used,41.806297,-72.254578,"Box U-8, 2110 Hillside Rd., U of CT, 06268 486-3679",,Storrs,CT,1994,,Info Lines & Services,checked,,,,6/26/2023 11:11am
1461,Nomad Village,General Coordinates Used,38.584001,-75.060736,"Box 1, Rte. 1, 3mi. N. in Tower Shores 539-7581",,Bethany Beach,DE,1994,"(MW),(NH)",Bars,checked,,,,6/26/2023 5:17pm
1460,Community Real Estate Referrals ,General Coordinates Used,38.539556,-75.055181,"(800)346-5592, gay realtor at your service ",,Bethany Beach,DE,1994,,Info Lines & Services,checked,,,,6/26/2023 5:16pm
1463,Community Real Estate Referrals ,General Coordinates Used,39.158168,-75.524368,"(800)346-5592, gay realtor at your service ",,Dover,DE,1994,,Info Lines & Services,checked,,,,6/26/2023 5:18pm
1486,Poodle Beach ,Found,38.708156,-75.07496,S. part of Boardwalk ,,Rehoboth Beach,DE,1994,Cruisy Area,Cruising Areas,checked,,,,6/26/2023 5:34pm
1484,Cape Henlopen State Park Beach,Found,38.707959,-75.075173,,,Rehoboth Beach,DE,1994,Cruisy Area,Cruising Areas,checked,,,,6/26/2023 5:33pm
1472,Sand in My Shoes,Found,38.712318,-75.092385,226-2006 ,Canal & 6th St.,Rehoboth Beach,DE,1994,(MW),Accommodations,checked,,,,6/26/2023 5:36pm
1469,Rams Head Inn,Found,38.71905,-75.134699,"Rd. 2, Box 509 226-9171 B&B, gym, hot tub, game room w/bar ",,Rehoboth Beach,DE,1994,"(SW),(N),(BYOB)",Accommodations,checked,,,,6/26/2023 5:35pm
1485,Carpenter's Beach,Found,38.707959,-75.075173,below S. end of Boardwalk at foot of Queen St.,,Rehoboth Beach,DE,1994,Cruisy Area,Cruising Areas,checked,,,,6/26/2023 5:33pm
1496,8th St.,Found,39.743921,-75.550549,btwn. Shipley & Tetnell,,Wilmington,DE,1994,Cruisy Area,Cruising Areas,checked,,,,6/26/2023 5:42pm
1487,Community Real Estate Referrals,General Coordinates Used,39.744655,-75.548391,"(800)346-5592, gay realtor at your service",,Wilmington,DE,1994,,Info Lines & Services,checked,,,,6/26/2023 5:42pm
1497,Brandywine Park,Found,39.758685,-75.552416,footbridge & woods,,Wilmington,DE,1994,"Cruisy Area,(AYOR)",Cruising Areas,checked,,,,6/26/2023 5:42pm
1501,Gay/Lesbian Hotline,General Coordinates Used,38.907192,-77.036871,"833-3234, 7pm-11pm",,Washington,DC,1994,,Info Lines & Services,checked,,,,6/26/2023 6:00pm
1517,Bachelors Mill,Found,38.877242,-76.994699,"(downstairs in Back Door Pub) 544-1931 8pm-?, til5am Fri & Sat",,Washington,DC,1994,"(MW),(D),(MRC-AF),(S),(WC)",Bars,checked,,Backdoor's address is 1104 8th St. SE,,6/26/2023 5:56pm
1555,Christopher Travel,General Coordinates Used,38.907192,-77.036871,(703)750-1014/(800)466-4014,,Washington,DC,1994,(IGTA),Travel/Tour Operators,checked,,,,6/26/2023 5:59pm
1568,"""P"" St. Beach",Found,38.908914,-77.049708,"23rd St. & ""P"" St.",,Washington,DC,1994,"Cruisy Area,(AYOR)",Cruising Areas,checked,,,,6/26/2023 5:50pm
1569,"""The Block""",Found,38.90808,-77.060203,"30th to 31st btwn. ""O"" & Dumbarton, in Georgetown  (Late)",,Washington,DC,1994,Cruisy Area,Cruising Areas,checked,,,,6/26/2023 5:51pm
1567,Hustler Square,Found,38.901144,-77.027657,"bordered by N.Y. Ave, 12th, 11th & ""I"" Sts. ",,Washington,DC,1994,"Cruisy Area,(AYOR)",Cruising Areas,checked,,,,6/26/2023 6:03pm
1516,"Annex, The",Found,38.909094,-77.048576,"(upstairs at Badlands) 296-0505 9pm-2am Th-Sat, from 4pm Sun",,Washington,DC,1994,"(*),(CW),(V)",Bars,checked,,Badland's address is 1415 22nd St. NW,,6/26/2023 5:56pm
1502,Gay/Lesbian Switchboard ,General Coordinates Used,38.907192,-77.036871,"628-4667, TDD 628-4669",,Washington,DC,1994,,Info Lines & Services,checked,,,,6/26/2023 6:01pm
1503,Hola Gay ,General Coordinates Used,38.907192,-77.036871,"332-2192 7pm-11pm Th, Spanish speaking hotline",,Washington,DC,1994,,Info Lines & Services,checked,,,,6/26/2023 6:02pm
1498,AA Gay/Lesbian,General Coordinates Used,38.907192,-77.036871,797-3580 substance abuse info,,Washington,DC,1994,,Info Lines & Services,checked,,,,6/26/2023 5:51pm
1499,BiCentrist Alliance,General Coordinates Used,38.907192,-77.036871,828-3065 national bisexual organization,,Washington,DC,1994,,Info Lines & Services,checked,,,,6/26/2023 5:58pm
1504,Lesbian/Gay Youth Hotline,General Coordinates Used,38.907192,-77.036871,"546-5911, for youth under 21",,Washington,DC,1994,,Info Lines & Services,checked,,,,6/26/2023 6:04pm
1566,Beach Dr.,General Coordinates Used,38.983817,-77.044984,in Rock Creek Park aboce 16th St.,,Washington,DC,1994,"Cruisy Area,(AYOR)",Cruising Areas,checked,,,,6/26/2023 5:58pm
1500,Community Real Estate Referrals,General Coordinates Used,38.907192,-77.036871,"(800)346-5592, gay realtor at your service",,Washington,DC,1994,,Info Lines & Services,checked,,,,6/26/2023 5:59pm
1573,Spanish River Park,Found,26.383382,-80.114047,,,Boca Raton,FL,1994,"Cruisy Area,(AYOR)",Cruising Areas,checked,,,,6/26/2023 6:10pm
1570,Community Real Estate Referral,General Coordinates Used,26.352306,-80.084329,(800)346-5592 gay realtor at your service,,Boca Raton,FL,1994,,Info Lines & Services,checked,,,,6/26/2023 6:09pm
1575,Coquina Beach,Found,27.448333,-82.692163,,,Bradenton,FL,1994,Cruisy Area,Cruising Areas,checked,,,,6/26/2023 6:10pm
1576,Jetty Park & Beach,General Coordinates Used,28.392218,-80.607713,"(days, AYOR)",,Cape Canaveral,FL,1994,"Cruisy Area,(AYOR)",Cruising Areas,checked,,,,6/26/2023 6:10pm
1580,Parking lots,General Coordinates Used,27.965853,-82.800103,on Pierce St. nr. Ft. Harrison ,,Clearwater,FL,1994,Cruisy Area,Cruising Areas,checked,,,,6/26/2023 6:12pm
1577,Community Real Estate Referrals,General Coordinates Used,27.965853,-82.800103,(800)346-5592 gay realtor at your service,,Clearwater,FL,1994,,Info Lines & Services,checked,,,,6/26/2023 6:10pm
1578,Gay/Lesbian Referral Service of Pinellas County,General Coordinates Used,27.965853,-82.800103,"586-4297, 7pm-11pm",,Clearwater,FL,1994,,Info Lines & Services,checked,,,,6/26/2023 6:12pm
1581,Florida Residential Referral Information,General Coordinates Used,28.320007,-80.607551,"(800)653-3199 contact Rich Kennedy, a Coldwell Bank Realtor",,Cocoa Beach,FL,1994,,Info Lines & Services,checked,,,,6/26/2023 6:13pm
1585,Lori Wilson Park,Found,28.337142,-80.609485,,,Cocoa Beach,FL,1994,"Cruisy Area,(AYOR)",Cruising Areas,checked,,,,6/26/2023 6:13pm
1589,Community Real Estate Referrals,General Coordinates Used,29.210815,-81.022833,(800)346-5592 gay realtor at your service,,Daytona Beach,FL,1994,,Info Lines & Services,checked,,,,6/26/2023 6:14pm
1598,Boardwalk & beach,Found,29.224086,-81.00469,in front of sightseeing tower & by bandshell ,,Daytona Beach,FL,1994,"Cruisy Area,(AYOR)",Cruising Areas,checked,,,,6/26/2023 6:13pm
1612,Club Unicorn,General Coordinates Used,26.122439,-80.137317,563-0449 call for details,,Ft. Lauderdale,FL,1994,"(MW),(SW)",Accommodations,checked,,,,6/28/2023 4:04pm
1605,Florida Residential Referrals Information,General Coordinates Used,26.122439,-80.137317,"(800)653-3199 contact Rich Kennedy, a Coldwell Bank Realtor",,Ft. Lauderdale,FL,1994,,Info Lines & Services,checked,,,,6/28/2023 4:05pm
1606,Greater Ft. Lauderdale Gay Business Assoc.,General Coordinates Used,26.122439,-80.137317,"P.O. Box 7341-A, 33338",,Ft. Lauderdale,FL,1994,,Info Lines & Services,checked,,,,6/28/2023 4:05pm
1602,Broward County Gay Hotline,General Coordinates Used,26.122439,-80.137317,"537-0823, 24hr msg. center w/ comprehensive listings & referrals ",,Ft. Lauderdale,FL,1994,,Info Lines & Services,checked,,,,6/28/2023 4:01pm
1604,Community Real Estate ,General Coordinates Used,26.122439,-80.137317,"(800)346-5592, gay realtor at your service",,Ft. Lauderdale,FL,1994,,Info Lines & Services,checked,,,,6/28/2023 4:04pm
1658,Community Real Estate Referrals,General Coordinates Used,26.640628,-81.872308,(800)346-5592 gay realtor at your service,,Ft. Myers,FL,1994,,Info Lines & Services,checked,,,,6/26/2023 6:18pm
1670,Sunset Park ,Found,26.622007,-81.875702,,,Ft. Myers,FL,1994,"Cruisy Area,(AYOR)",Cruising Areas,checked,,,,6/26/2023 6:19pm
1669,Support Line,General Coordinates Used,26.640628,-81.872308,"P.O. Box 546, 33902 275-1400",,Ft. Myers,FL,1994,,Publications,checked,,,,6/26/2023 6:19pm
1661,Support Inc.,General Coordinates Used,26.640628,-81.872308,"P.O. Box 546, 33902 275-1400 gay switchboard, 8am-11pm ",,Ft. Myers,FL,1994,,Info Lines & Services,checked,,,,6/26/2023 6:19pm
1660,Lambda Drummers (Gay AA),General Coordinates Used,26.640628,-81.872308,"997-1733, 8:15pm Sat & Tues, 6pm Sun men's group",,Ft. Myers,FL,1994,,Info Lines & Services,checked,,,,6/26/2023 6:19pm
1659,Florida Residential Referral Information,General Coordinates Used,26.640628,-81.872308,"(800)653-3199 contact Rich Kennedy, a Coldwell Bank Realtor",,Ft. Myers,FL,1994,,Info Lines & Services,checked,,,,6/26/2023 6:18pm
1672,Lincoln Park,Found,30.507764,-86.487967,(Valpariso),,Ft. Walton Beach,FL,1994,Cruisy Area,Cruising Areas,checked,,,,6/26/2023 6:21pm
1671,Jaycee Park,Found,26.573736,-81.932036,,,Ft. Walton Beach,FL,1994,"Cruisy Area,(AYOR)",Cruising Areas,checked,,,,6/26/2023 6:19pm
1674,Wayside Park,Found,30.393574,-86.590793,U.S. 98 at Okaloosa (Late),,Ft. Walton Beach,FL,1994,Cruisy Area,Cruising Areas,checked,,,,6/26/2023 6:19pm
1673,Racetrack Road,General Coordinates Used,30.449391,-86.626866,"(Summers, Hitchhikers)",,Ft. Walton Beach,FL,1994,Cruisy Area,Cruising Areas,checked,,,,6/26/2023 6:21pm
1677,Gay Switchboard ,General Coordinates Used,29.651634,-82.324826,"332-0700, 24hrs, info & referrals, volunteers 6pm-11pm ",,Gainesville,FL,1994,,Info Lines & Services,checked,,,,6/26/2023 6:22pm
1675,Community Real Estate Referrals ,General Coordinates Used,29.651634,-82.324826,(800)346-5592 gay realtor at your service,,Gainesville,FL,1994,,Info Lines & Services,checked,,,,6/26/2023 6:22pm
1681,Newnan's Lake,Found,29.666388,-82.25511,,,Gainesville,FL,1994,"Cruisy Area,(AYOR)",Cruising Areas,checked,,,,6/26/2023 6:22pm
1678,Ambush Room,General Coordinates Used,29.651634,-82.324826,(at Melody Club) 376-3772 4pm-2am,,Gainesville,FL,1994,"(*),(D),(CW)",Bars,checked,,Melody Club's address is 4130 NW 6th St.,,6/26/2023 6:22pm
1676,Gay AA,General Coordinates Used,29.651634,-82.324826,"332-0700, 8pm Sun",,Gainesville,FL,1994,,Info Lines & Services,checked,,,,6/26/2023 6:22pm
1682,Park at NE 16th Ave/Main St.,Found,29.666594,-82.32444,(days),,Gainesville,FL,1994,Cruisy Area,Cruising Areas,checked,,,,6/26/2023 6:23pm
1690,Young Circle,Found,26.01154,-80.143033,,,Hollywood,FL,1994,"Cruisy Area,(AYOR)",Cruising Areas,checked,,,,6/26/2023 6:23pm
1691,Community Real Estate Referrals,General Coordinates Used,30.332184,-81.655651 ,(800)346-5592 gay realtor at your service,,Jacksonville,FL,1994,,Info Lines & Services,checked,,,,6/26/2023 6:24pm
1692,Lesbian/Gay Community Assoc.,General Coordinates Used,30.332184,-81.655651 ,389-1572 touchtone community database for NE Florida,,Jacksonville,FL,1994,,Info Lines & Services,checked,,,,6/26/2023 6:25pm
1702,5th Ave. Beach and S. to Boardwalk,General Coordinates Used,30.282958,-81.394154,,,Jacksonville Beach,FL,1994,"Cruisy Area,(AYOR)",Cruising Areas,checked,,,,6/26/2023 6:28pm
1703,Community Real Estate Referrals,General Coordinates Used,24.555059,-81.779987,(800)346-5592 gay realtor at your service,,Key West,FL,1994,,Info Lines & Services,checked,,,,6/26/2023 6:32pm
1787,"""Dick Dock""",Found,24.547154,-81.788282,pier at end of Reynold St.,,Key West,FL,1994,"Cruisy Area,(AYOR)",Cruising Areas,checked,,,,6/26/2023 6:29pm
1756,B.O.'s Fish Wagon,Found,24.555992,-81.802934,294-9272 seafood and eat it,corner of Duval & Fleming Sts.,Key West,FL,1994,"(*),(GF)",Restaurants & Cafes,checked,,,,6/26/2023 6:30pm
1707,Key West Business Guild,Found,24.552568,-81.800562,"P.O. Box 1208, 33041 294-4603",,Key West,FL,1994,(IGTA),Info Lines & Services,checked,,,,6/26/2023 6:34pm
1782,Starbuck Sailing Tours,General Coordinates Used,24.555418,-81.784172,296-7134 variety of cruises,,Key West,FL,1994,,Travel/Tour Operators,checked,,,,6/26/2023 6:35pm
1778,Clione ,General Coordinates Used,24.555059,-81.779987,"P.O. Box 1874, 33040 296-1433 topsail schooner",,Key West,FL,1994,,Travel/Tour Operators,checked,,,,6/26/2023 6:32pm
1704,Florida Residential Referral Information,General Coordinates Used,24.555059,-81.779987,"(800)653-3199 contact Rich Kennedy, a Coldwell Bank Realtor",,Key West,FL,1994,,Info Lines & Services,checked,,,,6/26/2023 6:33pm
1706,Helpline,General Coordinates Used,24.555059,-81.779987,296-4357 gay-friendly general crisis assistance & referrals,,Key West,FL,1994,,Info Lines & Services,checked,,,,6/26/2023 6:34pm
1780,International Gay Travel Assoc.,General Coordinates Used,24.555059,-81.779987,"P.O. Box 4974, 33041 292-0217/(800)448-8550",,Key West,FL,1994,(IGTA),Travel/Tour Operators,checked,,,,6/26/2023 6:34pm
1709,Andrew's Inn,Found,24.551231,-81.80012,294-7730 elegantly restored rooms & garden cottages,Zero Whalton Ln.,Key West,FL,1994,"(*),(MW)",Accommodations,checked,,,,6/26/2023 6:30pm
1788,Duval St.,Found,24.553851,-81.801316,(Queens for days!),,Key West,FL,1994,Cruisy Area,Cruising Areas,checked,,,,6/26/2023 6:33pm
1789,Fleming St.,General Coordinates Used,24.555059,-81.779987,(Queens for nights!),,Key West,FL,1994,Cruisy Area,Cruising Areas,checked,,,,6/26/2023 6:33pm
1790,Ft. Zachary Taylor Beach ,Found,24.555418,-81.784172,,,Key West,FL,1994,Cruisy Area,Cruising Areas,checked,,,,6/26/2023 6:34pm
1791,Polk Gay/Lesbian Info & Referral Lines,General Coordinates Used,28.039465,-81.949804,682-4652 ,,Lakeland,FL,1994,,Info Lines & Services,checked,,,,6/26/2023 6:36pm
1798,Community Real Estate Referrals ,General Coordinates Used,27.798081,-82.797325,(800)346-5592 gay realtor at your service,,Madeira Beach,FL,1994,,Info Lines & Services,checked,,,,6/26/2023 6:36pm
1802,Melbourne Harbor Marina,Found,28.078221,-80.600536,,,Melbourne,FL,1994,"Cruisy Area,(AYOR)",Cruising Areas,checked,,,,6/26/2023 6:37pm
1801,Canova Beach,Found,28.138409,-80.580189,"(Nights, AYOR)",,Melbourne,FL,1994,"Cruisy Area,(AYOR)",Cruising Areas,checked,,,,6/26/2023 6:36pm
1805,Community Real Estate Referrals ,General Coordinates Used,25.735525,-80.237719,(800)346-5592 gay realtor at your service,,Miami,FL,1994,,Info Lines & Services,checked,,,,6/27/2023 9:00am
1806,"Gay Connection, The",General Coordinates Used,25.735525,-80.237719,(900) 287-MEET talk and/or meet with other men from the area at only 99¢ per minute,,Miami,FL,1994,,Info Lines & Services,checked,,,,6/27/2023 9:01am
1804,Associates ,General Coordinates Used,25.76168,-80.19179,"P.O. Box 472382, 33247-2382 696--3885 social/support group for gay African-Americans, 3rd Sat",,Miami,FL,1994,,Info Lines & Services,checked,,,,6/27/2023 8:58am
1836,Bearcut Beach,Found,25.731489,-80.157269,,,Miami,FL,1994,Cruisy Area,Cruising Areas,checked,,,,6/27/2023 8:58am
1838,Matheson Hammock Beach,Found,25.679228,-80.256602,on Old Cutler Rd.,,Miami,FL,1994,Cruisy Area,Cruising Areas,checked,,,,6/27/2023 9:02am
1839,Ocean Drive,General Coordinates Used,25.768517,-80.133206,btwn. 5th & 15th St,,Miami,FL,1994,Cruisy Area,Cruising Areas,checked,,,,6/27/2023 9:12am
1837,Biscayne Blvd.,General Coordinates Used,25.76168,-80.19179,"""Hitchhikers""",,Miami,FL,1994,Cruisy Area,Cruising Areas,checked,,,,6/27/2023 8:58am
1807,Gay/Lesbian Community Hotline of Greater Miami ,General Coordinates Used,25.735525,-80.237719,759-3661 ,,Miami,FL,1994,,Info Lines & Services,checked,,,,6/27/2023 9:01am
1840,Community Real Estate Referrals,General Coordinates Used,26.142036,-81.79481 ,(800)346-5592 gay realtor at your service,,Naples,FL,1994,,Info Lines & Services,checked,,,,6/27/2023 9:14am
1844,Lowdermilk Park,Found,26.162054,-81.809978,,,Naples,FL,1994,"Cruisy Area,(AYOR)",Cruising Areas,checked,,,,6/27/2023 9:15am
1845,Vanderbilt Beach ,Found,26.263907,-81.824499,S. of the Ritz,,Naples,FL,1994,Cruisy Area,Cruising Areas,checked,,,,6/27/2023 9:15am
1841,Gay AA,General Coordinates Used,26.142036,-81.79481 ,566-8750 8pm Tues & Th,,Naples,FL,1994,,Info Lines & Services,checked,,,,6/27/2023 9:15am
1865,Loading Dock ,Found,28.507431,-81.397649,(at The Complex) 841-8339 noon-2am ,,Orlando,FL,1994,,Bars,checked,,Complex's address is 3400 S. Orange Blossom Trail,,6/27/2023 9:28am
1854,Gay/Lesbian Community Services,General Coordinates Used,28.538383,-81.378927,"843-4297 touchtone helpline 24hrs, extensive referrals ",,Orlando,FL,1994,,Info Lines & Services,checked,,,,6/27/2023 9:27am
1876,Blue Parrot Art Deco Shop,Found,28.547912,-81.397649,"(at Parliament House) 425-7571, 10pm-2am",,Orlando,FL,1994,,Bookstores/Retail Shops,checked,,Parliament's address is 410 N. Orange Blossom Trail ,,6/27/2023 9:22am
1880,Midnight News,Found,28.547912,-81.397649,(at Parliament House) 425-7571,,Orlando,FL,1994,,Erotica,checked,,Parliament's address is 410 N. Orange Blossom Trail ,,6/27/2023 9:37am
1851,Florida Residential Referral Information,General Coordinates Used,28.538336,-81.379236,"(800)653-3199 contact Rich Kennedy, Realtor Coldwell Banker",,Orlando,FL,1994,,Info Lines & Services,checked,,,,6/27/2023 9:25am
1869,Power House Disco ,Found,28.547912,-81.397649,(at Parliament House) 425-7571 8pm-2am,,Orlando,FL,1994,"(*),(D),(E),(YC)",Bars,checked,,Parliament's address is 410 N. Orange Blossom Trail ,,6/27/2023 9:37am
1872,Dug Out Diner,Found,28.547912,-81.397649,(at Parliament House) 425-7571 ext. 711 24hrs,,Orlando,FL,1994,(MW),Restaurants & Cafes,checked,,Parliament's address is 410 N. Orange Blossom Trail ,,6/27/2023 9:23am
1867,Orlando Eagle,Found,28.507431,-81.397649,(at The Complex) 843-6334 4pm-2am,,Orlando,FL,1994,(L),Bars,checked,,Complex's address is 3400 S. Orange Blossom Trail,,6/27/2023 9:37am
1871,Stable,Found,28.547912,-81.397649,(at Parliament House) 6pm-2am,,Orlando,FL,1994,(CW),Bars,checked,,Parliament's address is 410 N. Orange Blossom Trail ,,6/27/2023 9:38am
1859,City Lights Cabaret ,Found,28.507431,-81.397649,(at The Complex) 422-6826 noon-2am,,Orlando,FL,1994,"(*),(MW),(D),(S)",Bars,checked,,Complex's address is 3400 S. Orange Blossom Trail,,6/27/2023 9:22am
1874,New Image Fitness Center,Found,28.507431,-81.397649,(at The Complex) 420-9890 24hrs,,Orlando,FL,1994,(PC),Gyms & Health Clubs,checked,,Complex's address is 3400 S. Orange Blossom Trail,,6/27/2023 9:37am
1852,"Gay Connection, The",General Coordinates Used,28.538383,-81.378927,"(900)38-MATCH talk and/or meet with other men from the area, at only 99¢ per minute",,Orlando,FL,1994,,Info Lines & Services,checked,,,,6/27/2023 9:27am
1879,Absolute Leather,Found,28.507431,-81.397649,(at The Complex) 843-8168,,Orlando,FL,1994,,Erotica,checked,,Complex's address is 3400 S. Orange Blossom Trail,,6/27/2023 9:20am
1885,Phillip's Inlet County Beach ,General Coordinates Used,30.176591,-85.805488,1/2 mi. W. of Ramsgate Harbor,,Panama City,FL,1994,Cruisy Area,Cruising Areas,checked,,,,6/27/2023 9:39am
1886,Roadside Park ,Found,30.951982,-87.095772,nr. Tyndall A.F.B.,,Panama City,FL,1994,Cruisy Area,Cruising Areas,checked,,,,6/27/2023 9:39am
1896,Gay Dunes Beach ,General Coordinates Used,30.421309,-87.216915,"Rt. 399 2 mi E. of Gulf Island sign, towards Navarre Beach ",,Pensacola,FL,1994,Cruisy Area,Cruising Areas,checked,,,,6/27/2023 9:40am
1895,Beach on Santa Rosa Island ,General Coordinates Used,30.421309,-87.216915,Ft. Picken's Beach ,,Pensacola,FL,1994,"Cruisy Area,(N),(AYOR)",Cruising Areas,checked,,,,6/27/2023 9:40am
1888,Connections ,General Coordinates Used,30.421309,-87.216915,"438-1992 1pm-5am, clsd Mon & Tues",Palafox & Intendencia ,Pensacola,FL,1994,"(MW),(S),(BYOB),(PC)",Info Lines & Services,checked,,,,6/27/2023 9:40am
1898,Community Real Estate Referrals,General Coordinates Used,27.336465,-82.531012,"(800)346-5592, gay realtor at your service",,Sarasota,FL,1994,,Info Lines & Services,checked,,,,6/27/2023 9:40am
1899,"Friends Group, The (Gay AA)",General Coordinates Used,27.336465,-82.531012,951-6810 (AA#) 8pm Mon & Wed,,Sarasota,FL,1994,,Info Lines & Services,checked,,,,6/27/2023 9:41am
1951,Apollo Adult Club ,General Coordinates Used,27.767601,-82.640291,544-7087 call for details ,,St. Petersburg,FL,1994,,Men's Clubs,checked,,,,6/27/2023 9:45am
1954,Pass-a-Grille Beach ,General Coordinates Used,27.767601,-82.640291,below 8th St.,,St. Petersburg,FL,1994,Cruisy Area,Cruising Areas,checked,,,,6/27/2023 9:46am
1953,Bayshore Dr.,Found,27.778733,-82.625794,from 2nd to Vinay Park,,St. Petersburg,FL,1994,Cruisy Area,Cruising Areas,checked,,,,6/27/2023 9:45am
1939,Community Real Estate Referrals,General Coordinates Used,27.767601,-82.640291,(800)346-5592 gay realtor at your service,,St. Petersburg,FL,1994,,Info Lines & Services,checked,,,,6/27/2023 9:45am
1940,Gay Information Line (The Line),General Coordinates Used,27.767601,-82.640291,"586-4297 info & referrals, 7pm-11pm ",,St. Petersburg,FL,1994,,Info Lines & Services,checked,,,,6/27/2023 9:45am
1962,Last Lake,General Coordinates Used,30.438256,-84.280733,S.W. on Rte. 373,,Tallahassee,FL,1994,Cruisy Area,Cruising Areas,checked,,,,6/27/2023 10:04am
1963,AA Gay/Lesbian ,General Coordinates Used,27.950575,-82.457178,call hotline for times & locations,,Tampa,FL,1994,,Info Lines & Services,checked,,,,6/27/2023 10:05am
1965,Florida Residential Referral Information ,General Coordinates Used,27.950575,-82.457178,"(800)653-3199 contact Rich Kennedy, Coldwell Banker Realtor",,Tampa,FL,1994,,Info Lines & Services,checked,,,,6/27/2023 10:07am
1966,Gay Hotline ,General Coordinates Used,27.950575,-82.457178,"229-8839, 7pm-11pm ",,Tampa,FL,1994,,Info Lines & Services,checked,,,,6/27/2023 10:07am
1982,Hog House,Found,27.963926,-82.485132,(at 2606 bar) 875-6993,,Tampa,FL,1994,,Erotica,checked,,2606 address is 2606 N. Armenia Ave.,,6/27/2023 10:07am
1986,W. Kennedy Ave,General Coordinates Used,27.944853,-82.497079,1700-2100 blks. ,,Tampa,FL,1994,Cruisy Area,Cruising Areas,checked,,,,6/27/2023 10:10am
1985,Lowry Park nr. river,Found,28.014924,-82.465836,,,Tampa,FL,1994,Cruisy Area,Cruising Areas,checked,,,,6/27/2023 10:09am
1964,Community Real Estate Referrals ,General Coordinates Used,27.950575,-82.457178,(800)346-5592 gay realtor at your service ,,Tampa,FL,1994,,Info Lines & Services,checked,,,,6/27/2023 10:06am
1984,Ben T. Davis Beach,Found,27.970749,-82.579284,Campbell Causeway ,,Tampa,FL,1994,"Cruisy Area,(AYOR)",Cruising Areas,checked,,,,6/27/2023 10:06am
1988,Casperson Beach ,Found,27.058503,-82.444011,walk 1/2 mi. S. ,,Venice,FL,1994,Cruisy Area,Cruising Areas,checked,,,,6/27/2023 10:10am
2008,Seawall ,General Coordinates Used,26.715342,-80.053375,(Summers),,West Palm Beach,FL,1994,Cruisy Area,Cruising Areas,checked,,,,6/27/2023 10:13am
2007,MacArthur Park Beach ,Found,26.824956,-80.043057,,,West Palm Beach,FL,1994,Cruisy Area,Cruising Areas,checked,,,,6/27/2023 10:13am
2006,Dixie Hwy.,General Coordinates Used,26.694282,-80.054084,from Belvedere Blvd. to Forrest Hill ,,West Palm Beach,FL,1994,Cruisy Area,Cruising Areas,checked,,,,6/27/2023 10:12am
1989,Community Real Estate Referrals ,General Coordinates Used,26.671834,-80.05526,(800)346-5592 gay realtor at your service,,West Palm Beach,FL,1994,,Info Lines & Services,checked,,,,6/27/2023 10:12am
2010,Florida Residential Referral Information ,General Coordinates Used,28.599808,-81.339296,"(800)653-3199 contact Rich Kennedy, Coldwell Banker Realtor ",,Winter Park,FL,1994,,Info Lines & Services,checked,,,,6/27/2023 10:19am
2009,Community Real Estate Referrals ,General Coordinates Used,28.599808,-81.339296,(800)346-5592 gay realtor at your service,,Winter Park,FL,1994,,Info Lines & Services,checked,,,,6/27/2023 10:19am
2011,Cady Way ,Found,28.59375,-81.317328 ,street bordering Ward Memorial Park ,,Winter Park,FL,1994,Cruisy Area,Cruising Areas,checked,,,,6/27/2023 10:20am
1908,For Your Pleasure,General Coordinates Used,26.211756,-80.211918,263-5970 rental properties ,,Seaview,FL,1994,(MW),Accommodations,checked,,,,6/27/2023 10:31am
1987,Playalinda Beach ,General Coordinates Used,28.612219,-80.807554,,,Titusville,FL,1994,Cruisy Area,Cruising Areas,checked,,,,6/27/2023 10:31am
1955,Community Real Estate Referrals,General Coordinates Used,27.742813,-82.750454,(800)346-5592 gay realtor at your service,,St. Petersburg Beach,FL,1994,,Info Lines & Services,checked,,,,6/27/2023 10:32am
1956,Florida Residential Referral Information ,General Coordinates Used,27.742813,-82.750454,"(800)653-3199 contact Rich Kennedy, Coldwell Banker Realtor",,St. Petersburg Beach,FL,1994,,Info Lines & Services,checked,,,,6/27/2023 10:32am
1587,Roadside Park,Found,30.695664,-86.572166,2 mi S. of I-10 on Rte. 85,,Crestview,FL,1994,"Cruisy Area,(AYOR)",Cruising Areas,checked,,,,6/27/2023 10:35am
1847,Community Real Estate Referrals,General Coordinates Used,29.025819,-80.926998,(800)346-5592 gay realtor at your service,,New Smyrna Beach,FL,1994,,Info Lines & Services,checked,,,,6/28/2023 3:44pm
1848,Canaveral National Seashore,General Coordinates Used,29.025819,-80.926998,"enter via Rte. A1A, walk 1 mi. S. ",,New Smyrna Beach,FL,1994,"Cruisy Area,(AYOR)",Cruising Areas,checked,,,,6/28/2023 3:44pm
1600,Legion Park ,Found,30.386802,-86.359017,"1 blk N of US 98, corner of Miramar Beach Rd. (Ponce de Leon) & Bayshore Dr. ",,Destin,FL,1994,Cruisy Area,Cruising Areas,checked,,,,6/28/2023 3:46pm
1849,Local Organization of Gay/Lesbian Ocalans (LOGO),General Coordinates Used,29.187199,-82.140092,"620-0157 social/charity org., 8pm 1st Wed",,Ocala,FL,1994,,Info Lines & Services,checked,,,,6/28/2023 3:47pm
1586,Crescent City Campground,General Coordinates Used,29.430251,-81.510629,"Rte. 2 Box, 25 698-2020 75 hook-up sites, tenting space, laundry showers",,Crescent City,FL,1994,"(GF),(SW)",Accommodations,checked,,,,6/28/2023 3:48pm
1912,Colours: Miami Beach,General Coordinates Used,25.782612,-80.134077,532-9341/(800)934-5622,,South Beach,FL,1994,(IGTA),Accommodations,checked,,,,6/28/2023 3:55pm
1916,Normandy South ,General Coordinates Used,25.85398,-80.133088,674-1197 men-only guesthouse,,South Beach,FL,1994,"(SW),(N),(IGTA)",Accommodations,checked,,,,6/28/2023 3:56pm
1909,Florida Residential Referral Information,General Coordinates Used,25.782612,-80.134077,"(800)653-3199 contact Rich Kennedy, Coldwell Banker Realtor",,South Beach,FL,1994,,Info Lines & Services,checked,,,,6/28/2023 3:56pm
2012,Community Real Estate Referrals ,General Coordinates Used,31.578507,-84.155741,(800)346-5592 gay realtor at your service,,Albany,GA,1994,,Info Lines & Services,checked,,,,6/28/2023 4:14pm
2022,"U. of GA - Main Library (5th & 6th flrs), Stegeman Hall gym & Science Library ",Found,33.956666,-83.375192,(AYOR),,Athens,GA,1994,"Cruisy Area,(AYOR)",Cruising Areas,checked,,,,6/28/2023 4:28pm
2021,College Square,Found,33.958537,-83.37557,Clayton & College Sts.,,Athens,GA,1994,"Cruisy Area,(AYOR)",Cruising Areas,checked,,,,6/28/2023 4:17pm
2013,Lesbian/Gay/Bisexual Student Union (LGBSU),Found,33.951279,-83.373609,"549-9368, 7pm Mon, Memorial Hall, Rm. 213",,Athens,GA,1994,,Info Lines & Services,checked,,,,6/28/2023 4:19pm
2032,Upper Echelons,General Coordinates Used,33.755711,-84.388372,"642-1313 luxury penthouse, downtown Atlanta",,Atlanta,GA,1994,"(GF),(SW)",Accommodations,checked,,,,6/28/2023 4:49pm
2077,"News, The",General Coordinates Used,33.748995,-84.387982,(at Atlanta Gay Center) 876-1819,,Atlanta,GA,1994,,Publications,checked,,Atlanta Gay Center's address 63 12th St. NE,,6/28/2023 4:46pm
2069,Hotlanta River Expo.,General Coordinates Used,33.748995,-84.387982,"P. O. Box 8375, 30306 874-3976 annual men's raft race & pageant (see ad in color nat'l section)",,Atlanta,GA,1994,,Travel/Tour Operators,checked,,,,6/28/2023 4:44pm
2030,Our Place,General Coordinates Used,33.748995,-84.387982,297-9825  furnished cabin in North GA,,Atlanta,GA,1994,(MW),Accommodations,checked,,,,6/28/2023 4:46pm
2026,"""Gay Graffiti""",General Coordinates Used,33.748752,-84.387684,"WRFG 89.3 FM, 7:30pm-8:30pm Sun",,Atlanta,GA,1994,,Info Lines & Services,checked,,,,6/28/2023 4:30pm
2078,Southern Voice,General Coordinates Used,33.748995,-84.387982,"P.O. Box 18215, 30316 876-1819",,Atlanta,GA,1994,,Publications,checked,,,,6/28/2023 4:48pm
2023,AA Gay/Lesbian ,General Coordinates Used,33.748752,-84.387684,881-9188,,Atlanta,GA,1994,,Info Lines & Services,checked,,,,6/28/2023 4:30pm
2024,African American Lesbian/Gay Alliance (AALGA) ,General Coordinates Used,33.748752,-84.387684,"P.O. Box 50374, 30302 239-8184 social/political org.",,Atlanta,GA,1994,,Info Lines & Services,checked,,,,6/28/2023 4:30pm
2080,Sac's Fist Ave.,Found,33.772748,-84.37742,(at Atlanta Eagle bar) 87-EAGLE,,Atlanta,GA,1994,,Erotica,checked,,Atlanta Eagle's address is 306 Ponce de Leon Ave. NE,,7/26/2023 4:46pm
2057,Little 5 Points ,Found,33.765506,-84.349145,(South of Ponce de Leon Ave.) too many restaurants & shops to list ,Moreland & Euclid Ave.,Atlanta,GA,1994,,Restaurants & Cafes,checked,,,,6/28/2023 4:45pm
2027,Gay Helpline,General Coordinates Used,33.748995,-84.387982,"892-0661, 6pm-11pm, info & counsling",,Atlanta,GA,1994,,Info Lines & Services,checked,,,,6/28/2023 4:33pm
2074,ETC. Magazine,General Coordinates Used,33.748995,-84.387982,"P.O. Box 8916, 30306 525-3821",,Atlanta,GA,1994,,Publications,checked,,,,6/28/2023 4:33pm
2084,Ft. Gordon PX,Found,33.407798,-82.135132,,,Augusta,GA,1994,Cruisy Area,Cruising Areas,checked,,,,6/28/2023 4:50pm
2089,Callaway Gardens & showers at Robin Lake Beach,Found,32.845472,-84.848281,,,Columbus,GA,1994,"Cruisy Area,(AYOR)",Cruising Areas,checked,,,,6/28/2023 4:50pm
2088,Broadway ,General Coordinates Used,32.460976,-84.987709,,,Columbus,GA,1994,"Cruisy Area,(AYOR)",Cruising Areas,checked,,,,6/28/2023 4:50pm
2091,Central Park,General Coordinates Used,34.297879,-83.824066,,,Gainesville,GA,1994,"Cruisy Area,(AYOR)",Cruising Areas,checked,,,,6/28/2023 4:57pm
2096,"Monterey Square, Bull Street",Found,32.071502,-81.094953,,,Savannah,GA,1994,"Cruisy Area,(AYOR)",Cruising Areas,checked,,,,6/28/2023 4:59pm
2097,Savannah Beach ,Found,32.000215,-80.845666,,,Savannah,GA,1994,Cruisy Area,Cruising Areas,checked,,,,6/28/2023 5:00pm
2085,Lake Carroll Rec. Area,Found,33.598611,-85.045833,,,Carrollton,GA,1994,"Cruisy Area,(AYOR)",Cruising Areas,checked,,,,6/28/2023 5:00pm
2177,Queens Surf Beach,Found,21.26791,-157.82247,Kapiolani Park,,"Honolulu, Oahu",HI,1994,Cruisy Area,Cruising Areas,checked,,,,6/28/2023 6:39pm
2176,Diamond Head,Found,21.261983,-157.805999,bushes above hwy. & bushes below lighthouse,,"Honolulu, Oahu",HI,1994,"Cruisy Area,(AYOR)",Cruising Areas,checked,,,,6/28/2023 6:33pm
2165,Leather Stud Enterprises ,General Coordinates Used,21.309885,-157.85814,"P.O. Box 61024, 96839 847-8000, 10am-5pm",,"Honolulu, Oahu",HI,1994,,Bookstores/Retail Shops,checked,,,,6/28/2023 6:38pm
2169,Gay Community News,General Coordinates Used,21.309885,-157.85814,"P.O. Box 37083, 96837 521-6000",,"Honolulu, Oahu",HI,1994,,Publications,checked,,,,6/28/2023 6:34pm
2175,Ala Moana Beach Park,Found,21.289969,-157.847657,nr. Waikiki Yacht Club,,"Honolulu, Oahu",HI,1994,Cruisy Area,Cruising Areas,checked,,,,6/28/2023 6:31pm
2167,Pacific Ocean Holidays ,General Coordinates Used,21.309885,-157.85814,"P.O. Box 88245, 96830 923-2400/(800)73506600",,"Honolulu, Oahu",HI,1994,(IGTA),Travel/Tour Operators,checked,,,,6/28/2023 6:39pm
2142,Community Real Estate Referrals,General Coordinates Used,21.309885,-157.85814,"(800)346-5592, gay realtor at your service",,"Honolulu, Oahu",HI,1994,,Info Lines & Services,checked,,,,6/28/2023 6:33pm
2170,Island Lifestyle Magazines,General Coordinates Used,21.309885,-157.85814,"P.O. Box 240515, 96824 373-9000",,"Honolulu, Oahu",HI,1994,,Publications,checked,,,,6/28/2023 6:36pm
2143,Gay Bulletin Board,General Coordinates Used,21.309885,-157.85814,"926-1000, 24hr recorded info ",,"Honolulu, Oahu",HI,1994,,Info Lines & Services,checked,,,,6/28/2023 6:34pm
2103,Kahaluu Beach Park,Found,19.579266,-155.966671,,,"Kailua-Kona, Hawaii",HI,1994,"Cruisy Area,(AYOR)",Cruising Areas,checked,,,,6/28/2023 6:45pm
2104,Nude beach,General Coordinates Used,19.639994,-155.996926,5 mi. S. of airport ,,"Kailua-Kona, Hawaii",HI,1994,Cruisy Area,Cruising Areas,checked,,,,6/28/2023 6:47pm
2178,Kailua Beach Park,Found,21.397396,-157.727218 ,,,"Kailua, Oahu",HI,1994,"Cruisy Area,(AYOR)",Cruising Areas,checked,,,,6/28/2023 6:48pm
2179,Kona Market Place,Found,19.639103,-155.993626,,,"Kailua, Oahu",HI,1994,Cruisy Area,Cruising Areas,checked,,,,6/28/2023 6:48pm
2134,Maui Surfing School,General Coordinates Used,20.878333,-156.6825,"P.O. Box 424, Puuenene, 96784 875-0625",,"Lahaina, Maui",HI,1994,,Travel/Tour Operators,checked,,,,6/28/2023 6:52pm
2129,Both Sides Now Info Line,General Coordinates Used,20.882371,-156.681619,"P.O. Box 5042, Kahului, 96732 572-1884, 24hr message, newsletter available",,"Lahaina, Maui",HI,1994,,Info Lines & Services,checked,,,,6/28/2023 6:51pm
2135,Front St.,General Coordinates Used,20.915891,-156.695939,along Beach Walk ,,"Lahaina, Maui",HI,1994,Cruisy Area,Cruising Areas,checked,,,,6/28/2023 6:51pm
2130,Community Real Estate Referrals,General Coordinates Used,20.882371,-156.681619,"(800)346-5592, gay realtor at your service",,"Lahaina, Maui",HI,1994,,Info Lines & Services,checked,,,,6/28/2023 6:51pm
2138,Makena nude beach,Found,20.631622,-156.444792,,,"Makena, Maui",HI,1994,Cruisy Area,Cruising Areas,checked,,,,6/28/2023 6:54pm
2124,Pali Kai,General Coordinates Used,22.19457,-159.406945,"P.O. Box 450, 96754 828-6691 hilltop B&B and cottage, hot tub",,"Kilauea, Kauai",HI,1994,,Accommodations,checked,,,,6/28/2023 6:56pm
2114,Tahiti Nui,Found,22.203373,-159.495245,"826-6277 11am-2am, Wed & Fri luau",Kuhio Hwy.,"Hanalei, Kauai",HI,1994,"(GF),(F),(E)",Bars,checked,,,,6/28/2023 6:59pm
2113,Community Real Estate Referrals,General Coordinates Used,22.205929,-159.497565,"(800)346-5592, gay realtor at your service",,"Hanalei, Kauai",HI,1994,,Info Lines & Services,checked,,,,6/28/2023 6:57pm
2108,Anahola Beach Club,General Coordinates Used,22.150811,-159.305912,"P.O. Box 562, 96703 822-6966/(800)ANAHOLA beachside",,"Anahola, Kauai",HI,1994,"(MW),(IGTA)",Accommodations,checked,,,,6/28/2023 6:59pm
2110,Lydgate Park,Found,22.041632,-159.334407,off Rte. 56,,"Anahola, Kauai",HI,1994,"Cruisy Area,(AYOR)",Cruising Areas,checked,,,,6/28/2023 6:59pm
2111,Secret Beach,Found,22.223689,-159.411176,,,"Anahola, Kauai",HI,1994,"Cruisy Area,(N)",Cruising Areas,checked,,,,6/28/2023 7:01pm
2109,Donkey Beach,General Coordinates Used,22.116944,-159.299444,"(nude), Rte. 56 at dirt road S. of 12 mi. marker",,"Anahola, Kauai",HI,1994,"Cruisy Area,(AYOR)",Cruising Areas,checked,,,,6/28/2023 6:59pm
2125,Ko'a Kai Condominium Rentals,General Coordinates Used,20.739941,-156.454187,"Box 1969, 96753 879-6058",,"Kihei, Maui",HI,1994,"(GF),(SW)",Accommodations,checked,,,,6/28/2023 7:01pm
2126,Triple Lei B&B,General Coordinates Used,20.739941,-156.454187,"P.O. Box 593, 96753 874-8645 nr. nude beach",,"Kihei, Maui",HI,1994,"(SW),(N)",Accommodations,checked,,,,6/28/2023 7:02pm
2127,Kalama Park,Found,20.731438,-156.452933,,,"Kihei, Maui",HI,1994,"Cruisy Area,(AYOR)",Cruising Areas,checked,,,,6/28/2023 7:01pm
2137,Personal Maui,General Coordinates Used,20.853869,-156.310337,572-1589/(800)DAN-KEEN guide for tours of the hidden Maui ,,"Makawao, Maui",HI,1994,,Travel/Tour Operators,checked,,,,6/28/2023 7:03pm
2136,Maui Network,General Coordinates Used,20.853869,-156.310337,"P.O. Box 1077, 96768 572-9555/(800)367-5221 condo reservation service",,"Makawao, Maui",HI,1994,,Travel/Tour Operators,checked,,,,6/28/2023 7:03pm
2100,Samurai House,General Coordinates Used,19.488983,-155.910125,"RRI Box 359, 96704 328-9210 traditional house brought from Japan",,"Captain Cook, Hawaii",HI,1994,(GF),Accommodations,checked,,,,6/28/2023 7:05pm
2099,RBR Farms,General Coordinates Used,19.488983,-155.910125,"PO Box 930, 96704 328-9212/(800)328-9212",,"Captain Cook, Hawaii",HI,1994,"(*),(MW),(SW),(N),(IGTA)",Accommodations,checked,,,,6/28/2023 7:05pm
2106,Kalani Honua Resort,General Coordinates Used,19.49544,-154.949411,"RR2 Box 4500, 96778 965-7828/(800)800-6886 conference ctr & retreat ",,"Pahoa, Hawaii",HI,1994,"(MW),(F),(SW),(N),(IGTA)",Accommodations,checked,,,,6/29/2023 10:27pm
2105,Huliaule'a,General Coordinates Used,19.49544,-154.949411,"P.O. Box 1030, 96778 965-9175 B&B",,"Pahoa, Hawaii",HI,1994,(MW),Accommodations,checked,,,,6/29/2023 10:27pm
2123,Napualani O'Hana,General Coordinates Used,20.755717,-155.987988,"P.O. Box 118, 96713 248-8935",,"Hana, Maui",HI,1994,(GF),Accommodations,checked,,,,6/29/2023 10:28pm
2122,Hana Plantation Houses,General Coordinates Used,20.755717,-155.987988,"PO Box 489, 96713 248-7248 rental houses",,"Hana, Maui",HI,1994,"(GF),(IGTA)",Accommodations,checked,,,,6/29/2023 10:28pm
2121,Hana Alii Holidays,General Coordinates Used,20.755717,-155.987988,248-7742/(800)548-0478 accommodations reservations,,"Hana, Maui",HI,1994,(GF),Accommodations,checked,,,,6/29/2023 10:28pm
2128,Camp Kula,General Coordinates Used,20.791352,-156.324877,878-2528/(800)367-7546 B&B,,"Kula, Maui",HI,1994,"(*),(MW)",Accommodations,checked,,,,6/29/2023 10:29pm
2101,Hale Anuenue (Rainbow House),General Coordinates Used,20.238155,-155.833825,"PO Box 371, 96719 889-6187 B&B",,"Hawi, Hawaii",HI,1994,"(MW),(N),(WC)",Accommodations,checked,,,,6/29/2023 10:56pm
2119,Anfora's Dream,General Coordinates Used,20.911399,-156.251594,"PO Box 74030, LA, CA, 90004 (213)737-0731 rental condo",,"Haiku, Maui",HI,1994,(MW),,checked,,seems to be accommodations,,6/29/2023 10:57pm
2120,Kailua Maui Garden Estate,General Coordinates Used,20.911399,-156.251594,"SR Box 9, 96708 572-9726/(800)258-8588 suites & bungalow, hot tub",,"Haiku, Maui",HI,1994,"(MW),(SW),(N)",,checked,,seems to be accommodations,,6/29/2023 10:57pm
2102,Paauham Plantation Inn,General Coordinates Used,20.079467,-155.469539,775-7222 B&B w/cottage available,,"Honokaa, Hawaii",HI,1994,(GF),Accommodations,checked,,,,6/29/2023 10:58pm
