ID,Title,status,description,streetaddress,lat,lon,city,state,amenityfeatures,type,Year,unclearaddress,uncleartype,notes,dateadded,lastmodified
4,Noble St. ,Found,betw. 8th & 16th,,33.658482,-85.829655,Anniston,AL,Cruisy Area,Cruising Areas,1985,checked,,"@Eric Gonzaba should ""belw. 8th & 16th"" be in the description ",,2/8/2022 3:33am
1,Greyhound Bus Depot,General Coordinates Used,,,33.659826,-85.831632,Anniston,AL,Cruisy Area,Cruising Areas,1985,checked,,,,2/8/2022 3:31am
5,Penny's ,General Coordinates Used,(T-Room) (Quintard),,33.659826,-85.831632,Anniston,AL,Cruisy Area,Cruising Areas,1985,checked,,,,2/8/2022 3:34am
6,Haley Center,Found,(4th floor T-Room) (Auburn Univ.),,32.603395,-85.486793,Auburn,AL,Cruisy Area,Cruising Areas,1985,checked,,,,2/8/2022 3:47am
7,Stanford Park ,Found,(Auburn Univ.) (nr. Langton Hall),,32.604862,-85.482511,Auburn,AL,Cruisy Area,Cruising Areas,1985,checked,,,,2/8/2022 3:54am
2,Gay Awarness P.O. Box,General Coordinates Used,,"P.O. Box 821, Auburn 36830",32.609857,-85.480782,Auburn,AL,,Organization,1985,checked,,,,2/8/2022 3:49am
23,5th Ave. N. at 20th St. ,Found,(nr. Bus Depot),,33.518077,-86.808184,Birmingham,AL,"(AYOR),Cruisy Area",Cruising Areas,1985,checked,,,,2/4/2022 4:16am
20,Quest,Found,(Macho) (Cruisy) (at 5th Ave. S.),416 24th St. S. ,33.510844,-86.796173,Birmingham,AL,"(SM),(C&W),(*)","Bars/Clubs,Cruising Areas",1985,checked,,,,2/4/2022 4:52am
21,Redmont Lounge ,Found,,5th Ave. N. at 22nd St.,33.519436,-86.805395,Birmingham,AL,"(M),(RT)",Bathhouses,1985,checked,,,,2/4/2022 3:48pm
24,Rushton Park ,Found,,,33.506402,-86.780064,Birmingham,AL,Cruisy Area,Cruising Areas,1985,checked,,,,2/4/2022 3:49pm
25,Western Super Market ,Found,(Late Sat. nights),2230 Highland Ave. ,33.501784,-86.790606,Birmingham,AL,Cruisy Area,Cruising Areas,1985,checked,,,,2/4/2022 3:50pm
26,Woodrow Wilson Park,Found,(AYOR- 'Fuzz'),,33.520773,-86.809888,Birmingham,AL,"(AYOR),Cruisy Area",Cruising Areas,1985,checked,,,,2/4/2022 3:50pm
9,Alabama Forum,General Coordinates Used,(Publication),"Box 73062, Birm. 35253",33.518589,-86.810357,Birmingham,AL,,Publications,1985,checked,,,,2/4/2022 4:26am
13,Dignity ,General Coordinates Used,(205) 933-9403 or 674-6773,,33.518589,-86.810357 ,Birmingham,AL,,Religious Institution,1985,checked,,,,2/4/2022 4:37am
14,Gay Center,General Coordinates Used,(205)251-0682,,33.518589,-86.810357,Birmingham,AL,,Community Center/Support Groups,1985,checked,,,,2/4/2022 4:47am
28,Amtrak ,General Coordinates Used,,,34.605925,-86.983342,Decatur,AL,Cruisy Area,Cruising Areas,1985,checked,,,,2/4/2022 3:51pm
29,Greyhound Depots,General Coordinates Used,,,34.605925,-86.983342,Decatur,AL,Cruisy Area,Cruising Areas,1985,checked,,,,2/4/2022 3:52pm
30,The 'Pumps',General Coordinates Used,(Fishing Area across bridge from Old Hwy 31 N.),,34.605925,-86.983342,Decatur,AL,Cruisy Area,Cruising Areas,1985,checked,,,,2/4/2022 3:55pm
27,Waffle House,General Coordinates Used,(Open 24 hrs.),Hwy. 31 S. ,34.605925,-86.983342,Decatur,AL,"(M),(R)",Restaurant,1985,checked,,,,2/4/2022 3:55pm
31,Rodco's Holiday Inn ,General Coordinates Used,,Ross Clark Circle ,31.223231,-85.390489,Dothan,AL,,Hotel,1985,checked,,,,2/8/2022 4:07am
33,Bus Depot ,Found,,,34.79981,-87.677251,Florence,AL,Cruisy Area,Cruising Areas,1985,checked,,,,2/4/2022 3:56pm
34,J.C. Penney's ,Found,Regency Square Mall,,34.837386,-87.634945,Florence,AL,Cruisy Area,Cruising Areas,1985,checked,,,,2/4/2022 3:59pm
35,Wilson Dam Overlook,Found,MacLaughlin Park ,,34.783895,-87.684,Florence,AL,Cruisy Area,Cruising Areas,1985,checked,,,,2/7/2022 3:32am
32,The Kettle ,General Coordinates Used,,E. Limestone ,34.79981,-87.677251,Florence,AL,"(M),(R)",Restaurant,1985,checked,,,,2/4/2022 4:04pm
42,Pizitz Dept. Store ,Found,,Parkways City Mall,34.704207,-86.588209,Huntsville,AL,Cruisy Area,Cruising Areas,1985,checked,,Pizitz Department Store was a family-owned department stores: https://www.abandonedalabama.com/pizitz-department-store/,,2/4/2022 4:26pm
43,Square at Franklin & Randolph ,Found,(AYOR- 'Fuzz'),,34.730369,-86.586104,Huntsville,AL,"Cruisy Area,(AYOR)",Cruising Areas,1985,checked,,,,2/13/2022 2:20pm
39,Gay Helpline,General Coordinates Used,(205)539-3424,,34.730369,-86.586104,Huntsville,AL,,Hotline,1985,checked,,,,2/4/2022 4:09pm
40,Observation Point ,General Coordinates Used,(The Overlook) on Governors Dr. ,,34.730369,-86.586104,Huntsville,AL,Cruisy Area,Cruising Areas,1985,checked,,,,2/4/2022 4:20pm
41,The Mall,General Coordinates Used,Upstairs T-Room (Days),,34.730369,-86.586104,Huntsville,AL,Cruisy Area,Cruising Areas,1985,checked,,,,2/7/2022 3:35am
45,Jacksonville State U. ,Found,2nd floor T-Rooms (Ayer Hall),,33.824104,-85.765878,Jacksonville,AL,Cruisy Area,Cruising Areas,1985,checked,,,,2/7/2022 3:42am
44,Jacksonville State U. ,Found,2nd floor T-Rooms (Bibb Graves Hall),,33.822939,-85.765343,Jacksonville,AL,Cruisy Area,Cruising Areas,1985,checked,,,,2/7/2022 3:42am
52,Bienville Square ,Found,(AYOR at night)(Fuzz)(Many B),,30.692229,-88.042546,Mobile,AL,"Cruisy Area,(B),(AYOR)",Cruising Areas,1985,checked,,,,2/7/2022 3:44am
53,Luscher Park ,Found,,,30.628862,-88.102592,Mobile,AL,Cruisy Area,Cruising Areas,1985,checked,,,,2/7/2022 3:46am
54,MidTown Cinema,Found,(AYOR),,30.691199,-88.044599,Mobile,AL,"Cruisy Area,(AYOR)",Cruising Areas,1985,checked,,,,2/7/2022 3:50am
49,Gulf Alliance for Equality ,General Coordinates Used,(205)476-5171,,30.695366,-88.039891,Mobile,AL,,Organization,1985,checked,,,,2/7/2022 3:45am
55,Old State Park,General Coordinates Used,opp. Holiday Inn- off causeway,,30.695366,-88.039891,Mobile,AL,Cruisy Area,Cruising Areas,1985,checked,,,,2/7/2022 3:52am
56,Woolworth's ,General Coordinates Used,'T-Room',,30.695366,-88.039891,Mobile,AL,Cruisy Area,Cruising Areas,1985,checked,,,,2/7/2022 3:56am
63,Church St. Betw. Lee & Molton,Found,,,32.37535,-86.309754,Montgomery,AL,Cruisy Area,Cruising Areas,1985,checked,,,,2/13/2022 2:27pm
62,Block around Post Office,General Coordinates Used,,,32.379223,-86.307737,Montgomery,AL,Cruisy Area,Cruising Areas,1985,checked,,,,2/7/2022 4:00am
59,Gay Help Line & U.B.U,General Coordinates Used,(9am-10pm) (205)264-7887,,32.379223,-86.307737,Montgomery,AL,,Hotline,1985,checked,,,,2/7/2022 9:58am
64,Lee St. ,General Coordinates Used,(Betw. Bus Depots),,32.379223,-86.307737,Montgomery,AL,Cruisy Area,Cruising Areas,1985,checked,,,,2/7/2022 9:59am
61,M.C.C ,General Coordinates Used,,"P.O. Box 603, Montgomery 36101",32.379223,-86.307737,Montgomery,AL,(MCC),Religious Institution,1985,checked,,,,2/7/2022 10:06am
66,Cap'n Hook's ,Found,(Cruisy) (Holiday Inn I-28- Bypass),I-280 Bypass,32.461534,-85.018611,Phenix City,AL,(M),"Restaurant,Cruising Areas",1985,checked,,,,2/7/2022 10:12am
72,U. of Alabama at Tuscaloosa,Found,(Library T-Rooms),,33.211827,-87.545974,Tuscaloosa,AL,Cruisy Area,Cruising Areas,1985,checked,,,,2/7/2022 10:28am
71,U. of Alabama at Tuscaloosa,Found,(Ferguson Center),,33.214516,-87.545665,Tuscaloosa,AL,Cruisy Area,Cruising Areas,1985,checked,,,,2/7/2022 10:28am
69,Bus Station ,General Coordinates Used,,,33.209841,-87.569173,Tuscaloosa,AL,Cruisy Area,Cruising Areas,1985,checked,,,,2/7/2022 10:19am
73,U. of Alabama,General Coordinates Used,(2nd floor T-Room) (Old Union Bldg. ),,33.214023,-87.539142,Tuscaloosa,AL,Cruisy Area,Cruising Areas,1985,checked,,,,2/7/2022 10:30am
70,Union 76 Truck Stop ,General Coordinates Used,(T-Room) (at I-20 & US 59),,33.209841,-87.569173,Tuscaloosa,AL,Cruisy Area,Cruising Areas,1985,checked,,,,2/7/2022 10:33am
82,Fred Myers Dept. Store,Found,(T-Room),,61.211142,-149.735829,Anchorage,AK,Cruisy Area,Cruising Areas,1985,checked,,,,2/8/2022 4:11am
83,Park Strip at 9th and 'L' Sts.,Found,,,61.213666,-149.903704,Anchorage,AK,Cruisy Area,Cruising Areas,1985,checked,,,,2/8/2022 4:15am
84,Penney's ,Found,,,61.216996,-149.890085,Anchorage,AK,Cruisy Area,Cruising Areas,1985,checked,,,,2/8/2022 4:16am
85,Sears Mall,Found,,,61.19426,-149.872276,Anchorage,AK,Cruisy Area,Cruising Areas,1985,checked,,,,2/8/2022 4:17am
81,'C' St. ,General Coordinates Used,(at 4th Ave.),,61.218923,-149.850373,Anchorage,AK,Cruisy Area,Cruising Areas,1985,checked,,,,2/8/2022 4:10am
76,Gay Community Center & Hot Line,General Coordinates Used,(907)276-3909,,61.218923,-149.850373,Anchorage,AK,,Community Center/Support Groups,1985,checked,,,,2/8/2022 4:11am
79,Raven,General Coordinates Used,"(Some YC, W, SM) (Cruisy)(Good afternoons) (nr. 6th )",618 Gambell ,61.218056,-149.900278,Anchorage,AK,"(YC),(W),(SM),(D),(*)","Bars/Clubs,Cruising Areas",1985,checked,,,,4/27/2022 4:42am
90,U. of Alaska,Found,(Wood Ctr. ),,64.857341,-147.823517,Fairbanks,AK,Cruisy Area,Cruising Areas,1985,checked,,,,2/8/2022 4:27am
88,U. of Alaska,Found,(Constitution Hall),,64.857396,-147.821832,Fairbanks,AK,Cruisy Area,Cruising Areas,1985,checked,,Info site: https://uaf.edu/campusmap/for-visitors/buildings/constitution.php,,2/8/2022 4:39am
86,Fairbanks Organ. of Gays & Lesbians ,General Coordinates Used,,"P.O. Box 55285, Anchorage 99705",64.837778,-147.716389,Fairbanks,AK,,Organization,1985,checked,,,,2/8/2022 4:22am
89,U. of Alaska,General Coordinates Used,(Gym),,64.837778,-147.716389,Fairbanks,AK,Cruisy Area,Cruising Areas,1985,checked,,,,2/8/2022 4:28am
94,Merchants Wharf ,Found,T-Rooms,,58.299399,-134.407901,Juneau,AK,Cruisy Area,Cruising Areas,1985,checked,,,,2/8/2022 4:49am
91,Red Dog Saloon,General Coordinates Used,,S. Franklin St. ,58.301944,-134.419722,Juneau,AK,(M),Bars/Clubs,1985,checked,,,,2/8/2022 4:47am
95,Hitch hikers ,General Coordinates Used,along Tongass Hwy. ,,55.342222,-131.646111,Ketchikan,AK,Cruisy Area,Cruising Areas,1985,checked,,,,2/8/2022 4:51am
96,"No gay bars, but some downtown bars such as Frontier & 108 Club on Main St. can be cruisy)",General Coordinates Used,,,55.342222,-131.646111,Ketchikan,AK,Cruisy Area,Cruising Areas,1985,checked,,,,2/8/2022 4:51am
98,'Rest Stops',General Coordinates Used,(N on I-10),,32.911003,-111.77339,Casa Grande,AZ,Cruisy Area,Cruising Areas,1985,checked,,,,2/14/2022 3:14am
99,Northern Arizona Univ. Library ,Found,Basement T-Room,,35.190062,-111.657545,Flagstaff,AZ,Cruisy Area,Cruising Areas,1985,checked,,,,2/9/2022 3:22pm
102,Thorp Park ,Found,(Sunset & WE),,35.203668,-111.658355,Flagstaff,AZ,Cruisy Area,Cruising Areas,1985,checked,,,,2/9/2022 3:26pm
101,'Rest Stops',General Coordinates Used,"(on I-40, 15 mi. W.)",,35.198284,-111.651302,Flagstaff,AZ,Cruisy Area,Cruising Areas,1985,checked,,,,2/9/2022 3:19pm
100,Ramada Inn,General Coordinates Used,,,35.198284,-111.651302,Flagstaff,AZ,(M),"Hotel,Cruising Areas",1985,checked,,,,2/9/2022 3:25pm
103,Schoolhouse Disco ,General Coordinates Used,Old Schoolhouse shops at top of Hill ,, 34.748911,-112.113772,Jerome,AZ,"(M),(D)",Bars/Clubs,1985,checked,,,,2/14/2022 3:13am
104,The Library ,General Coordinates Used,Old Schoolhouse Shops,, 34.748911,-112.113772,Jerome,AZ,"(M),(R)",Restaurant,1985,checked,,,,2/14/2022 3:13am
105,Reed & Pioneer Parks ,Found,,,33.416972,-111.819674,Mesa,AZ,"Cruisy Area,(AYOR)",Cruising Areas,1985,checked,,,,2/9/2022 3:31pm
106,Tri-City Mall,Found,,,33.414851,-111.873996,Mesa,AZ,Cruisy Area,Cruising Areas,1985,checked,,,,2/9/2022 3:35pm
148,Encanto Park ,Found,,,33.476672,-112.089974,Phoenix,AZ,"Cruisy Area,(AYOR)",Cruising Areas,1985,checked,,'@Eric Gonzaba Under the cruisy Areas header for Phoenix it says (Strictly AYOR)- should I put that in the description for all of them ,,2/9/2022 3:57pm
150,Greyhound Park,Found,Sundays are cruisy at Park 'n' Swap,,33.448021,-111.995404,Phoenix,AZ,Cruisy Area,Cruising Areas,1985,checked,,,,2/9/2022 3:59pm
152,Metro Center,Found,Shopping Complex- nr. ice rink ,,33.575048,-112.121702,Phoenix,AZ,Cruisy Area,Cruising Areas,1985,checked,,,,2/9/2022 4:08pm
153,Papago Park ,Found,,,33.453877,-111.953395,Phoenix,AZ,"Cruisy Area,(AYOR)",Cruising Areas,1985,checked,,,,2/9/2022 4:15pm
149,'Hitch-hikers',General Coordinates Used,,2nd & Roosevelt Sts. ,33.448377,-112.074037,Phoenix,AZ,Cruisy Area,Cruising Areas,1985,checked,,,,2/9/2022 3:41pm
108,Arizona Escort Service ,General Coordinates Used,(602)246-1692,,33.448377,-112.074037,Phoenix,AZ,,Escort Service,1985,checked,,,,2/9/2022 3:42pm
110,Best Distributing ,General Coordinates Used,,"P.O. Box 27073, Phoenix 85061",33.448377,-112.074037,Phoenix,AZ,,Business,1985,checked,,,,2/9/2022 3:45pm
111,Book Cellars ,General Coordinates Used,"(Books,etc.) (402 W. Hatcher, & other locations )",2103 W. Camelback Rd.,33.448377,-112.074037,Phoenix,AZ,,Book Store,1985,checked,,,,2/9/2022 3:49pm
111 copy,Book Cellars ,General Coordinates Used,"(Books,etc.)  & other locations )",402 W. Hatcher,33.448377,-112.074037,Phoenix,AZ,,Book Store,1985,checked,,,,2/9/2022 3:49pm
117,Dignity ,General Coordinates Used,(602)866-1035,,33.448377,-112.074037,Phoenix,AZ,,Religious Institution,1985,checked,,,,2/9/2022 3:53pm
118,Directory,General Coordinates Used,(Publication) (602)274-4768,,33.448377,-112.074037,Phoenix,AZ,,Publications,1985,checked,,,,2/9/2022 3:53pm
123,Gay Roomate Service ,General Coordinates Used,(602)938-3972,,33.448377,-112.074037,Phoenix,AZ,,Organization,1985,checked,,,,2/9/2022 3:58pm
122,Gay/ Lesbian Assistance & Info ,General Coordinates Used,(602)957-0363,,33.448377,-112.074037,Phoenix,AZ,,Hotline,1985,checked,,,,2/9/2022 3:58pm
151,Indian School Rd. ,General Coordinates Used,Canal Joggers,56th to 68th ,33.448377,-112.074037,Phoenix,AZ,Cruisy Area,Cruising Areas,1985,checked,,,,2/9/2022 4:06pm
154,Public Library ,General Coordinates Used,Basement T-Room,,33.448377,-112.074037,Phoenix,AZ,Cruisy Area,Cruising Areas,1985,checked,,,,2/9/2022 4:17pm
155,Sundowner Motel ,General Coordinates Used,Pool & R (Downstairs bar nights),,33.448377,-112.074037,Phoenix,AZ,Cruisy Area,"Cruising Areas,Hotel",1985,checked,,,,2/9/2022 4:20pm
146,Western Express (Publication),General Coordinates Used,,"P.O. Box 32575, Phoenix 85064",33.448377,-112.074037,Phoenix,AZ,,Publications,1985,checked,,,,2/9/2022 4:23pm
159,Oak Creek Owl ,General Coordinates Used,(1/2 mi. S. of 89A on Ariz. 179),,34.86974,-111.76099,Sedona,AZ,"(M),(R)",Restaurant,1985,checked,,,,2/9/2022 4:26pm
160,Point Willow Country Guest ,General Coordinates Used,"Reservations call (602)634-6152 (Off Hwy. 89A, 18 mi. S. of Sedona, betw. Sedona & Cottonwood)",,34.86974,-111.76099,Sedona,AZ,(H),Hotel,1985,checked,,,,2/9/2022 4:29pm
161,K- Mart ,General Coordinates Used,(T-Room),,31.5455,-110.277286,Sierra Vista,AZ,Cruisy Area,Cruising Areas,1985,checked,,,,2/10/2022 6:45am
166,A.S.U. ,Found,(Library),,33.41999,-111.930687,Tempe,AZ,Cruisy Area,Cruising Areas,1985,checked,,,,2/14/2022 12:19pm
165,A.S.U. ,Found,(Student Union),,33.417703,-111.934353,Tempe,AZ,Cruisy Area,Cruising Areas,1985,checked,,,,2/10/2022 6:59am
168,Papago Park ,Found,(Southern part),,33.453632,-111.948693,Tempe,AZ,Cruisy Area,Cruising Areas,1985,checked,,,,2/10/2022 7:03am
169,'Rest Stop',General Coordinates Used,(Hwy. 80 N.),,33.42551,-111.940005,Tempe,AZ,"Cruisy Area,(AYOR)",Cruising Areas,1985,checked,,,,2/10/2022 6:46am
167,A.S.U ,General Coordinates Used,(Old Gym T-Rooms),,33.42424,-111.928053,Tempe,AZ,Cruisy Area,Cruising Areas,1985,checked,,,,2/10/2022 6:48am
170,City Park ,Found,T-Room,,31.713073,-110.068154,Tombstone,AZ,Cruisy Area,Cruising Areas,1985,checked,,,,2/10/2022 7:04am
190,'Hitch-Hikers',Found,(on E. Speedway),,32.235665,-110.840906,Tucson,AZ,Cruisy Area,Cruising Areas,1985,checked,,,,2/10/2022 7:05am
171,Back Pocket ,Found,(Behind Joshua Tree),,32.260772,-110.961409,Tucson,AZ,(*),Bars/Clubs,1985,checked,,,,2/10/2022 7:06am
191,Himmel Park,Found,,,32.233876,-110.93315,Tucson,AZ,"Cruisy Area,(AYOR)",Cruising Areas,1985,checked,,,,2/10/2022 7:22am
193,Lincoln Park,Found,,,32.173267,-110.818145,Tucson,AZ,Cruisy Area,Cruising Areas,1985,checked,,,,2/10/2022 7:23am
194,Reid Park,Found,Northside- T-Room,,32.21032,-110.919078,Tucson,AZ,Cruisy Area,Cruising Areas,1985,checked,,,,2/10/2022 7:24am
195,Sears,Found,(T-Room - Park Mall),,32.219844,-110.865518,Tucson,AZ,Cruisy Area,Cruising Areas,1985,checked,,,,2/10/2022 7:26am
196,Tuscon Mall,Found,(T-Room),,32.2885,-110.974135,Tucson,AZ,Cruisy Area,Cruising Areas,1985,checked,,,,2/10/2022 7:27am
198,U. of Airzona ,Found,(Library),,32.230875,-110.948848,Tucson,AZ,Cruisy Area,Cruising Areas,1985,checked,,,,2/11/2022 10:14am
197,U. of Arizona ,Found,1st floor T-Room (Econ. Bldg.),,32.237007,-110.954547 ,Tucson,AZ,Cruisy Area,Cruising Areas,1985,checked,,,,2/11/2022 10:56am
178,Dignity ,General Coordinates Used,(Church),"Box 27929, Tucson 85726",32.222607,-110.974711,Tucson,AZ,,Religious Institution,1985,checked,,,,2/10/2022 7:11am
192,K-Mart ,General Coordinates Used,(at Wimot) (T-Room),Broadway ,32.222607,-110.974711,Tucson,AZ,Cruisy Area,Cruising Areas,1985,checked,,,,2/10/2022 7:22am
204,'Hitch-hikers',Found,on 4th Ave. & Hwy. 8,,32.731581,-114.624535,Yuma,AZ,"(AYOR),Cruisy Area",Cruising Areas,1985,checked,,,,2/13/2022 2:30pm
199,Bargain Box,General Coordinates Used,(Books & flicks)(Cruisy*),240 E. 16th St. ,32.692651,-114.627692,Yuma,AZ,"Cruisy Area,(*),(M)","Book Store,Cruising Areas",1985,checked,,,,2/11/2022 11:05am
205,MacDonald's,General Coordinates Used,(nr. Base),,32.692651,-114.627692,Yuma,AZ,Cruisy Area,Cruising Areas,1985,checked,,,,2/11/2022 11:12am
201,Owl Bookstore ,General Coordinates Used,(at 24th St. ),4th Ave. ,32.692651,-114.627692,Yuma,AZ,(M),Book Store,1985,checked,,,,2/11/2022 11:13am
206,Saddle Club & Backroom,General Coordinates Used,,,32.692651,-114.627692,Yuma,AZ,Cruisy Area,Cruising Areas,1985,checked,,,,2/12/2022 7:12am
209,S. Main St. ,General Coordinates Used,,,36.401183,-93.737971,Eureka Springs,AR,Cruisy Area,Cruising Areas,1985,checked,,,,2/14/2022 4:06am
213,Sambo's ,Found,,,36.082156,-94.171854,Fayetteville,AR,"(M),(AYOR),(AH),(C)","Restaurant,Cruising Areas",1985,checked,,,,2/14/2022 4:10am
214,U. of Arkansas,Found,Old Main Hall T-Room,,36.068685,-94.172907,Fayetteville,AR,Cruisy Area,Cruising Areas,1985,checked,,,,2/14/2022 4:12am
210,Arkansas Gay/Lesbian Rights,General Coordinates Used,,"P.O. Box 2897, Fayetteville 72702",36.066242,-94.157853,Fayetteville,AR,,Organization,1985,checked,,,,2/14/2022 4:07am
211,M.C.C Ozarks ,General Coordinates Used,(501)443-4278 (Kenray at Plainview),,36.066242,-94.157853,Fayetteville,AR,(MCC),Religious Institution,1985,checked,,,,2/14/2022 4:10am
219,6th & Garrison ,Found,,,35.387237,-94.425237,Ft. Smith,AR,Cruisy Area,Cruising Areas,1985,checked,,,,2/14/2022 4:14am
220,'The Block' ,General Coordinates Used,(around Tradewinds Motel),,35.385924,-94.398547,Ft. Smith,AR,Cruisy Area,Cruising Areas,1985,checked,,,,2/14/2022 4:13am
218,Ft. Smith Park,General Coordinates Used,,N. 6th St. ,35.385924,-94.398547,Ft. Smith,AR,Cruisy Area,Cruising Areas,1985,checked,,,,2/14/2022 4:14am
223,DeSoto Park,Found,(T-Room),,34.536275,-93.029602,Hot Springs,AR,"Cruisy Area,(AYOR)",Cruising Areas,1985,checked,,,,2/14/2022 4:18am
222,Bath House Row ,General Coordinates Used,,Central Ave.,34.5037,-93.055179,Hot Springs,AR,Cruisy Area,Cruising Areas,1985,checked,,,,2/14/2022 4:15am
232,Alsop Park ,Found,(AYOR-'Fuzz' crackdown),,34.762634,-92.315196,Little Rock,AR,"Cruisy Area,(AYOR)",Cruising Areas,1985,checked,,,,2/14/2022 4:23am
233,Boyle Park,Found,,,34.731298,-92.355545 ,Little Rock,AR,Cruisy Area,Cruising Areas,1985,checked,,,,2/15/2022 7:01am
234,Burns Park,Found,,N. Little Rock ,34.797696,-92.309918,Little Rock,AR,"Cruisy Area,(AYOR)",Cruising Areas,1985,checked,,,,2/15/2022 7:03am
235,MacArthur Park ,Found,,,34.735846,-92.264886,Little Rock,AR,Cruisy Area,Cruising Areas,1985,checked,,,,2/15/2022 7:07am
236,Movie Park ,Found,('Peep shows'),3500 Asher,34.728235,-92.312977,Little Rock,AR,Cruisy Area,Cruising Areas,1985,checked,,,,2/15/2022 7:09am
237,'Rest Stop',General Coordinates Used,(W. on I-40) (Gazebos),,34.746481,-92.289595,Little Rock,AR,Cruisy Area,Cruising Areas,1985,checked,,,,2/14/2022 4:21am
224,Arkansas Advisor ,General Coordinates Used,(Publication) (501)225-1300,"P.O. Box 4699, Little Rock 72204",34.746481,-92.289595,Little Rock,AR,,Publications,1985,checked,,,,2/14/2022 4:25am
225,Arkansas Gay Writes,General Coordinates Used,(Publication),"P.O. Box 3115, Little Rock",34.746481,-92.289595,Little Rock,AR,,Publications,1985,checked,,,,2/14/2022 4:25am
226,Crisis Center ,General Coordinates Used,(501)664-8834,,34.746481,-92.289595,Little Rock,AR,,Community Center/Support Groups,1985,checked,,,,2/15/2022 7:04am
229,M.C.C.,General Coordinates Used,(501)666-2404,,34.746481,-92.289595,Little Rock,AR,(MCC),Religious Institution,1985,checked,,,,2/15/2022 7:04am
238,'Rest Stop',General Coordinates Used,"(on I-30, Morgan Exit)",, 34.886478,-92.372376,Morgan,AR,Cruisy Area,Cruising Areas,1985,checked,,,,2/15/2022 9:07am
239,'Rest Stop',General Coordinates Used,(on I-40),,35.48703,-93.827696,Ozark,AR,Cruisy Area,Cruising Areas,1985,checked,,,,2/15/2022 8:56am
240,Lake Atlanta ,Found,T-Room,,36.338302,-94.098619,Rogers,AR,Cruisy Area,Cruising Areas,1985,checked,,"Typo, called Lake Atalanta Rogers: https://visitrogersarkansas.com/blogs/lake-atalanta-features-improved-trails-and-facilities",,2/15/2022 9:05am
241,Capri Art Theatre,Found,,, 33.412982,-94.028709,Texarcana,AR,Cruisy Area,"Cruising Areas,Theatre",1985,checked,,found on Cinema Treasures: http://cinematreasures.org/theaters/18712 ,,2/15/2022 8:59am
242,Granada Park ,Found,Clemente at Park ,,34.068202,-118.145728,Alhambra,CA,Cruisy Area,Cruising Areas,1985,checked,,,,2/15/2022 11:49am
243,Kenton Mine Lodge,General Coordinates Used,(916)287-3212,,39.469231,-120.842993,Alleghanny,CA,"(M),(H)",Hotel,1985,checked,,,,3/5/2022 11:09am
244,La Palma Park ,Found,(Summers) (T-Room),,33.84846,-117.922333,Anaheim,CA,"(AYOR),Cruisy Area",Cruising Areas,1985,checked,,,,2/15/2022 9:12am
245,Pearson Park,Found,T-Room,,33.836903,-117.919087,Anaheim,CA,"(AYOR),Cruisy Area",Cruising Areas,1985,checked,,,,2/15/2022 9:14am
255,Beach Park ,Found,,21st & Oak Sts. ,35.379936,-119.040635,Bakersfield,CA,Cruisy Area,Cruising Areas,1985,checked,,,,2/15/2022 9:16am
256,Central Park,Found,,21st & 'R' Sts.,35.374352,-119.008922,Bakersfield,CA,Cruisy Area,Cruising Areas,1985,checked,,,,2/15/2022 9:27am
253,Town Casino ,Found,Hotel Padre,,35.375551,-119.02162,Bakersfield,CA,"(M),(E)","Business,Hotel",1985,checked,,,,2/15/2022 9:29am
249,Town Casino ,Found,Hotel Padre,,35.375551,-119.02162,Bakersfield,CA,"(M),(E)","Business,Hotel",1985,checked,,,,2/15/2022 9:29am
258,Weil Park ,Found,,,35.383413,-119.011125,Bakersfield,CA,Cruisy Area,Cruising Areas,1985,checked,,,,2/15/2022 9:31am
251,Gay & Lesbian Phoneline,General Coordinates Used,(805)397-4189,,35.373292,-119.018712,Bakersfield,CA,,Hotline,1985,checked,,,,2/15/2022 9:28am
257,Greyhound Bus Depot,General Coordinates Used,T-Room,,35.373292,-119.018712,Bakersfield,CA,Cruisy Area,Cruising Areas,1985,checked,,,,2/15/2022 9:29am
263,Aquatic Park ,Found,Campers & vans,,37.859681,-122.298756,Berkeley,CA,Cruisy Area,Cruising Areas,1985,checked,,,,2/15/2022 9:34am
264,Lake Tamescal Park & Beach ,Found,,,37.844054,-122.227332,Berkeley,CA,Cruisy Area,Cruising Areas,1985,checked,,,,2/15/2022 9:36am
267,U. of C. ,Found,T-Room (AYOR) (Tolman Hall Basement ),,37.874104,-122.263891,Berkeley,CA,"Cruisy Area,(AYOR)",Cruising Areas,1985,checked,,,,2/15/2022 9:38am
265,U. of C. ,Found,(Hearst Gym),,37.869593,-122.256686,Berkeley,CA,Cruisy Area,Cruising Areas,1985,checked,,,,2/15/2022 9:38am
266,U. of C.  ,Found,3rd Floor T-Room (Doe Library),,37.872207,-122.259237,Berkeley,CA,Cruisy Area,Cruising Areas,1985,checked,,,,2/15/2022 9:39am
262,White Horse ,Found,(See Oakland),,37.851827,-122.260559,Berkeley,CA,(*),Bars/Clubs,1985,checked,,White Horse Bar Website: https://whitehorsebar.com/  ;article about the nation's second oldest gay bar: https://bancroft.berkeley.edu/collections/gaybears/whitehorse/,,2/15/2022 9:45am
259,Gay Events Tape ,General Coordinates Used,(415)861-1100,,37.871523,-122.273042,Berkeley,CA,,Organization,1985,checked,,,,2/15/2022 9:35am
538,La Cienega Park,Found,behind tennis courts- Beverly Hills ,,34.062182,-118.375702 ,Beverly Hills,CA,Cruisy Area,Cruising Areas,1985,checked,,,,3/5/2022 10:53am
268,Grey Squirrel Cabins ,Found,,"Box 5404, Big Bear Lake 92315",34.238706,-116.94295,Big Bear Lake,CA,"(M),(H)",Hotel,1985,checked,,,,2/15/2022 9:46am
269,Mediterranean Sunset ,General Coordinates Used,(Best Late),Hwy. 18,34.243896,-116.911421,Big Bear Lake,CA,(M),Bars/Clubs,1985,checked,,,,2/15/2022 9:47am
270,'Rest Stop',General Coordinates Used,(on Hwy. 111 N. ),,32.978657,-115.530267,Brawley,CA,Cruisy Area,Cruising Areas,1985,checked,,,,3/6/2022 7:49am
5735,7-Eleven Stores,Found,(Best Late Nights),109 Lambert Rd.,33.925289,-117.896477,Brea,CA,Cruisy Area,Cruising Areas,1985,checked,,,,3/6/2022 7:54am
271,Brea Mall,Found,(T-Rooms),,33.915606,-117.886514,Brea,CA,"Cruisy Area,(AYOR)",Cruising Areas,1985,checked,,,,3/6/2022 7:55am
272,7-Eleven Stores,General Coordinates Used,(Best Late Nights),1200 S. Euclid,33.916475,-117.900292,Brea,CA,Cruisy Area,Cruising Areas,1985,checked,,,,3/6/2022 7:54am
273,Buena Park Mall,Found,(May Cp. T-Room),,33.846378,-117.987244,Buena Park,CA,"Cruisy Area,(AYOR)",Cruising Areas,1985,checked,,,,3/4/2022 4:15am
637,Magnolia Park ,Found,,,34.168273,-118.338889,Burbank,CA,"Cruisy Area,(AYOR)",Cruising Areas,1985,checked,,,,3/6/2022 8:17am
274,'Truck Stop',General Coordinates Used,(on US 101 S. - East Side),,37.57787,-122.34809,Burlingame,CA,"Cruisy Area,(AYOR)",Cruising Areas,1985,checked,,,,2/15/2022 1:46pm
275,Sade's ,Found,(nr. Lincoln),Ocean ,36.555239,-121.923288,Carmel,CA,(M),Bars/Clubs,1985,checked,,,,3/5/2022 10:34am
706,Alligator Grill,General Coordinates Used,(Cat City),68-572 Hwy. 111 ,33.780539,-116.466804,Cathedral City,CA,"(M),(R),(C)",Restaurant,1985,checked,,,,2/21/2022 3:48am
709,BUN'S,General Coordinates Used,(Cat City),68-657 Hwy. 111,33.780539,-116.466804,Cathedral City,CA,"(PT),(WE),(*)",Bars/Clubs,1985,checked,,,,2/21/2022 3:51am
711,C.C. Construction Co.,General Coordinates Used,(Disco)(Liquor)(Flicks) (Cat City),68-449 Perez Rd. ,33.780539,-116.466804,Cathedral City,CA,"(W),(D),(WE),(*)",Bars/Clubs,1985,checked,,,,2/21/2022 3:52am
710,Carriage Trade of the Desert ,General Coordinates Used,(Should be a winner) (Cat City),68-599 Hwy. 111 ,33.780539,-116.466804,Cathedral City,CA,(R),Restaurant,1985,checked,,,,2/21/2022 3:52am
712,Club Palm Springs Baths,General Coordinates Used,(Cat City),68-449 Perez Rd. ,33.780539,-116.466804,Cathedral City,CA,(*),Bathhouses,1985,checked,,,,2/21/2022 3:55am
714,Daddy's Warbuck's,General Coordinates Used,(Disco) (Cat City),68-981 Hwy. 111 ,33.780539,-116.466804,Cathedral City,CA,"(D),(E),(YC),(*)",Bars/Clubs,1985,checked,,Picture of Daddy Warbucks Gay Night Club circa 1985: https://www.flickr.com/photos/65359853@N00/44172675155 ,,2/21/2022 3:55am
722,Desert View Motel,General Coordinates Used,(Cat City),68-560 2nd St. ,33.780539,-116.466804,Cathedral City,CA,(H),Hotel,1985,checked,,,,2/21/2022 3:56am
739,Wild Goose ,General Coordinates Used,(Cat City),67-938 Hwy. 111 ,33.780539,-116.466804,Cathedral City,CA,"(M),(R),(*)",Restaurant,1985,checked,,,,2/21/2022 3:58am
279,Bidwell Park,Found,"(Cedar Grove & upper part, by the river)",,39.810313,-121.722796,Chico,CA,Cruisy Area,Cruising Areas,1985,checked,,,,2/15/2022 1:50pm
277,Gay Hot Line,General Coordinates Used,(916)891-5718,,39.728494,-121.837478,Chico,CA,,Hotline,1985,checked,,,,2/15/2022 1:53pm
284,Austin Beach Park ,Found,T-Room (Clear Lake Highlands),,38.96021,-122.647879,Clear Lake,CA,Cruisy Area,Cruising Areas,1985,checked,,,,2/15/2022 2:03pm
285,Kneeling Park ,Found,(Nice) ( T-Room),,39.121909,-122.855206,Clear Lake,CA,Cruisy Area,Cruising Areas,1985,checked,,,,2/15/2022 2:10pm
286,Library Park ,Found,(Lakeport),,39.043103,-122.913873,Clear Lake,CA,Cruisy Area,Cruising Areas,1985,checked,,,,2/15/2022 2:12pm
287,South Shore Shopping Center ,Found,(Lakeport) (T-Room),,37.756594,-122.251475,Clear Lake,CA,Cruisy Area,Cruising Areas,1985,checked,,,,2/15/2022 2:51pm
288,Vista Point,General Coordinates Used,(Clear Lake Highlands) (Hwy. 20 - T-Room),,39.05819,-122.831015,Clear Lake,CA,Cruisy Area,Cruising Areas,1985,checked,,,,2/15/2022 3:03pm
289,M.C.C.,General Coordinates Used,(415)827-2960,,37.977978,-122.031073 ,Concord,CA,(MCC),Religious Institution,1985,checked,,,,3/6/2022 8:24am
293,Orange Coast College,Found,(Fine Arts T-Rooms),,33.668604,-117.91038,Costa Mesa,CA,"Cruisy Area,(AYOR)",Cruising Areas,1985,checked,,,,2/15/2022 5:51pm
294,South Coast Plaza Shopping Center ,Found,(T-Rooms),,33.68892,-117.88779,Costa Mesa,CA,"Cruisy Area,(AYOR)",Cruising Areas,1985,checked,,,,2/15/2022 5:55pm
291,M.C.C.,General Coordinates Used,,215 E. 23rd,33.663844,-117.904743,Costa Mesa,CA,(MCC),Religious Institution,1985,checked,,,,2/15/2022 3:03pm
293 copy,Orange Coast College,General Coordinates Used,(Men's Phys Ed T-Rooms),,33.671327,-117.911708,Costa Mesa,CA,"Cruisy Area,(AYOR)",Cruising Areas,1985,checked,,,,2/15/2022 5:53pm
297,T-Rooms ,General Coordinates Used,opp. Henry Dana St. Park ,,33.467226,-117.698101,Dana Point,CA,Cruisy Area,Cruising Areas,1985,checked,,,,3/4/2022 4:19am
298,U.C.D.,Found,(4th Floor) (Shields Library),,38.539647,-121.74959,Davis,CA,Cruisy Area,Cruising Areas,1985,checked,,,,2/18/2022 9:51am
299,U.C.D. ,General Coordinates Used,(TB5 Bldg. T-Rooms),,38.538232,-121.761712 ,Davis,CA,Cruisy Area,Cruising Areas,1985,checked,,,,2/18/2022 9:52am
300,Stallion Oak Ranch ,Found,(Resort),"P.O. Box 155, Descanso 92016",32.881859,-116.642473,Descanso,CA,(H),Hotel,1985,checked,,,,2/18/2022 9:54am
301,Dutch Treat,General Coordinates Used,Off Hwy. 80,,39.205959,-120.83781,Dutch Flat,CA,"(M),(R)",Restaurant,1985,checked,,,,3/4/2022 4:20am
938,Grossmont College,Found,(Quad Library) (El Cajon),,32.816944,-117.006295,El Cajon,CA,Cruisy Area,Cruising Areas,1985,checked,,Found using campus directory: https://www.grossmont.edu/visit-grossmont/grossmont-maps-and-directions.php,,2/28/2022 4:39am
939,Grossmont College,Found,(Student Center) (El Cajon),,32.815596,-117.005106,El Cajon,CA,Cruisy Area,Cruising Areas,1985,checked,,Found using campus directory: https://www.grossmont.edu/visit-grossmont/grossmont-maps-and-directions.php,,2/28/2022 4:39am
303,Parkway Plaza Mall,Found,(May Co.),,32.805452,-116.967188,El Cajon,CA,Cruisy Area,Cruising Areas,1985,checked,,,,3/1/2022 5:00am
304,Wells Park ,Found,,,32.799976,-116.942355,El Cajon,CA,Cruisy Area,Cruising Areas,1985,checked,,,,3/1/2022 5:03am
305,Dairy Queen,General Coordinates Used,,,32.792,-115.563051 ,El Centro,CA,Cruisy Area,Cruising Areas,1985,checked,,,,2/18/2022 9:57am
306,Greyhound Bus Depot ,General Coordinates Used,T-Room,,32.792,-115.563051,El Centro,CA,Cruisy Area,Cruising Areas,1985,checked,,,,2/18/2022 9:58am
635,Encino Park ,Found,,,34.159749,-118.502611,Encino,CA,"Cruisy Area,(AYOR)",Cruising Areas,1985,checked,,,,3/6/2022 7:58am
310,Grape Day Park ,Found,(Heritage Section),,33.123954,-117.083381,Escondido,CA,Cruisy Area,Cruising Areas,1985,checked,,,,3/4/2022 4:21am
311,Baths,Found,Thru Bar- closes 12 midnight or 1am),7th & 'A' Sts. ,40.799555,-124.170905,Eureka,CA,"(M),(OC),(PT)","Bars/Clubs,Bathhouses",1985,checked,,,,2/18/2022 10:14am
313,Euerka Boat Bain,Found,(T-Room),,40.803738,-124.177284,Eureka,CA,"Cruisy Area,(AYOR)",Cruising Areas,1985,checked,,,,2/18/2022 10:19am
315,Sequoia Park Zoo,Found,,,40.777042,-124.144658,Eureka,CA,"Cruisy Area,(AYOR)",Cruising Areas,1985,checked,,,,2/18/2022 10:23am
316,Trinidad Beach St. Park,Found,(21 mi. N. of Eureka 'BA' beach - 7/10 min. N. of park entrance ),,41.058433,-124.149553,Eureka,CA,Cruisy Area,Cruising Areas,1985,checked,,,,2/18/2022 10:24am
317,'Truck Stop',General Coordinates Used,( on US 101 S. ),,40.802071,-124.163673 ,Eureka,CA,Cruisy Area,Cruising Areas,1985,checked,,,,2/18/2022 10:14am
312,Driftwood Tavern,General Coordinates Used,,"1st & ""C"" Sts.",40.802071,-124.163673,Eureka,CA,"(D),(L),(PT),(W),(WE),(*)",Bars/Clubs,1985,checked,,,,2/18/2022 10:18am
314,Old Town ,General Coordinates Used,('Night's),,40.802071,-124.163673,Eureka,CA,Cruisy Area,Cruising Areas,1985,checked,,,,2/18/2022 10:20am
319,Coyote Hills Regional Park ,Found,,,37.556629,-122.09406,Fremont,CA,Cruisy Area,Cruising Areas,1985,checked,,,,3/4/2022 4:22am
330,Radio Park,Found,,1st & Clinton,36.771684,-119.773827,Fresno,CA,Cruisy Area,Cruising Areas,1985,checked,,,,2/18/2022 10:26am
331,Roeding Park,Found,,,36.755454,-119.823977,Fresno,CA,Cruisy Area,Cruising Areas,1985,checked,,,,2/18/2022 10:30am
332,Woodward Park ,Found,,,36.872167,-119.78603,Fresno,CA,Cruisy Area,Cruising Areas,1985,checked,,,,2/18/2022 10:30am
333,Cal. St. College,Found,(Library- 6th floor T-Room),,33.884159,-117.884093,Fullerton,CA,Cruisy Area,Cruising Areas,1985,checked,,,,2/18/2022 10:36am
346,'Rest Stops' ,Found,(on US 101 (both N. & S.)),,34.473356,-120.229478,Gaviota State Beach,CA,Cruisy Area,Cruising Areas,1985,checked,,,,3/6/2022 7:49am
345,"Campground, showers & R.R. bridge",Found,,,34.473356,-120.229478,Gaviota State Beach,CA,Cruisy Area,Cruising Areas,1985,checked,,,,3/6/2022 7:50am
355,Maze Stone County Park,Found,(4 1/2 mi. W. on Hwy. 74),,33.781393,-117.056477,Hemet,CA,Cruisy Area,Cruising Areas,1985,checked,,,,2/18/2022 10:41am
356,'Rest Stop' ,General Coordinates Used,(on I-280 just N. of Bunker Hill Dr. exit),,37.574103,-122.379416 ,Hillsborough,CA,Cruisy Area,Cruising Areas,1985,checked,,,,2/18/2022 10:45am
483,Griffith Park near Golf course & Ferndale Loop parking lot ,Found,near Golf course & Ferndale Loop parking lot ,,34.136554,-118.2942,Hollywood,CA,"(AYOR),Cruisy Area",Cruising Areas,1985,checked,,,,2/20/2022 7:31am
485,L.A.C.C.,Found,(Downstairs T-Room) (DaVinci Hall),,34.086507,-118.292767,Hollywood,CA,Cruisy Area,Cruising Areas,1985,checked,,,,2/20/2022 7:43am
486,Sunset Blvd. ,Found,(Hitch hikers W. of Highland),,34.080667,-118.413141,Hollywood,CA,Cruisy Area,Cruising Areas,1985,checked,,,,4/27/2022 5:30pm
484,Hollywood Blvd. ,General Coordinates Used,"Walking, hitch-hiking or by car, from Highland to Vermont ",,34.101592,-118.333351,Hollywood,CA,"(AYOR),Cruisy Area",Cruising Areas,1985,checked,,,,2/20/2022 7:47am
476,Roomate Matchers,General Coordinates Used,(213)655-5944,,34.092809,-118.328661,Hollywood,CA,,Organization,1985,checked,,,,2/20/2022 7:58am
537,Beverly Center,Found,,,34.075171,-118.377355,Hollywood West,CA,Cruisy Area,Cruising Areas,1985,checked,,,,3/5/2022 10:42am
531,Studio One ,Found,(Disco) (betw. Santa Monica & Melrose),652 La Peer,34.082553,-118.386339,Hollywood West,CA,"(YC),(D),(*)",Bars/Clubs,1985,checked,,,,3/5/2022 10:58am
496,Compass,General Coordinates Used,(Publication) (213)874-4838,"P.O. Box 1586, Hollywood 90028",34.090009,-118.361744,Hollywood West,CA,,Publications,1985,checked,,,,3/5/2022 10:42am
539,Melrose Ave.,General Coordinates Used,around Drake Theatre ,,34.090009,-118.361744,Hollywood West,CA,"Cruisy Area,(AYOR)",Cruising Areas,1985,checked,,,,3/5/2022 10:55am
540,Robertson Blvd. ,General Coordinates Used,(Days),,34.090009,-118.361744,Hollywood West,CA,Cruisy Area,Cruising Areas,1985,checked,,,,3/5/2022 10:55am
542,Santa Monica Blvd.,General Coordinates Used,('Boys'Town'- near the Four Star),,34.090009,-118.361744,Hollywood West,CA,Cruisy Area,Cruising Areas,1985,checked,,,,3/5/2022 10:57am
541,Santa Monica Blvd. ,General Coordinates Used,(Hitch-hikers betw. Vermont & Beverly Hills),,34.090009,-118.361744,Hollywood West,CA,Cruisy Area,Cruising Areas,1985,checked,,Known as 'Boys Town': https://web.wehochamber.com/community/santa_monica_boulevard_historic_boys_town.aspx,,3/5/2022 10:57am
359,Salt Lake Park,Found,,,33.974311,-118.205635,Huntington Park,CA,Cruisy Area,Cruising Areas,1985,checked,,,,3/4/2022 4:22am
360,Greyhound Bus Depot,General Coordinates Used,,,33.720577,-116.215562,Indio,CA,Cruisy Area,Cruising Areas,1985,checked,,,,2/18/2022 10:47am
378,Heisler Park ,Found,,,33.543401,-117.790111,Laguna Beach,CA,"Cruisy Area,(AYOR)",Cruising Areas,1985,checked,,,,2/18/2022 10:55am
380,Jack in the Box ,Found,,1200 S. Coast Hwy. ,33.533329,-117.775955,Laguna Beach,CA,Cruisy Area,Cruising Areas,1985,checked,,,,2/18/2022 11:01am
381,Mountain Beach & steps by Coast Inn,Found,,,33.531155,-117.775497,Laguna Beach,CA,"Cruisy Area,(AYOR)",Cruising Areas,1985,checked,,,,2/18/2022 11:09am
382,Village Faire Mall,Found,(T-rooms),,33.533864,-117.776413,Laguna Beach,CA,Cruisy Area,Cruising Areas,1985,checked,,,,2/18/2022 11:12am
379,'Hitch-hikers' ,General Coordinates Used,on Coast Hwy. from Broadway to Bluebird Canyon Rd. ,,33.542719,-117.785357,Laguna Beach,CA,Cruisy Area,Cruising Areas,1985,checked,,,,2/18/2022 10:49am
373,Newport Station ,General Coordinates Used,(Disco) (See Costa Mesa),,33.542719,-117.785357,Laguna Beach,CA,(*),Bars/Clubs,1985,checked,,,,2/18/2022 11:10am
383,West St. Beach ,General Coordinates Used,"(nr. Laguna Royal Motel, S. Laguna)",,33.542719,-117.785357,Laguna Beach,CA,"Cruisy Area,(M)",Cruising Areas,1985,checked,,,,2/18/2022 11:14am
384,Laguna Hills Mall,Found,,,33.610189,-117.707538,Laguna Hills,CA,Cruisy Area,Cruising Areas,1985,checked,,,,3/5/2022 11:10am
385,Monaco Motel ,Found,(S. Lake Tahoe)(916)544-4300,Stateline & Pine ,38.960777,-119.945911,Lake Tahoe,CA,"(M),(H)",Hotel,1985,checked,,,,2/18/2022 11:24am
386,Sierra Wood Guest House ,General Coordinates Used,(916)577-6073,"P.O. Box 11194, Tahoe Paradise 95708",39.096849,-120.032351,Lake Tahoe,CA,"(H),(*)",Hotel,1985,checked,,,,2/19/2022 11:16am
387,Stewart's Compound ,General Coordinates Used,(Skier's guest house) Call (916)583-4697 or S.F.: (415)567-2693,,39.096849,-120.032351,Lake Tahoe,CA,(H),Hotel,1985,checked,,,,2/19/2022 11:16am
431,Abalone Cove,Found,(Palos Verdes Peninsula- steps nr. Church),,33.742537,-118.379188,Long Beach,CA,Cruisy Area,Cruising Areas,1985,checked,,,,2/19/2022 11:24am
432,Cherry St. Park & Beach ,Found,,,33.762188,-118.164749,Long Beach,CA,"Cruisy Area,(AYOR)",Cruising Areas,1985,checked,,,,2/19/2022 11:36am
436,Granada Beach & parking lot,Found,,,33.754667,-118.139058,Long Beach,CA,"Cruisy Area,(AYOR)",Cruising Areas,1985,checked,,,,2/19/2022 4:29pm
437,Hartwell Park ,Found,,,33.831305,-118.119922,Long Beach,CA,"Cruisy Area,(AYOR)",Cruising Areas,1985,checked,,,,2/19/2022 4:34pm
438,Houghton Park ,Found,(N. Long Beach) (T-Rooms),,33.869693,-118.183485,Long Beach,CA,Cruisy Area,Cruising Areas,1985,checked,,,,2/19/2022 4:36pm
439,Marine Stadium,Found,T-Room,,33.767906,-118.130489,Long Beach,CA,"Cruisy Area,(AYOR)",Cruising Areas,1985,checked,,,,2/19/2022 4:38pm
441,Recreation Park ,Found,(at 7th & Park Ave.) ,,33.774956,-118.135192,Long Beach,CA,"Cruisy Area,(AYOR)",Cruising Areas,1985,checked,,,,2/19/2022 4:39pm
421,Silver fox,Found,(Castro-like cruise bar) (at 4th),411 Redondo ,33.772036,-118.152581,Long Beach,CA,(*),Bars/Clubs,1985,checked,,,,2/19/2022 5:01pm
426,Tee Cee's ,Found,(Liquor) (nr. Atlantic),558 Willow ,33.804151,-118.185349,Long Beach,CA,"(R),(E),(WE),(*)",Restaurant,1985,checked,,,,2/20/2022 7:23am
440,'Milk Run',General Coordinates Used,Starts at Lincoln Park (Ocean & Pacific),,33.77005,-118.193739 ,Long Beach,CA,Cruisy Area,Cruising Areas,1985,checked,,,,2/19/2022 11:20am
434,C.S.U. Long Beach,General Coordinates Used,(2nd Floor) (SB-1),,33.783824,-118.11409,Long Beach,CA,Cruisy Area,Cruising Areas,1985,checked,,,,2/19/2022 11:29am
433,C.S.U. Long Beach,General Coordinates Used,(2nd & 4th floors) (SC 1),,33.783824,-118.11409,Long Beach,CA,Cruisy Area,Cruising Areas,1985,checked,,,,2/19/2022 11:29am
435,C.S.U. Long Beach FA4,General Coordinates Used,(2nd & 4th floors),,33.783824,-118.11409,Long Beach,CA,Cruisy Area,Cruising Areas,1985,checked,,,,2/19/2022 11:30am
397,Dignity ,General Coordinates Used,,"P.O. Box 15037, Long Beach 90815",33.77005,-118.193739,Long Beach,CA,,Religious Institution,1985,checked,,,,2/19/2022 4:12pm
398,Directory ,General Coordinates Used,(Publication),"P.O. Box 2868, Long Beach 90801",33.77005,-118.193739,Long Beach,CA,,Publications,1985,checked,,,,2/19/2022 4:12pm
1259,Cabrillo Beach,Found,T-Room,,33.71101,-118.283293,Los Angeles,CA,Cruisy Area,Cruising Areas,1985,checked,,,,3/4/2022 3:23am
1260,Devereux Beach,Found,T-Room,,33.71101,-118.283293,Los Angeles,CA,Cruisy Area,Cruising Areas,1985,checked,,,,3/4/2022 3:24am
636,Griffith Park,Found,Sonora& Victory,,34.132802,-118.280499,Los Angeles,CA,Cruisy Area,Cruising Areas,1985,checked,,,,3/6/2022 8:10am
654,Vasona Lake County Park,Found,(Days) ( T-Rooms),,37.234709,-121.972874,Los Gatos,CA,Cruisy Area,Cruising Areas,1985,checked,,,,2/20/2022 8:53am
656,Ellis Lake ,Found,(T-Rooms),,39.146766,-121.588173,Marysville,CA,Cruisy Area,Cruising Areas,1985,checked,,,,2/20/2022 8:57am
657,River Front Park ,Found,,,39.14156,-121.604105,Marysville,CA,Cruisy Area,Cruising Areas,1985,checked,,,,2/20/2022 8:58am
658,Seagull Inn,Found,,Lansing & Ukiah ,39.306014,-123.797836,Mendocino,CA,"(M),(H)",Hotel,1985,checked,,,,2/20/2022 9:03am
660,Saddleback College S. Campus,Found,(Fine Arts Bldg. (1st floor) T-Rooms),,33.552424,-117.666322,Mission Viejo,CA,Cruisy Area,Cruising Areas,1985,checked,,,,3/4/2022 4:28am
659,Saddleback College S. Campus,Found,(Science Math Bldg. (3rd Floor) T-Rooms),,33.553689,-117.66631,Mission Viejo,CA,Cruisy Area,Cruising Areas,1985,checked,,,,3/4/2022 4:28am
5738,Adult Book Store,Found,,1245 McHenry,37.662066,-120.994325,Modesto,CA,,Book Store,1985,checked,,,,3/5/2022 10:36am
661,Adult Book Store,Found,,1313 McHenry,37.662316,-120.994488,Modesto,CA,,Book Store,1985,checked,,,,3/5/2022 10:36am
667,Ultimate Book Store,Found,,Kansas St. ,37.63926,-120.997001,Modesto,CA,,Book Store,1985,checked,,,,3/5/2022 10:37am
672,Garrapata Beach,Found,(Carmel) ('BA' Beach- N. end- 9.3 mi. S. of Rio Rd.(Carmel) on Hwy. 1),,36.422101,-121.914599,Monterey,CA,Cruisy Area,Cruising Areas,1985,checked,,,,2/20/2022 9:10am
673,Wharf #2 ,Found,(Nights),,36.602037,-121.889784,Monterey,CA,Cruisy Area,Cruising Areas,1985,checked,,,,2/20/2022 9:11am
677,Morro Rock ,Found,(& other T-Rooms along the Embarcadero to southern boat launch) (Nights- late WE) ,,35.369419,-120.86768,Morro Bay,CA,Cruisy Area,Cruising Areas,1985,checked,,,,3/4/2022 4:29am
678,PG & E plant ,Found,(Dunes behind),,35.365945,-120.849992,Morro Bay,CA,"Cruisy Area,(WE)",Cruising Areas,1985,checked,,New article about closing: https://www.sanluisobispo.com/news/local/news-columns-blogs/photos-from-the-vault/article252188613.html,,3/4/2022 4:32am
640,Valley Plaza Park ,Found,(T-Room),,34.191906,-118.400964,North Hollywood,CA,Cruisy Area,Cruising Areas,1985,checked,,,,3/6/2022 8:20am
694,Lake Merritt ,Found,(Avoid nights),,37.801239,-122.258299,Oakland,CA,"(AYOR),Cruisy Area",Cruising Areas,1985,checked,,,,2/20/2022 9:14am
697,Beach,Found,from Pier S. to T-Rooms,,33.195369,-117.384897,Oceanside,CA,"Cruisy Area,(AYOR)",Cruising Areas,1985,checked,,,,2/21/2022 3:30am
699,'Hitch-hikers' ,General Coordinates Used,on Hill St.,,33.19587,-117.379483,Oceanside,CA,Cruisy Area,Cruising Areas,1985,checked,,,,2/20/2022 9:15am
700,'Rest Stops' ,General Coordinates Used,"(on I-5, 7 mi. N.- Both sides, bushes after dark )",,33.19587,-117.379483,Oceanside,CA,Cruisy Area,Cruising Areas,1985,checked,,,,2/20/2022 9:15am
698,Bus depot,General Coordinates Used,,,33.19587,-117.379483,Oceanside,CA,Cruisy Area,Cruising Areas,1985,checked,,,,2/21/2022 3:31am
701,Union 76 truck stop,Found,(I.10 opp. Ontario Speedway),,34.065437,-117.56142,Ontario,CA,Cruisy Area,Cruising Areas,1985,checked,,,,2/21/2022 3:32am
724,Gaf ,Found,"(Some L,YC)(Disco) (at Cathedral)",68-555 Ramon Rd. ,33.830296,-116.545292,Palm Springs,CA,"(L),(YC),(D),(PT),(WE),(*)",Bars/Clubs,1985,checked,,,,2/22/2022 6:31am
732,Rhinoceros Cafe,Found,Dave's Villa Caprice ,,33.830296,-116.545292,Palm Springs,CA,(R),Restaurant,1985,checked,,,,2/22/2022 6:42am
742,Ruth Hardy Park,Found,,,33.834994,-116.538993,Palm Springs,CA,Cruisy Area,Cruising Areas,1985,checked,,,,2/22/2022 6:44am
740,'Cruisy Jacuzzi' suana & bushes at Desert Palms ,General Coordinates Used,(Late),,33.894667,-116.615475,Palm Springs,CA,Cruisy Area,Cruising Areas,1985,checked,,,,4/27/2022 5:52pm
717,Desert Business Assn. ,General Coordinates Used,,"P.O. Box 773, P.S. 92263",33.830296,-116.545292,Palm Springs,CA,,Organization,1985,checked,,,,2/21/2022 4:02am
718,Desert Community Outreach ,General Coordinates Used,,"P.O. Box 8274, P.S. 92263",33.830296,-116.545292,Palm Springs,CA,,Community Center/Support Groups,1985,checked,,,,2/21/2022 4:02am
741,Golf course & orchards at Lost World,General Coordinates Used,(Late),,33.830296,-116.545292,Palm Springs,CA,Cruisy Area,Cruising Areas,1985,checked,,,,2/22/2022 6:31am
737,The Bottom Line,General Coordinates Used,(Publication) (619)323-0552,,33.830296,-116.545292,Palm Springs,CA,,Publications,1985,checked,,,,2/22/2022 7:05am
747,Stanford Shopping Mall,Found,,,37.443498,-122.170994,Palo Alto,CA,Cruisy Area,Cruising Areas,1985,checked,,,,2/22/2022 7:10am
753,Vicinity of City Hall,Found,,,34.147692,-118.14327,Pasadena,CA,Cruisy Area,Cruising Areas,1985,checked,,,,2/22/2022 7:20am
761,Ganesha Park ,Found,,,34.076281,-117.760531,Pomona,CA,"Cruisy Area,(AYOR)",Cruising Areas,1985,checked,,,,2/22/2022 7:22am
762,Garfield Park ,Found,,,34.063327,-117.733855,Pomona,CA,"Cruisy Area,(AYOR)",Cruising Areas,1985,checked,,,,2/22/2022 7:49am
763,Pozo Saloon,Found,(WE & Sun. brunch)  of Santa Margarita ,Pozo Rd. E.,35.303853,-120.375729,Pozo,CA,"(M),(OC),(WE)",Bars/Clubs,1985,checked,,Still operating but temporarily closed: https://www.facebook.com/pozosaloon1/,,3/6/2022 8:32am
735,Sebastian's ,General Coordinates Used,Lost World Resort,,33.739744,-116.41279,Rancho Mirage,CA,"(*),(R)",Restaurant,1985,checked,,,,2/22/2022 6:49am
764,Park along river ,Found,(Early evenings),,40.174536,-122.229586,Red Bluff,CA,Cruisy Area,Cruising Areas,1985,checked,,,,2/22/2022 7:53am
771,Hotel Redding ,Found,T-Room,,40.581629,-122.389893,Redding,CA,Cruisy Area,"Cruising Areas,Hotel",1985,checked,,,,3/4/2022 4:37am
768,Clear Creek Rd.,General Coordinates Used,(Summers) (4 mi. of E. of old 99) ('BA' beach),,40.58654,-122.391675,Redding,CA,Cruisy Area,Cruising Areas,1985,checked,,,,3/4/2022 4:35am
769,Greyhound Bus Depot ,General Coordinates Used,,,40.58654,-122.391675,Redding,CA,Cruisy Area,Cruising Areas,1985,checked,,,,3/4/2022 4:35am
770,Hilltop Dr.,General Coordinates Used,"Adult Book Store parking lot, opp. Shasta Inn",,40.58654,-122.391675,Redding,CA,Cruisy Area,"Cruising Areas,Book Store",1985,checked,,,,3/4/2022 4:35am
772,Sylvan Park,Found,,,34.059933,-117.168018,Redlands,CA,"Cruisy Area,(AYOR)",Cruising Areas,1985,checked,,,,3/6/2022 8:33am
776,Alondra Park ,Found,,, 33.882886,-118.339748,Redondo Beach,CA,Cruisy Area,Cruising Areas,1985,checked,,,,2/22/2022 7:58am
777,Beach opp. City Hall,General Coordinates Used,,,33.845114,-118.388513,Redondo Beach,CA,Cruisy Area,Cruising Areas,1985,checked,,,,2/22/2022 8:05am
779,Calvary M.C.C.,Found,(415)368-0188,2124 Brewster Ave. ,37.480131,-122.245492,Redwood City,CA,(MCC),Religious Institution,1985,checked,,,,2/22/2022 8:06am
780,Copper Shield ,Found,El Camino Real & Roosevelt,,37.479094,-122.224993,Redwood City,CA,"(M),(R),(C),(AH)",Restaurant,1985,checked,,,,5/20/2022 3:02pm
638,Reseda Park ,Found,,,34.187287,-118.533514,Reseda,CA,"Cruisy Area,(AYOR)",Cruising Areas,1985,checked,,,,3/6/2022 8:18am
788,'The Grove',Found,(S. end of Evans Lake),,33.994289,-117.377887,Riverside,CA,Cruisy Area,Cruising Areas,1985,checked,,,,4/27/2022 6:10pm
786,Fairmont Park ,Found,,,33.995062,-117.381194,Riverside,CA,"Cruisy Area,(AYOR)",Cruising Areas,1985,checked,,,,2/23/2022 2:22pm
789,Tyler Mall,Found,(J.C. Penny T-Room),,33.910116,-117.457559,Riverside,CA,Cruisy Area,Cruising Areas,1985,checked,,,,2/23/2022 2:39pm
787,Greyhound Bus Depot ,General Coordinates Used,T-Room,,33.980601,-117.375494,Riverside,CA,Cruisy Area,Cruising Areas,1985,checked,,,,2/23/2022 2:26pm
790,U.C.R.,General Coordinates Used,(Phys. Ed. Bldg. T-Rooms),,33.973706,-117.328064 ,Riverside,CA,Cruisy Area,Cruising Areas,1985,checked,,,,4/27/2022 6:11pm
791,Blue Heron,Found,(Duncan Mills),Hwy. 116,38.45169,-123.05192,Russian River,CA,"(M),(R)",Restaurant,1985,checked,,,,2/23/2022 3:11pm
815,'BA' beach ,General Coordinates Used,on Russian River at Wohler Bridge ,,38.911632,-123.011048,Russian River,CA,Cruisy Area,Cruising Areas,1985,checked,,,,2/23/2022 3:07pm
793,Camelot Resort,General Coordinates Used,(Guerenville),4th & Mill,38.501858,-122.99611,Russian River,CA,"(H),(M)",Hotel,1985,checked,,,,2/24/2022 6:56am
795,Drums,General Coordinates Used,(Disco) (Opp. Fife's),,38.911632,-123.011048,Russian River,CA,"(YC),(D)",Bars/Clubs,1985,checked,,,,2/24/2022 6:57am
804,Paradise Cove,General Coordinates Used,(Guerneville),Armstrong Woods Road,38.501858,-122.99611,Russian River,CA,"(M),(H)",Hotel,1985,checked,,,,2/24/2022 6:58am
806,Riverbend Campground ,General Coordinates Used,"(Camping, RV's, beach)(Forestville)",River Road ,38.911632,-123.011048,Russian River,CA,,Hotel,1985,checked,,,,2/24/2022 7:00am
808,Russian River Resort,General Coordinates Used,(Triple R)(Pool & Jacuzzi)(Guerneville),Mill & 4th ,38.911632,-123.011048,Russian River,CA,,Hotel,1985,checked,,,,2/24/2022 7:11am
810,Stumptown Annie's Pizza,General Coordinates Used,(Guerneville),Main St. ,38.501858,-122.99611,Russian River,CA,"(R),(M)",Restaurant,1985,checked,,Owned by Leonard Matlovich: https://www.queermusicheritage.com/oct2003l.html,,2/24/2022 7:11am
811,Village Inn,General Coordinates Used,(R & bar) (River Road),P.O. Box 850 Monte Rio 95462,38.911632,-123.011048,Russian River,CA,"(M),(H),(R)","Restaurant,Bars/Clubs",1985,checked,,,,2/24/2022 7:11am
812,Wildwood Ranch ,General Coordinates Used,(Resort)(Pool- 2-day min.) (707)632-5321,"P.O. Box 78, Guerneville 95446",38.501858,-122.99611,Russian River,CA,,Hotel,1985,checked,,,,2/24/2022 7:12am
841,Beach ,Found,(nr. end of N. 10th & Richards at jct. of American & Sacramento Rivers),,38.600118,-121.484667,Sacramento,CA,Cruisy Area,Cruising Areas,1985,checked,,,,4/27/2022 6:15pm
844,Days Inn,Found,(Pool Area),,38.597612,-121.505078,Sacramento,CA,Cruisy Area,Cruising Areas,1985,checked,,"According to Google, this hotel is now closed",,2/26/2022 8:08am
845,Del Paso Park,Found,(Parking area off Auburn Blvd.),,38.641992,-121.375585,Sacramento,CA,Cruisy Area,Cruising Areas,1985,checked,,,,2/26/2022 8:14am
846,Discovery Park ,Found,(Bryte),,38.605763,-121.50348,Sacramento,CA,Cruisy Area,Cruising Areas,1985,checked,,,,2/26/2022 8:17am
830,Mercantile Saloon,Found,(Some OC)(Liquor),20th & 'L' Sts. ,38.574494,-121.480851,Sacramento,CA,"(OC),(*)",Bars/Clubs,1985,checked,,,,2/26/2022 8:33am
849,Miller Park ,Found,,,38.567091,-121.516276,Sacramento,CA,Cruisy Area,Cruising Areas,1985,checked,,,,2/26/2022 8:34am
832,Our Community United Box,Found,,"Box 161784, Sacto. 95816",38.568729,-121.307009,Sacramento,CA,,Organization,1985,checked,,,,2/26/2022 8:41am
850,Paradise Beach on American River,Found,,,38.58126,-121.423108,Sacramento,CA,Cruisy Area,Cruising Areas,1985,checked,,,,2/26/2022 8:46am
838,Stumble Inn,Found,(Neighborhood),4720 El Camino & Mission,38.609081,-121.354431,Sacramento,CA,(C&W),Bars/Clubs,1985,checked,,,,2/26/2022 8:53am
827,'K' Street ,General Coordinates Used,(Disco)(C-AH-WE),20th & 'K' Sts. ,38.581572,-121.4944,Sacramento,CA,"(*),(D),(R),(C),(AH),(WE)",Restaurant,1985,checked,,,,2/24/2022 7:19am
848,'Lavender Heights',General Coordinates Used,21st St. betw. 'I' & 'S' Sts. ,,38.581572,-121.4944,Sacramento,CA,Cruisy Area,Cruising Areas,1985,checked,,"According to this blog, ""Lavender Heights"" is the name given to Sacramento's gay community: https://localwiki.org/sac/Lavender_Heights",,2/24/2022 7:21am
842,Cal. St. University,General Coordinates Used,(English Bldg. T-Rooms),,38.558459,-121.423557,Sacramento,CA,Cruisy Area,Cruising Areas,1985,checked,,,,2/26/2022 7:59am
843,Cal. St. University,General Coordinates Used,(Humanities T-Rooms),,38.558459,-121.423557,Sacramento,CA,Cruisy Area,Cruising Areas,1985,checked,,,,2/26/2022 7:58am
822,Dignity ,General Coordinates Used,(Church),"P.O. Box 161765, Sacto. 95816",38.581572,-121.4944,Sacramento,CA,MCC,Religious Institution,1985,checked,,,,4/27/2022 6:18pm
847,Greyhound bus Depot,General Coordinates Used,,,38.581572,-121.4944,Sacramento,CA,Cruisy Area,Cruising Areas,1985,checked,,,,2/26/2022 8:26am
826,Incredible Edible ,General Coordinates Used,,Alhambra & 'N' Sts. & 2990 Bradshaw ,38.581572,-121.4944,Sacramento,CA,"(M),(R)",Restaurant,1985,checked,,,,2/26/2022 8:30am
833,Patlar Gayzette ,General Coordinates Used,(Publication),"P.O. Box 22402, Sacto. 95822",38.581572,-121.4944,Sacramento,CA,,Publications,1985,checked,,,,2/26/2022 8:50am
835,River City Business Assn. ,General Coordinates Used,,"Box 160696, Sacto. 95816",38.581572,-121.4944,Sacramento,CA,,Organization,1985,checked,,,,2/26/2022 8:52am
836,Sacramento Star,General Coordinates Used,(Publication),"P.O. Box 160300, Sacto. 95816",38.581572,-121.4944,Sacramento,CA,,Publications,1985,checked,,,,2/26/2022 8:52am
839,Tower Books & Theatre,General Coordinates Used,,Broadway & 16th ,38.581572,-121.4944,Sacramento,CA,,"Book Store,Theatre",1985,checked,,,,2/26/2022 9:13am
862,Cal. State U.,Found,(2nd Floor) (S.B Library T-Room),,34.1826,-117.324092,San Bernardino,CA,Cruisy Area,Cruising Areas,1985,checked,,,,2/28/2022 3:42am
863,Central City Mall,Found,(Penney's T-Room),,34.103437,-117.296339,San Bernardino,CA,Cruisy Area,Cruising Areas,1985,checked,,"According to Google, this mall was permanently closed in 2017",,2/28/2022 3:44am
864,'Rest Stop' ,General Coordinates Used,(N.side) (on I-10 nr. Fontana),,34.108345,-117.289765,San Bernardino,CA,"Cruisy Area,(AYOR)",Cruising Areas,1985,checked,,,,2/28/2022 3:38am
854,Adult Book Store ,General Coordinates Used,(nr. 10th),Baseline ,34.108345,-117.289765,San Bernardino,CA,,Book Store,1985,checked,,,,2/28/2022 3:42am
865,Texaco Truck Stop,General Coordinates Used,"( I-10, E. of I-15 E. )",,34.108345,-117.289765,San Bernardino,CA,"Cruisy Area,(AYOR)",Cruising Areas,1985,checked,,,,2/28/2022 3:45am
866,San Onofre Beach State Park,Found,('BA' area at N. end of Camp Pendleton),,33.372808,-117.565601,San Clemente,CA,Cruisy Area,Cruising Areas,1985,checked,,,,2/28/2022 3:46am
867,Senda de La Playa Beach,Found,(nr. T-Rooms),,33.951792,-118.448844,San Clemente,CA,Cruisy Area,Cruising Areas,1985,checked,,,,2/28/2022 3:49am
896,'F' St. Bookshore,Found,(4th & 'F' and 2004 University),,32.713615,-117.161049,San Diego,CA,(*),Book Store,1985,checked,,,,2/28/2022 3:50am
934,Balboa Park ,Found,(AYOR-nights) (nr. 6th & Laurel),,32.734148,-117.144553,San Diego,CA,"Cruisy Area,(AYOR)",Cruising Areas,1985,checked,,,,2/28/2022 3:59am
876,Brass Rail ,Found,(Liquor),3796 5th & Robinson ,32.74683,-117.160739,San Diego,CA,"(D),(S),(WE),(*)",Bars/Clubs,1985,checked,,,,2/28/2022 4:10am
882,Club,Found,(Liquor)(Many L)(Sun. S)(Intimate patio bar) (at Laurel),2501 Kettner ,32.73028,-117.171763,San Diego,CA,"(L),(S),(*)",Bars/Clubs,1985,checked,,,,4/28/2022 4:47am
935,Fashion Valley Shopping Center,Found,,,32.768118,-117.166728,San Diego,CA,Cruisy Area,Cruising Areas,1985,checked,,,,2/28/2022 4:20am
936,Food Basket Market ,Found,"((aka 'Cruise Basket'), University nr. 'F')",,32.748078,-117.140354 ,San Diego,CA,Cruisy Area,Cruising Areas,1985,checked,,"According to this website, this is where the Food Basket was located in 1980: https://www.groceteria.com/place/california/san-diego/san-diego-chain-grocerysupermarket-locations-1925-1980/",,2/28/2022 4:29am
943,Mayfair Market ,Found, ('Gayfair') (Open 24 hrs.),5th & Robinson,32.746961,-117.160405,San Diego,CA,Cruisy Area,Cruising Areas,1985,checked,,,,2/28/2022 4:44am
944,Mission Valley Shopping Center,Found,,,32.76839,-117.148411,San Diego,CA,Cruisy Area,Cruising Areas,1985,checked,,,,2/28/2022 4:45am
945,Pacific Beach ,Found,(Nights),,,,San Diego,CA,Cruisy Area,Cruising Areas,1985,checked,,,,2/28/2022 4:47am
946,Presidio Park,Found,(Old Town) (nr. Taylor),,32.757704,-117.194589,San Diego,CA,"Cruisy Area,(OC)",Cruising Areas,1985,checked,,,,2/28/2022 5:03am
926,Teddy's ,Found,(at Hillcrest),441 University ,32.748166,-117.160941 ,San Diego,CA,"(R),(WE),(AH)",Restaurant,1985,checked,,,,3/1/2022 4:27am
949,Torry Pines Beach State Park,Found,(Black's 'BA' Beach- A half hour walk from parking lot to base of golf course ),,32.933677,-117.260678,San Diego,CA,Cruisy Area,Cruising Areas,1985,checked,,,,3/1/2022 4:29am
941,'Hitch-hikers',General Coordinates Used,(along El Cajon) (nr. S.D. State Univ.),,32.715738,-117.161084,San Diego,CA,Cruisy Area,Cruising Areas,1985,checked,,,,2/28/2022 3:53am
942,'Hitch-hikers' ,General Coordinates Used,(Sailors) along Rosecrans,,32.715738,-117.161084,San Diego,CA,Cruisy Area,Cruising Areas,1985,checked,,,,2/28/2022 3:53am
933,Adams Ave. ,General Coordinates Used,(From 35th St. W. to Park),,32.715738,-117.161084,San Diego,CA,Cruisy Area,Cruising Areas,1985,checked,,,,2/28/2022 3:58am
885,Condor,General Coordinates Used,"(Charter tours, etc.) (Double Deck Bus Co.)","P.O. Box 19397, San Diego, 92116",32.715738,-117.161084,San Diego,CA,,Business,1985,checked,,,,2/28/2022 4:17am
892,Dignity ,General Coordinates Used,(Church),"P.O. Box 33367, San Diego 92103",32.715738,-117.161084,San Diego,CA,,Religious Institution,1985,checked,,,,2/28/2022 4:17am
893,Disco Pizza,General Coordinates Used,(Next to Mr.Dillons),,32.715738,-117.161084,San Diego,CA,"(M),(R)",Restaurant,1985,checked,,"According to this article from the L.A Times, this pizza parlor was somewhere on the block of University Avenue: https://www.latimes.com/archives/la-xpm-1985-04-02-me-19368-story.html",,2/28/2022 4:19am
937,Greyhound Bus Depot,General Coordinates Used,,,32.715738,-117.161084,San Diego,CA,Cruisy Area,Cruising Areas,1985,checked,,,,2/28/2022 4:30am
940,Hillcrest Area & University Ave.,General Coordinates Used,(from 4th Ave. to 35th Ave. ),,32.747864,-117.164709,San Diego,CA,Cruisy Area,Cruising Areas,1985,checked,,,,2/28/2022 4:40am
910,Lesbian & Gay Comm. Center,General Coordinates Used,(619)692-4297,,32.715738,-117.161084,San Diego,CA,,Community Center/Support Groups,1985,checked,,,,2/28/2022 4:41am
947,San Diego State U.,General Coordinates Used,(Music Speech Bldg. (2nd floor),,32.775989,-117.071253,San Diego,CA,Cruisy Area,Cruising Areas,1985,checked,,,,3/1/2022 4:24am
948,San Diego State U. ,General Coordinates Used,(Library (T-rooms),,32.775989,-117.071253,San Diego,CA,Cruisy Area,Cruising Areas,1985,checked,,,,3/1/2022 4:24am
950,Trolley stations on 'C' St. ,General Coordinates Used,,,32.715738,-117.161084,San Diego,CA,Cruisy Area,Cruising Areas,1985,checked,,,,3/1/2022 4:48am
928,Update,General Coordinates Used,(Publication),"P.O. Box 7762, S.D. 92107",32.715738,-117.161084,San Diego,CA,,Publications,1985,checked,,,,3/1/2022 4:51am
1021,'Hibernia Beach',Found,,18th & Castro,37.760715,-122.435636 ,San Francisco,CA,Cruisy Area,Cruising Areas,1985,checked,,Noted to be at the corner of Castro and 18th St. near what is now the GLBT Historical Society Museum: http://sfbaytimes.com/life-and-loss-at-hibernia-beach-in-the-castro/,,3/6/2022 4:31pm
1070,Alamo Square Saloon,Found,(Casa Loma Hotel) (at fell),600 Fillmore,37.775083,-122.430834,San Francisco,CA,,"Bars/Clubs,Hotel",1985,checked,,,,3/6/2022 4:44pm
1071,Alta Plaza,Found,(Very PE) (at Clay),2301 Fillmore ,37.790921,-122.434436,San Francisco,CA,"(R),(PE)",Restaurant,1985,checked,,,,3/6/2022 4:45pm
1026,Arena ,Found,"(Some W, YC)(Dj but no D) (at Harrison)",399 9th St. ,37.772813,-122.409983,San Francisco,CA,"(W),(YC),(*)",Bars/Clubs,1985,checked,,,,3/8/2022 4:37am
953,Badlands ,Found,(Dj but no D) (nr. Castro),4121 18th St. ,37.760707,-122.435466,San Francisco,CA,"(*),(PT)",Bars/Clubs,1985,checked,,,,3/8/2022 4:38am
1091,Buena Vista Park,Found,,,37.768584,-122.441491,San Francisco,CA,Cruisy Area,Cruising Areas,1985,checked,,,,3/8/2022 4:38am
1125,Casa de Cristal,Found,(Mexican R) (at Polk),1122 Post ,37.786957,-122.420262,San Francisco,CA,"(*),(R)",Restaurant,1985,checked,,,,3/8/2022 4:41am
1073,Casa Loma Hotel,Found,(Suana & Sundeck) (at Fell),610 Fillmore ,37.775119,-122.430863,San Francisco,CA,"(H),(*)",Hotel,1985,checked,,,,3/8/2022 4:42am
1020,Dolores Park ,Found,,,37.75977,-122.427114,San Francisco,CA,"Cruisy Area,(AYOR)",Cruising Areas,1985,checked,,,,3/8/2022 4:56am
1042,Eagle ,Found,(See San Francsico Eagle),,37.769988,-122.413401,San Francisco,CA,(*),Bars/Clubs,1985,checked,,,,3/8/2022 4:59am
971,Elephant Walk,Found,,18th & Castro,37.760976,-122.43519,San Francisco,CA,"(WE),(*)",Bars/Clubs,1985,checked,,Know known as Harvey's: https://www.sfgayhistory.com/neighborhoods/castro/castro-gay-bars/harveys/ ,,3/8/2022 5:04am
1043,Endup ,Found,(Disco) (at Harrison),401 6th ,37.777275,-122.403769,San Francisco,CA,"(D),(WE),(*)",Bars/Clubs,1985,checked,,,,3/8/2022 5:08am
1044,Febe's ,Found,,11th & Folsom,37.771587,-122.414007,San Francisco,CA,"(OC),(SM),(WE),(*)",Bars/Clubs,1985,checked,,,,3/8/2022 5:10am
974,Galleon,Found,(Lunch) (at Church ),718 14th St. ,37.767924,-122.429452,San Francisco,CA,(R),Restaurant,1985,checked,,,,3/8/2022 5:13am
1183,Gates ,Found,(Occ. S) (at Jones),1093 Pine St. ,37.790266,-122.413805,San Francisco,CA,,Bars/Clubs,1985,checked,,,,3/8/2022 5:14am
1133,Gilmore's,Found,(at California ),1068 Hyde ,37.790896,-122.417239,San Francisco,CA,,Bars/Clubs,1985,checked,,,,3/8/2022 5:14am
1187,Googie's ,Found,(at Leavenworth),668 Geary  ,37.786708,-122.414619,San Francisco,CA,(E),Bars/Clubs,1985,checked,,,,3/8/2022 5:04pm
1140,Ivy's ,Found,(at Gough),398 Hayes ,37.777104,-122.42274,San Francisco,CA,"(*),(R)",Restaurant,1985,checked,,,,3/8/2022 5:11pm
1142,Kimo's ,Found,(2 floors),Pine & Polk Sts. ,37.789502,-122.42063,San Francisco,CA,"(*),(PT)",Bars/Clubs,1985,checked,,,,3/8/2022 5:24pm
1172,Lafayette Park ,Found,(Nights),,37.79165,-122.427589,San Francisco,CA,Cruisy Area,Cruising Areas,1985,checked,,,,3/8/2022 5:25pm
1108,Le Domino ,Found,(French R- Upstairs) (at Florida),2742 17th St. ,37.764457,-122.411203,San Francisco,CA,"(R),(*)",Restaurant,1985,checked,,,,3/8/2022 5:28pm
1147,Liberty Baths,Found,(nr. Polk),1157 Post ,37.786577,-122.420822,San Francisco,CA,,Bathhouses,1985,checked,,,,3/8/2022 5:28pm
1080,Lion Pub ,Found,,Sacramento & Divisadero,37.788924,-122.440331,San Francisco,CA,,Bars/Clubs,1985,checked,,,,3/8/2022 5:31pm
1109,Macante's ,Found,,17th & Capp,37.77493,-122.419415,San Francisco,CA,(L),Bars/Clubs,1985,checked,,,,3/8/2022 5:34pm
989,Metro ,Found,(High-tech cruise bar)(Chinese R)(Upstairs) (at Market & Noe),3600 16th ,37.764341,-122.433563,San Francisco,CA,"(*),(R)",Restaurant,1985,checked,,,,3/8/2022 5:34pm
1047,Mr. S Leather,Found,(at S.F. Eagle),227 7th ,37.769988,-122.413401,San Francisco,CA,(*),Erotic Shop,1985,checked,,,,3/8/2022 5:35pm
1048,Oasis,Found,(Punk Rock)(Disco)(Pool Summers*),11th & Folsom ,37.771948,-122.41445,San Francisco,CA,"(D),(*)",Bars/Clubs,1985,checked,,Still operating: https://www.sfoasis.com/,,3/8/2022 5:37pm
1159,Red Coach Motor Inn,Found,(at Polk),700 Eddy ,37.783424,-122.419517,San Francisco,CA,"(M),(H)",Hotel,1985,checked,,,,3/8/2022 5:45pm
1209,S.F. Gate U.,Found,(Library),,37.721365,-122.478136,San Francisco,CA,Cruisy Area,Cruising Areas,1985,checked,,,,3/8/2022 6:08pm
1056,San Francisco Eagle ,Found,(Super Sun.)(Video)(Cocktail hour)(Patio & bars)(Cruisy),398 12th St. ,37.769988,-122.413401,San Francisco,CA,"(SM),(W),(FFA),(PT),(*)","Bars/Clubs,Cruising Areas",1985,checked,,,,3/10/2022 5:32am
1211,San Gregorio 'BA' beach,Found,(S. on Hwy. 1),,37.322999,-122.403308,San Francisco,CA,Cruisy Area,Cruising Areas,1985,checked,,,,3/10/2022 5:34am
1206,Strand Theatre,Found,- Blacony ,,37.779583,-122.412955,San Francisco,CA,Cruisy Area,"Cruising Areas,Theatre",1985,checked,,,,3/11/2022 4:53am
1012,Twin Peaks,Found,(Mixed Bag),Castro & Market ,37.762282,-122.434944,San Francisco,CA,"(OC),(*)",Bars/Clubs,1985,checked,,Still opened: https://www.twinpeakstavern.com/,,3/11/2022 5:00am
1092,'Land's End',General Coordinates Used,(Some fuzz),,37.77493,-122.419415,San Francisco,CA,"Cruisy Area,(AYOR)",Cruising Areas,1985,checked,,,,3/6/2022 4:32pm
1068,'Miracle Mile' ,General Coordinates Used,(Folsom to Harrison betw. 7th & 12th),,37.77493,-122.419415,San Francisco,CA,Cruisy Area,Cruising Areas,1985,checked,,,,3/6/2022 4:33pm
1098,A Little More,General Coordinates Used,,15th & Potrero,37.77493,-122.419415,San Francisco,CA,"(L),(D)",Bars/Clubs,1985,checked,,,,3/6/2022 4:42pm
1019,Cala Market ,General Coordinates Used,,18th & Collingwood,37.77493,-122.419415,San Francisco,CA,Cruisy Area,Cruising Areas,1985,checked,,,,3/8/2022 4:40am
1031,Catacombs,General Coordinates Used,(415)861-0513,,37.77493,-122.419415,San Francisco,CA,"(P),(FFA)",Bars/Clubs,1985,checked,,,,3/8/2022 4:46am
963,Chez Danny,General Coordinates Used,(Above Castro Station),,37.77493,-122.419415,San Francisco,CA,(R),Restaurant,1985,checked,,,,3/8/2022 4:48am
964,Church St. Station,General Coordinates Used,(Open 24 hrs. - Cruisy AH) (at Church St. ),14th & Market ,37.77493,-122.419415,San Francisco,CA,"(R),(*),(AH)","Restaurant,Cruising Areas",1985,checked,,,,3/8/2022 4:49am
1038,Club Bath's of S.F.,General Coordinates Used,(YC only),8th & Howard,37.77493,-122.419415,San Francisco,CA,"(P),(YC)","Bars/Clubs,Bathhouses",1985,checked,,A chain of gay bathhouses across the U.S.: https://en.wikipedia.org/wiki/Club_Baths,,3/8/2022 4:51am
966,Cock a Doodle Do,General Coordinates Used,(No booze),18th & Coolingwood,37.77493,-122.419415,San Francisco,CA,(R),Restaurant,1985,checked,,,,3/8/2022 4:51am
1207,Devil's Slide,General Coordinates Used,('BA' beach S. on Hwy. 1),,37.77493,-122.419415,San Francisco,CA,Cruisy Area,Cruising Areas,1985,checked,,,,3/8/2022 4:54am
1075,Dignity,General Coordinates Used,(415)863-4940,,37.77493,-122.419415,San Francisco,CA,,Religious Institution,1985,checked,,,,3/8/2022 4:55am
1208,Emporium,General Coordinates Used,(Capwell's T-Room- Stonestown),,37.77493,-122.419415,San Francisco,CA,Cruisy Area,Cruising Areas,1985,checked,,,,3/8/2022 5:06am
1185,Ginger's ,General Coordinates Used,(Hustlers) (at Mason),100 Eddy ,37.77493,-122.419415,San Francisco,CA,(OC),Bars/Clubs,1985,checked,,,,3/8/2022 5:02pm
1135,Golden Boy Massage Agency,General Coordinates Used,(415)626-1848,,37.77493,-122.419415,San Francisco,CA,,Business,1985,checked,,,,3/8/2022 5:02pm
1205,Hustlers around Mason & Market Sts. ,General Coordinates Used,,,37.77493,-122.419415,San Francisco,CA,Cruisy Area,Cruising Areas,1985,checked,,,,3/8/2022 5:08pm
982,Jebe's Kompact Kameras,General Coordinates Used,(Photo shop) (19th just off Castro),,37.77493,-122.419415,San Francisco,CA,,Business,1985,checked,,,,3/8/2022 5:13pm
1046,Line-Up,General Coordinates Used,(Mexican R),7th & Harrison,37.77493,-122.419415,San Francisco,CA,"(*),(R)",Restaurant,1985,checked,,,,3/8/2022 5:29pm
1049,Olive Oil's Bar & Grill ,General Coordinates Used,,Pier 50,37.77493,-122.419415,San Francisco,CA,"(L),(R)",Restaurant,1985,checked,,,,3/8/2022 5:38pm
1022,Playground ,General Coordinates Used,"(Late Nights) (betw. Collingwood & Diamond, 18th & 19th)",,37.77493,-122.419415,San Francisco,CA,"Cruisy Area,(AYOR)",Cruising Areas,1985,checked,,,,3/8/2022 5:42pm
1173,Polkstrasse,General Coordinates Used,(betw. Post and Union),,37.77493,-122.419415,San Francisco,CA,Cruisy Area,Cruising Areas,1985,checked,,,,3/8/2022 5:44pm
1069,Ringold Alley,General Coordinates Used,(betw. 8th & 9th),,37.77493,-122.419415,San Francisco,CA,Cruisy Area,Cruising Areas,1985,checked,,,,3/8/2022 5:49pm
1054,Ronoey's ,General Coordinates Used,(Apparel Mart),9th & Market,37.77493,-122.419415,San Francisco,CA,"(M),(R)",Restaurant,1985,checked,,,,3/8/2022 5:49pm
1055,Ruby's ,General Coordinates Used,(Lunch),4th & Brannan,37.77493,-122.419415,San Francisco,CA,"(M),(R)",Restaurant,1985,checked,,,,3/8/2022 5:49pm
1210,S.F. Gate U.,General Coordinates Used,(Creative Arts Bldg.),,37.724149,-122.47994,San Francisco,CA,Cruisy Area,Cruising Areas,1985,checked,,,,3/8/2022 5:53pm
1093,Seawall & trees behind beach,General Coordinates Used,,,37.77493,-122.419415,San Francisco,CA,Cruisy Area,Cruising Areas,1985,checked,,,,3/11/2022 4:48am
1162,Stallion,General Coordinates Used,,Polk at Ellis,37.77493,-122.419415,San Francisco,CA,,Bars/Clubs,1985,checked,,,,3/11/2022 4:53am
1008,Sutter Medical Group ,General Coordinates Used,(Walk-in clinic & VD treatment),Market & Noe,37.77493,-122.419415,San Francisco,CA,,Health Clinics,1985,checked,,,,3/11/2022 4:56am
1233,'Sin Jose',Found,('Hustler's) (betw. San Salvador & Santa Clara),1st St. ,37.334225,-121.889073,San Jose,CA,Cruisy Area,Cruising Areas,1985,checked,,,,3/2/2022 6:32pm
1229,Alum Rock Park ,Found,,,37.396039,-121.801812,San Jose,CA,,,1985,checked,,,,3/2/2022 6:33pm
1220,M.C.C.,Found,,10th & San Fernando,37.338896,-121.879029,San Jose,CA,(MCC),Religious Institution,1985,checked,,,,3/3/2022 6:13am
1231,S.J. State U.,Found,(Journalism Bldg.),,37.335034,-121.882662,San Jose,CA,Cruisy Area,Cruising Areas,1985,checked,,,,3/3/2022 6:18am
1232,S.J. State U.,Found,(3rd floor T-Room) (Library),,37.335691,-121.885256,San Jose,CA,Cruisy Area,Cruising Areas,1985,checked,,,,3/3/2022 6:18am
1230,St. James Sqaure,Found,(Late nights- W. side),,37.338702,-121.891469,San Jose,CA,Cruisy Area,Cruising Areas,1985,checked,,Website: https://www.sanjoseca.gov/your-government/departments/planning-building-code-enforcement/planning-division/historic-preservation/historic-districts-areas/st-james-square-city-landmark-district,,3/3/2022 6:25am
1234,Town Theatre on The Alameda,Found,(Back rows),,37.333226,-121.914443,San Jose,CA,Cruisy Area,"Cruising Areas,Theatre",1985,checked,,,,3/3/2022 6:27am
1235,Valley Fair Shopping Center,Found,,,37.325566,-121.945,San Jose,CA,"Cruisy Area,(AYOR)",Cruising Areas,1985,checked,,,,3/3/2022 6:30am
1241,Laguna Lake Park,Found,(at dusk),,35.269934,-120.681721,San Luis Obispo,CA,Cruisy Area,Cruising Areas,1985,checked,,,,3/3/2022 7:22am
1242,Pirates Cove 'BA' beach,Found,(left turn off Avila),,35.175962,-120.715886,San Luis Obispo,CA,Cruisy Area,Cruising Areas,1985,checked,,,,3/3/2022 7:25am
1238,"Beach Rd., then up hill before oil tanks ",General Coordinates Used,('BA') (Far end of Pirates Cove),,35.282752,-120.659616,San Luis Obispo,CA,Cruisy Area,Cruising Areas,1985,checked,,,,3/3/2022 6:34am
1239,Cal 'Poly' Fine Arts Bldg. ,General Coordinates Used,(T-Room),,35.305005,-120.662494,San Luis Obispo,CA,Cruisy Area,Cruising Areas,1985,checked,,,,3/3/2022 6:37am
1240,Diamond Cove,General Coordinates Used,(W. of Pirate's Cove & down a sheer cliff),,35.305005,-120.662494,San Luis Obispo,CA,Cruisy Area,Cruising Areas,1985,checked,,,,3/3/2022 7:14am
1243,Pismo Dunes ,General Coordinates Used,(T-Room) (Grand Ave. to beach),,35.282752,-120.659616,San Luis Obispo,CA,Cruisy Area,Cruising Areas,1985,checked,,,,3/3/2022 7:27am
1247,Coyote Point,Found,(Beach & parking lot off U.S. 101 betw. San Mateo & Burlingame),,37.587268,-122.319101,San Mateo,CA,Cruisy Area,Cruising Areas,1985,checked,,,,3/5/2022 11:00am
1248,Hillsdale Shopping Center,Found,,,37.537876,-122.300907,San Mateo,CA,Cruisy Area,Cruising Areas,1985,checked,,,,3/5/2022 11:01am
1263,'Hitch-hikers' ,Found,on US 101 nr. State St. ,,34.415519,-119.693381,Santa Barbara,CA,Cruisy Area,Cruising Areas,1985,checked,,,,4/28/2022 5:03am
1257,Alameda Park ,Found,,,34.428288,-119.705983,Santa Barbara,CA,"Cruisy Area,(AYOR)",Cruising Areas,1985,checked,,,,3/3/2022 7:32am
1258,Buena Vista Park,Found,(T-Room),,34.944179,-120.439546,Santa Barbara,CA,Cruisy Area,Cruising Areas,1985,checked,,,,3/3/2022 8:04am
1261,East Beach ,Found,('BA'),,34.415256,-119.676353,Santa Barbara,CA,Cruisy Area,Cruising Areas,1985,checked,,,,3/4/2022 3:26am
1262,Gaviota Beach ,Found,,,34.470756,-120.227636,Santa Barbara,CA,Cruisy Area,Cruising Areas,1985,checked,,,,3/4/2022 3:27am
1264,Public Library,Found,(T-Room),,34.423984,-119.703324,Santa Barbara,CA,Cruisy Area,Cruising Areas,1985,checked,,,,3/4/2022 3:30am
1266,UCSB,Found,(T-Room & old showers) (eves.) (Phelps Hall ),,34.413963,-119.848947 ,Santa Barbara,CA,Cruisy Area,Cruising Areas,1985,checked,,,,3/4/2022 3:37am
1265,'Rest Stop' ,General Coordinates Used,"(N. of Goleta, just before tunnel)",,34.420831,-119.69819,Santa Barbara,CA,Cruisy Area,Cruising Areas,1985,checked,,,,3/3/2022 7:30am
1276,Boardwalk,Found,,,36.964292,-122.018673,Santa Cruz,CA,Cruisy Area,Cruising Areas,1985,checked,,,,3/4/2022 3:38am
1277,Bonney Doon Beach,Found,(8 mi. N. of Cal. 1),,36.999672,-122.181635,Santa Cruz,CA,Cruisy Area,Cruising Areas,1985,checked,,Interesting news article: https://calisphere.org/item/14380de8eb151a5a7ddaa15beb29e923/,,3/4/2022 3:41am
1278,Cooper House,Found,(Pacific Garden Mall),,36.9759,-122.025402,Santa Cruz,CA,Cruisy Area,Cruising Areas,1985,checked,,,,3/4/2022 3:42am
1273,Gay Switchboard,Found,(408)GAY-2468,,36.974117,-122.030796,Santa Cruz,CA,,Hotline,1985,checked,,,,3/4/2022 3:43am
1279,San Lorenzo Park ,Found,(Days),,36.975235,-122.02173,Santa Cruz,CA,Cruisy Area,Cruising Areas,1985,checked,,,,3/4/2022 3:45am
1280,Santa Cruz Mall,General Coordinates Used,nr. St. George Hotel (Hustlers),,36.974117,-122.030796,Santa Cruz,CA,Cruisy Area,Cruising Areas,1985,checked,,,,3/4/2022 3:46am
1275,UCSC Gay/Lesbian Alliance,General Coordinates Used,(408)429-2324,,36.974117,-122.030796,Santa Cruz,CA,,Organization,1985,checked,,,,3/4/2022 3:46am
1282,Buena Vista Park ,Found,,,34.944179,-120.439546,Santa Maria,CA,Cruisy Area,Cruising Areas,1985,checked,,,,3/5/2022 10:59am
1288,Muscle Beach & Pirates Cove,Found,,,33.985382,-118.472509,Santa Monica,CA,Cruisy Area,Cruising Areas,1985,checked,,,,3/4/2022 3:49am
1289,Palisades Park Rose Garden,Found,at Montana,Ocean Ave. ,34.022813,-118.508885,Santa Monica,CA,Cruisy Area,Cruising Areas,1985,checked,,,,3/4/2022 3:51am
1290,'Rest Stop',General Coordinates Used,( US 101 N. of Malibu),,34.019454,-118.491191,Santa Monica,CA,Cruisy Area,Cruising Areas,1985,checked,,,,3/4/2022 3:48am
1291,Pit Stop,Found,"Hwy. 101 S. to Wilfred Ave., Golf Course Dr. exit, L at stop sign, 1/>mi. to 5079 S. Santa Rosa Ave. ",,38.440429,-122.714055,Santa Rosa,CA,"(W),(SM)",Bars/Clubs,1985,checked,,,,3/5/2022 10:33am
1293,Bed-by-the-Bay,General Coordinates Used,(Rooms),"P.O. Box 902, Sausalito 94946",37.859094,-122.485251,Sausalito,CA,(H),Hotel,1985,checked,,,,3/4/2022 4:47am
562,Detour ,Found,"(DJ but no D)(Cruisy)(Some W,SM,YC) (at Sunset Jct. )",1087 Manzanita ,34.092939,-118.281384,Silverlake,CA,"(*),(W),(SM),(YC)","Bars/Clubs,Cruising Areas",1985,checked,,,,3/6/2022 8:23am
1299,Oak Park ,Found,,,37.983382,-121.293016,Stockton,CA,Cruisy Area,Cruising Areas,1985,checked,,,,3/4/2022 4:06am
1298,Freemont Park ,General Coordinates Used,opp. P.O.,,37.957702,-121.29078,Stockton,CA,Cruisy Area,Cruising Areas,1985,checked,,,,3/4/2022 4:02am
1300,Public beach ,Found,(T-Room) (behind Jack-in-the-Box),,36.888036,-121.833211,Sunset Beach ,CA,Cruisy Area,Cruising Areas,1985,checked,,,,3/11/2022 5:04am
1095,Noa Noa,Found,"on 1st, baout 5 blks. W. of Ave. Revolucion",,32.536493,-117.041859,Tijuana,CA,(S),Bars/Clubs,1985,checked,,Found through Google search: https://en.mexico.pueblosamerica.com/b/bar-noa-noa,,3/4/2022 4:43am
1097,Tillie's ,Found,,5th & Ave. Revolucion,32.528661,-117.035617,Tijuana,CA,(M),"Bars/Clubs,Cruising Areas",1985,checked,,,,3/4/2022 4:44am
1094,The T.J. Disco,General Coordinates Used,in same bldg. as well-illuminated 'Flamingo' (WE-Only*) (3 mi. W. of Ave. Revolucion on Old Ensenada Hwy.),,32.514947,-117.038247,Tijuana,CA,"(YC),(D),(WE),(*)",Bars/Clubs,1985,checked,,News article: https://newwavearch90.tumblr.com/post/676493211842248704/tj-disco-in-tijuana-mexico-late-1970s,,3/4/2022 4:44am
1096,Torrenos ,General Coordinates Used,"on 1st, baout 5 blks. W. of Ave. Revolucion",,32.514947,-117.038247,Tijuana,CA,(D),Bars/Clubs,1985,checked,,,,3/4/2022 4:44am
1301,Alondra Park,Found,(Best near Crenshaw & Redondo Beach Blvd.) (T-Rooms),,33.882816,-118.339682,Torrance,CA,Cruisy Area,Cruising Areas,1985,checked,,,,3/5/2022 10:39am
639,Sepulveda Dam Rec. Area ,Found,(W. End parking lot) (T-Room),,34.167235,-118.472928,Van Nuys,CA,Cruisy Area,Cruising Areas,1985,checked,,,,3/6/2022 8:19am
1306,Esplanade Shopping Center,Found,(Upstairs T-Room),,34.234554,-119.177285,Ventura,CA,Cruisy Area,Cruising Areas,1985,checked,,,,3/4/2022 4:10am
1307,Pussycat Theatre,Found,(Late afternoons),,34.279672,-119.288907,Ventura,CA,Cruisy Area,"Cruising Areas,Theatre",1985,checked,,,,3/4/2022 4:13am
1308,The Pier,Found,(Late afternoons),,34.275802,-119.290601,Ventura,CA,Cruisy Area,Cruising Areas,1985,checked,,,,3/4/2022 4:13am
1310,7-Eleven Store & lot,General Coordinates Used,,,34.536218,-117.292764,Victorville,CA,Cruisy Area,Cruising Areas,1985,checked,,,,3/6/2022 7:50am
1309,Pebble Beach Park ,General Coordinates Used,,,34.536218,-117.292764,Victorville,CA,Cruisy Area,Cruising Areas,1985,checked,,,,3/6/2022 7:52am
653,U.C.L.A.,Found,(Royce Hall basement- T-Rooms),,34.072809,-118.442159,West Los Angeles ,CA,Cruisy Area,Cruising Areas,1985,checked,,,,3/11/2022 5:08am
652,U.C.L.A.,Found,(Powel Library T-Rooms),,34.07164,-118.442177,West Los Angeles ,CA,Cruisy Area,Cruising Areas,1985,checked,,,,3/11/2022 5:08am
651,U.C.L.A.,Found,(Student Union- T-Rooms),,34.070418,-118.444145,West Los Angeles ,CA,Cruisy Area,Cruising Areas,1985,checked,,,,3/11/2022 5:08am
650,Venice Beach,Found,(Parking lot),,33.993258,-118.480598,West Los Angeles ,CA,Cruisy Area,Cruising Areas,1985,checked,,,,3/11/2022 5:08am
1315,Paragon,Found,(Very M)(Disco),Hyman St. Mall,39.188675,-106.81932,Aspen,CO,"(M),(D)",Bars/Clubs,1985,checked,,Found address from NYT article: https://www.nytimes.com/1988/01/10/travel/what-s-doing-in-aspen.html ; https://www.aspentimes.com/news/drinking-down-the-ages/,,3/11/2022 5:14am
1316,Hyman St. Mall,General Coordinates Used,,,39.191098,-106.817539,Aspen,CO,Cruisy Area,Cruising Areas,1985,checked,,,,3/11/2022 5:11am
1320,Pearl St. Mall,Found,,,40.017662,-105.27971,Boulder,CO,Cruisy Area,Cruising Areas,1985,checked,,,,3/11/2022 5:18am
1321,Bunk House,Found,(Ski-resort-guest house) (303)453-6475 or (800)227-3040 (Ski resort-guest house),,39.52572,-106.046361,Breckenridge,CO,"(YC),(W),(H)",Hotel,1985,checked,,Still operating as a LGBT lodge: https://bunkhouselodge.com/,,3/14/2022 11:31am
1332,Acacia Park ,Found,,,38.837355,-104.822445,Colorado Springs,CO,Cruisy Area,Cruising Areas,1985,checked,,,,3/11/2022 5:20am
1322,Denny's,Found,I-25 at Bijou,,38.849248,-104.860657,Colorado Springs,CO,"(M),(R),(C),(AH)",Restaurant,1985,checked,,,,3/11/2022 5:21am
1323,Dignity,General Coordinates Used,(303)471-3893,,38.833882,-104.821363,Colorado Springs,CO,,Religious Institution,1985,checked,,,,3/11/2022 5:23am
1328,Gay Community Help Line,General Coordinates Used,(303)471-4429,,38.833882,-104.821363,Colorado Springs,CO,,Hotline,1985,checked,,,,3/11/2022 5:23am
1382,16th St. Mall,Found,,,39.747692,-104.995478,Denver,CO,Cruisy Area,Cruising Areas,1985,checked,,,,3/11/2022 5:27am
1334,Ballpark Health Club,Found,(Baths)(Use rear entrance thur alley off Bayaud) (at Bayuad),107 S. Broadway ,39.714532,-104.987953,Denver,CO,"(*),(W),(SM),(YC),(FFA),(P)",Bathhouses,1985,checked,,,,3/11/2022 5:30am
1378,Cheeseman Park ,Found,(nr. pavillion),,39.733468,-104.964417,Denver,CO,Cruisy Area,Cruising Areas,1985,checked,,,,3/11/2022 5:30am
1379,Danish World,General Coordinates Used,(upper level arcades) (Grant & Sherman betw. 13th & 14th),,39.739236,-104.990251,Denver,CO,"Cruisy Area,(RT)",Cruising Areas,1985,checked,,,,3/11/2022 3:13pm
1380,May F.D. Store ,General Coordinates Used,(T-Room - Downtown),,39.739236,-104.990251,Denver,CO,Cruisy Area,Cruising Areas,1985,checked,,,,3/11/2022 3:17pm
1381,May F.D. Store ,General Coordinates Used,(T-Room - Aurora Mall),,39.739236,-104.990251,Denver,CO,Cruisy Area,Cruising Areas,1985,checked,,,,3/11/2022 3:17pm
1364,Out Front,General Coordinates Used,(Publication),"P.O. Box 18597, Denver 80218",39.739236,-104.990251,Denver,CO,,Publications,1985,checked,,,,3/11/2022 3:19pm
1383,Royal Host Motel,General Coordinates Used,(area around),,39.739236,-104.990251,Denver,CO,Cruisy Area,Cruising Areas,1985,checked,,,,3/11/2022 3:26pm
1370,The Guide,General Coordinates Used,(Publication),"P.O. Box 9469, Denver 80209",39.739236,-104.990251,Denver,CO,,Publications,1985,checked,,,,3/11/2022 3:27pm
1384,UCD,General Coordinates Used,(3rd floor T-Room) (East Classroom Bldg.),,39.74636,-105.002342,Denver,CO,Cruisy Area,Cruising Areas,1985,checked,,,,3/11/2022 3:29pm
1386,Diamond Belle Saloon,Found,,,37.271152,-107.881619,Durango,CO,"(M),Cruisy Area",Cruising Areas,1985,checked,,Still opened: https://strater.com/dining/diamond-belle-saloon/ ; https://www.facebook.com/TheDiamondBelle/,,3/12/2022 6:42am
1387,Main Mall,Found,(Days),,37.272956,-107.881675,Durango,CO,Cruisy Area,Cruising Areas,1985,checked,,,,3/12/2022 6:51am
1388,Strater Hotel,Found,Lobby & T-Room,,37.271119,-107.88199 ,Durango,CO,Cruisy Area,"Cruising Areas,Hotel",1985,checked,,Still operating: https://strater.com/,,3/12/2022 6:53am
1389,Gay & Lesbian Alliance,General Coordinates Used,(303)491-7232,,40.58526,-105.084423,Fort Collins,CO,,Organization,1985,checked,,,,3/12/2022 7:00am
1393,Hawthorne Park,Found,(Cl. 12 midnight),,39.073947,-108.565285,Grand Junction,CO,Cruisy Area,Cruising Areas,1985,checked,,,,3/12/2022 7:05am
1393 copy,Lincoln Parks,Found,(Cl. 12 midnight),,39.075141,-108.545335,Grand Junction,CO,Cruisy Area,Cruising Areas,1985,checked,,,,3/12/2022 7:05am
1394,Island Grove Park ,Found,(nr. T-Rooms),,40.438617,-104.702579,Greeley,CO,Cruisy Area,Cruising Areas,1985,checked,,,,3/12/2022 6:54am
1395,U. of N. Colorado,Found,(Top floor T-Rooms),,40.40328,-104.700231,Greeley,CO,Cruisy Area,Cruising Areas,1985,checked,,,,3/12/2022 6:55am
1398,Mineral Palace Park,Found,T-Rooms,,38.28112,-104.607067,Pueblo,CO,Cruisy Area,Cruising Areas,1985,checked,,,,3/12/2022 6:56am
1399,Pueblo Mall ,Found,T-Rooms,,38.302551,-104.608073,Pueblo,CO,Cruisy Area,Cruising Areas,1985,checked,,,,3/12/2022 6:59am
1407,St. Mary's By-the-Sea,Found,,,41.145488,-73.225326,Bridgeport,CT,Cruisy Area,Cruising Areas,1985,checked,,Bird and wildlife watching area: https://www.ctvisit.com/listings/saint-marys-sea,,3/12/2022 7:15am
1405,'Rest Stops' ,General Coordinates Used,"(on I-95 nr. Darien, Milford & Fairfield)",,41.179226,-73.189438,Bridgeport,CT,Cruisy Area,Cruising Areas,1985,checked,,,,3/12/2022 7:09am
1402,Casbah ,General Coordinates Used,('Drags'),Congress & Middle Sts. ,41.179226,-73.189438,Bridgeport,CT,"(M),(RT),(B)",Bars/Clubs,1985,checked,,,,3/12/2022 7:10am
1406,Sears,General Coordinates Used,(3rd floor T-Room) (Crossroads Mall),,41.179226,-73.189438,Bridgeport,CT,Cruisy Area,Cruising Areas,1985,checked,,,,3/12/2022 7:13am
1408,Books & Things,Found,(Peeps),N. Main St. ,41.671765,-72.94927,Bristol,CT,,Book Store,1985,checked,,,,3/14/2022 5:02am
1409,Rockwell Park ,Found,,,41.673902,-72.962762,Bristol,CT,Cruisy Area,Cruising Areas,1985,checked,,,,3/14/2022 5:03am
1411,West Farms Mall,Found,,,41.722862,-72.763237,Farmington,CT,Cruisy Area,Cruising Areas,1985,checked,,,,3/12/2022 7:16am
1412,Hammonasset State Beach,Found,(Men's bath house),,41.266698,-72.558421,Hammonasset,CT,Cruisy Area,"Cruising Areas,Bathhouses",1985,checked,,,,3/14/2022 5:08am
1430,Bushnell Park ,Found,,,41.765134,-72.679236,Hartford,CT,"Cruisy Area,(AYOR)",Cruising Areas,1985,checked,,,,3/12/2022 7:20am
1431,Civic Center,Found,,,41.768442,-72.67696,Hartford,CT,Cruisy Area,Cruising Areas,1985,checked,,,,3/12/2022 7:21am
1434,Constitution Plaza,Found,,,41.766818,-72.67035,Hartford,CT,Cruisy Area,Cruising Areas,1985,checked,,,,3/12/2022 7:23am
1425,Shelly's Downtown Deli,Found,Hartford Civic Center,,41.768458,-72.676979,Hartford,CT,(R),Restaurant,1985,checked,,,,3/12/2022 7:25am
1433,West Farms Mall ,Found,(W. Hartford),,41.723086,-72.762124 ,Hartford,CT,Cruisy Area,Cruising Areas,1985,checked,,,,3/12/2022 7:27am
1432,'The Dikes',General Coordinates Used,(East-west service rd. off I-91 N.- Riverside Park ),,41.763964,-72.667475,Hartford,CT,"Cruisy Area,(AYOR)",Cruising Areas,1985,checked,,,,3/12/2022 7:16am
1417,"Companions, Inc.",General Coordinates Used,(Gay & Lesbian dating service),"P.O. Box 3957, Hartford 06013",41.763964,-72.667475,Hartford,CT,,Business,1985,checked,,,,3/12/2022 7:22am
1419,Gay Switchboard,General Coordinates Used,(203)522-5575,,41.763964,-72.667475,Hartford,CT,,Hotline,1985,checked,,,,3/12/2022 7:23am
1435,Milford County News,General Coordinates Used,(Peep Shows)(Thu.-Sun.) (Rt.1),,41.230698,-73.064036,Milford,CT,,Bars/Clubs,1985,checked,,,,3/14/2022 5:13am
1437,Charley's Harbour Guest House,Found,Last house on left (203)572-9253,Edgemont St. ,41.34972,-71.966206,Mystic,CT,(H),Hotel,1985,checked,,Still operating: https://www.expedia.com/Mystic-Hotels-Mystics-Guesthouse-In-Historic-Downtown-Waterfront-District.h19982034.Hotel-Information,,3/14/2022 5:04am
1439,Walnut Hill Park ,Found,(Veterans Monument),,41.661945,-72.793227,New Britain,CT,Cruisy Area,Cruising Areas,1985,checked,,,,3/14/2022 5:12am
1448,East Rock Park,Found,,,41.324958,-72.910252,New Haven,CT,Cruisy Area,Cruising Areas,1985,checked,,,,3/14/2022 4:34am
1451,Yale U.,Found,(Woolsey Hall- Downstairs T-Room),,41.311348,-72.926061,New Haven,CT,Cruisy Area,Cruising Areas,1985,checked,,,,3/14/2022 4:40am
1447,Chapel St. from York to Park ,General Coordinates Used,,,41.308274,-72.927883,New Haven,CT,Cruisy Area,Cruising Areas,1985,checked,,,,3/14/2022 4:39am
1440,Gay Switchboard,General Coordinates Used,(203)624-6869,,41.308274,-72.927883,New Haven,CT,,Hotline,1985,checked,,,,3/14/2022 4:35am
1449,Howard Johnson's truck stops on I-95,General Coordinates Used,(all thru Conn.),,41.308274,-72.927883,New Haven,CT,Cruisy Area,Cruising Areas,1985,checked,,,,3/14/2022 4:38am
1450,Long Wharf Truck Stop ,General Coordinates Used,"(off I-95- Frontage Rd., Harbor Side)",,41.308274,-72.927883,New Haven,CT,"Cruisy Area,(*)",Cruising Areas,1985,checked,,,,3/14/2022 4:38am
1452,Frank's Place ,Found,(at Bank),9 Tilley St. ,41.351747,-72.097227 ,New London,CT,"(OC),(E),(WE),(*)",Bars/Clubs,1985,checked,,,,3/14/2022 4:42am
1454,Train Station,Found,(T-Room),,41.354201,-72.093157,New London,CT,Cruisy Area,Cruising Areas,1985,checked,,,,3/14/2022 4:49am
1457,'Rest Stop' ,General Coordinates Used,(on Rt.15 - Wilbur Cross Pkwy. -E.),,41.278637,-73.026528,Orange,CT,Cruisy Area,Cruising Areas,1985,checked,,,,3/14/2022 4:45am
1459,Cove Island Beach,Found,,,41.04695,-73.505113,Stamford,CT,Cruisy Area,Cruising Areas,1985,checked,,,,3/14/2022 4:47am
1460,Railroad Station ,Found,(T-Rooms),,41.04703,-73.542145,Stamford,CT,Cruisy Area,Cruising Areas,1985,checked,,,,3/14/2022 4:49am
1461,Stamford Town Centre,Found,,,41.052996,-73.536958,Stamford,CT,Cruisy Area,Cruising Areas,1985,checked,,Still operating: https://shopstamfordtowncenter.com/,,3/14/2022 4:51am
1462,Forechild Wheeler Park,Found,,,41.22342,-73.179949,Trumbull,CT,Cruisy Area,Cruising Areas,1985,checked,,,,3/14/2022 5:05am
1463,Trumbull Shopping Center,Found,(Lower level T-Rooms),,41.229341,-73.226774,Trumbull,CT,Cruisy Area,Cruising Areas,1985,checked,,Known as Westfiled Trumball shopping mall: https://www.westfield.com/trumbull,,3/14/2022 5:07am
1467,Lakewood Ponds,Found,,,41.578213,-73.024696,Waterbury,CT,Cruisy Area,Cruising Areas,1985,checked,,,,3/14/2022 4:59am
1464,Birds of a Feather,General Coordinates Used,"(Disco) (Paltomark Shopping Center, Banks & Meadow Sts.)",,41.558153,-73.051496,Waterbury,CT,"(YC),(D)",Bars/Clubs,1985,checked,,,,3/14/2022 4:55am
1466,Bronson Public Library ,General Coordinates Used,(T-Room),,41.558153,-73.051496,Waterbury,CT,Cruisy Area,Cruising Areas,1985,checked,,,,3/14/2022 4:57am
1470,Sherwood Isle State Park,Found,"(Summers) (E. beach, far end I-95, exit 18)",,41.116614,-73.332136,Westport,CT,Cruisy Area,Cruising Areas,1985,checked,,,,3/14/2022 5:00am
1468,Sundance,General Coordinates Used,(Outdoors adventure society),"P.O. Box 2516, Westport 06680",41.141472,-73.357905,Westport,CT,,Business,1985,checked,,,,3/14/2022 5:01am
1479,'The Dunes',Found,('BA' beach about 1 mi. N. of parking lot at Henlopen State Park),,38.784166,-75.098322,Rehoboth Beach,DE,Cruisy Area,Cruising Areas,1985,checked,,,,3/14/2022 5:15am
1477,Renegade ,Found,(Disco) (at Rehoboth Ave. ),Hwy. 1 ,38.707189,-75.080788,Rehoboth Beach,DE,"(R),(YC),(D),(*)","Bars/Clubs,Restaurant",1985,checked,,,,3/14/2022 5:21am
1478,Carpenter's Beach,General Coordinates Used,"below S. end of boardwalk at foot of Queen St., just N. of Silver Lake",,38.720945,-75.076014,Rehoboth Beach,DE,"Cruisy Area,(*)",Cruising Areas,1985,checked,,,,3/14/2022 5:17am
1475,Hungry Hannah,General Coordinates Used,,Ames Plaza,38.720945,-75.076014,Rehoboth Beach,DE,"(M),(R)",Restaurant,1985,checked,,,,3/14/2022 5:19am
1483,Brandywine Park,Found,"(Footbridge & woods, north end)",,39.758685,-75.552416,Wilmington,DE,Cruisy Area,Cruising Areas,1985,checked,,,,3/15/2022 5:14am
1484,8th St. ,General Coordinates Used,(betw. Shipley & Tetnell ),,39.752501,-75.571118,Wilmington,DE,Cruisy Area,Cruising Areas,1985,checked,,,,3/15/2022 5:13am
1562,Spanish River Park,Found,,,26.383382,-80.114047,Boca Raton,FL,Cruisy Area,Cruising Areas,1985,checked,,,,3/15/2022 3:37pm
1563,Coquina Beach,Found,,,27.448333,-82.692163,Bradenton,FL,Cruisy Area,Cruising Areas,1985,checked,,,,3/31/2022 7:31am
1564,K-Mart,General Coordinates Used,T-Room,,27.498928,-82.574819,Bradenton,FL,Cruisy Area,Cruising Areas,1985,checked,,,,3/31/2022 7:32am
1565,Palma Sola 'Rest Stop',General Coordinates Used,,,27.498928,-82.574819,Bradenton,FL,Cruisy Area,Cruising Areas,1985,checked,,,,3/31/2022 7:33am
1566,Hawks Nest,General Coordinates Used,(Small shopping center on Canaveral nr. Adams),,28.392218,-80.607713,Cape Canaveral,FL,,Business,1985,checked,,,,4/4/2022 12:23pm
1570,Transit Parking Lot ,General Coordinates Used,(opp. In Town Lounge),,27.965853,-82.800103,Clearwater,FL,Cruisy Area,Cruising Areas,1985,checked,,,,3/31/2022 7:36am
1569,Yacht Club,General Coordinates Used,at Gulf to Bay Blvd. ,408 US 19 S. ,27.965853,-82.800103,Clearwater,FL,"(PT),(D),(R)",Restaurant,1985,checked,,,,3/31/2022 7:37am
1572,Adult Book Store,Found,"('Flicks' & cruisy arcade) (White Rose Shopping Center, Cocoa Beach Causway)",,28.357659,-80.630735,Cocoa Beach,FL,,"Erotic Shop,Book Store,Cruising Areas",1985,checked,,,,3/15/2022 7:12am
1574,Fischer Park ,Found,,,28.344686,-80.608667,Cocoa Beach,FL,"Cruisy Area,(AYOR)",Cruising Areas,1985,checked,,,,3/15/2022 7:13am
1575,Lori Wilson Park,Found,,,28.337142,-80.609485,Cocoa Beach,FL,"Cruisy Area,(AYOR)",Cruising Areas,1985,checked,,,,3/15/2022 7:15am
1576,Merritt Sq. Mall,Found,( T-Rooms) (Merritt Island),,28.35484,-80.685779,Cocoa Beach,FL,Cruisy Area,Cruising Areas,1985,checked,,,,3/15/2022 7:15am
1584,Boardwalk & beach in front of sightseeing tower,Found,,,29.224086,-81.00469,Daytona Beach,FL,Cruisy Area,Cruising Areas,1985,checked,,,,3/15/2022 7:17am
1579,G.R.A.C,General Coordinates Used,(904)252-4211,,29.210815,-81.022833,Daytona Beach,FL,,Organization,1985,checked,,,,3/15/2022 7:18am
1644,Beach & street opp. Marlin Beach Hotel ,Found,,,26.122438,-80.104137,Ft. Lauderdale,FL,Cruisy Area,"Cruising Areas,Hotel",1985,checked,,,,3/15/2022 7:21am
1592,Buddy's ,Found,(Liquor) (at Federal),2312 N.E. 26th St. ,26.159629,-80.117319,Ft. Lauderdale,FL,"(PT),(*)",Bars/Clubs,1985,checked,,,,3/15/2022 7:50am
1598,Copa ,Found,(Disco)(Liquor)(Open until 3am) (at US 1),624 S.E. 28th St. ,26.089023,-80.135092,Ft. Lauderdale,FL,"(*),(YC),(D)",Bars/Clubs,1985,checked,,,,3/15/2022 7:53am
1647,Stranahan Beach Park ,Found,(AYOR-Fuzz),,26.121747,-80.142684,Ft. Lauderdale,FL,"Cruisy Area,(AYOR)",Cruising Areas,1985,checked,,,,3/15/2022 2:05pm
1589,B.C.C.H.R.,General Coordinates Used,(Hotline)(305)564-5787,,26.122439,-80.137317,Ft. Lauderdale,FL,,Hotline,1985,checked,,,,3/15/2022 7:20am
1645,Birch Rd.,General Coordinates Used,(behind Marling Beach),,26.122439,-80.137317,Ft. Lauderdale,FL,"Cruisy Area,(AYOR)",Cruising Areas,1985,checked,,,,3/15/2022 7:50am
1601,Dixie Escorts,General Coordinates Used,(305)761-7756,,26.122439,-80.137317,Ft. Lauderdale,FL,,Escort Service,1985,checked,,,,3/15/2022 3:25pm
1604,Etc. ,General Coordinates Used,(Boutique at Backstreet),,26.122439,-80.137317,Ft. Lauderdale,FL,,Business,1985,checked,,,,3/15/2022 3:26pm
1611,Jerry's Light Style Articles,General Coordinates Used,(Village Mall),Backstreet,26.122439,-80.137317,Ft. Lauderdale,FL,,Business,1985,checked,,,,3/15/2022 3:30pm
1646,Nathan's,General Coordinates Used,(T-Room),,26.122439,-80.137317,Ft. Lauderdale,FL,Cruisy Area,Cruising Areas,1985,checked,,,,3/15/2022 3:32pm
1626,Outline ,General Coordinates Used,(News & specials) (24 hrs.)(305)486-6725,,26.122439,-80.137317,Ft. Lauderdale,FL,,Hotline,1985,checked,,,,3/15/2022 3:32pm
1648,The Palmettos ,General Coordinates Used,,"R.R.2, Box 1354-D, Ft. McCoy 32637",29.364973,-81.967032,Ft. McCoy,FL,(H),Hotel,1985,checked,,,,4/4/2022 12:32pm
1657,City Park,Found,,,26.635079,-81.86723,Ft. Myers,FL,"Cruisy Area,(AYOR)",Cruising Areas,1985,checked,,,,3/15/2022 3:38pm
1658,Ft. Myers Yacht Basin,Found,,,26.647652,-81.869605 ,Ft. Myers,FL,"Cruisy Area,(AYOR)",Cruising Areas,1985,checked,,,,3/15/2022 3:39pm
1659,Jud Park ,Found,,,26.672987,-81.8999,Ft. Myers,FL,"Cruisy Area,(AYOR)",Cruising Areas,1985,checked,,,,3/15/2022 3:40pm
1660,Sanibel Island 'BA' beach,Found,"(Park at Bowman's Beach, turn R at water, walk 1-2 miles)",,26.460869,-82.152684,Ft. Myers,FL,"Cruisy Area,(AYOR)",Cruising Areas,1985,checked,,,,3/15/2022 3:42pm
1661,Sunset Park ,Found,,,26.622007,-81.875702,Ft. Myers,FL,"Cruisy Area,(AYOR)",Cruising Areas,1985,checked,,,,3/15/2022 3:43pm
1650,Gay Switchboard,General Coordinates Used,(813)945-9551,,26.640628,-81.872308,Ft. Myers,FL,,Hotline,1985,checked,,,,3/15/2022 3:39pm
1655,SUPPORT,General Coordinates Used,(813)542-8902,,26.640628,-81.872308,Ft. Myers,FL,,"Hotline,Community Center/Support Groups",1985,checked,,,,3/15/2022 3:43pm
1664,Jaycee Park,Found,,,26.573736,-81.932036,Ft. Walton Beach,FL,Cruisy Area,Cruising Areas,1985,checked,,,,3/15/2022 3:46pm
1665,Wayside Park ,Found,,,30.393574,-86.590793,Ft. Walton Beach,FL,Cruisy Area,Cruising Areas,1985,checked,,,,3/15/2022 3:51pm
1673,Newman's Lake ,Found,T-Room,,29.666388,-82.25511,Gainesville,FL,"Cruisy Area,(AYOR)",Cruising Areas,1985,checked,,,,3/15/2022 3:53pm
1676,U. of Fla.,Found,(Student Union T-Rooms),,29.646547,-82.347944,Gainesville,FL,"Cruisy Area,(AYOR)",Cruising Areas,1985,checked,,,,3/15/2022 3:56pm
1675,U. of Fla.,Found,(2nd Floor) (Library East),,29.650939,-82.341786,Gainesville,FL,Cruisy Area,Cruising Areas,1985,checked,,,,3/15/2022 3:56pm
1676 copy,U. of Fla.,Found,Little Hall T-Rooms,,29.650939,-82.341786,Gainesville,FL,"Cruisy Area,(AYOR)",Cruising Areas,1985,checked,,,,3/15/2022 3:56pm
1674,'Rest Stop' ,General Coordinates Used,(on I-75 (exit) S.W. of town),,29.651634,-82.324826,Gainesville,FL,Cruisy Area,Cruising Areas,1985,checked,,,,3/15/2022 3:52pm
1666,Gaytalk ,General Coordinates Used,(904)373-GAYS,,29.651634,-82.324826,Gainesville,FL,,Hotline,1985,checked,,,,3/15/2022 3:52pm
1672,UFLAGS,General Coordinates Used,(904)392-1634,,29.651634,-82.324826,Gainesville,FL,,Organization,1985,checked,,,,3/15/2022 3:57pm
1681,Young Circle,Found,,,26.01154,-80.143033,Hollywood,FL,Cruisy Area,Cruising Areas,1985,checked,,,,3/31/2022 7:59am
1692,Friendship Park ,Found,,,30.319695,-81.660155,Jacksonville,FL,"Cruisy Area,(AYOR)",Cruising Areas,1985,checked,,,,3/15/2022 7:00am
1693,Hemming Park,Found,,,30.329397,-81.659701,Jacksonville,FL,"Cruisy Area,(AYOR)",Cruising Areas,1985,checked,,,,3/15/2022 7:02am
1685,Dignity/ Jacksonville ,General Coordinates Used,,"P.O. Box 225, Jax. 32201",30.332184,-81.655651 ,Jacksonville,FL,,Religious Institution,1985,checked,,,,3/15/2022 7:00am
1686,Gay Hot Line,General Coordinates Used,(904)384-2234,,30.332184,-81.655651 ,Jacksonville,FL,,Hotline,1985,checked,,,,3/15/2022 7:00am
1690,Old Plantation,General Coordinates Used,(Wed. & WE*)(Back door),640 W. Bay at Jefferson,30.332184,-81.655651,Jacksonville,FL,"(P),(YC),(D),(*)",Bars/Clubs,1985,checked,,,,3/15/2022 7:07am
1752,Duval St.,Found,,,24.553851,-81.801316,Key West,FL,Cruisy Area,Cruising Areas,1985,checked,,,,3/15/2022 4:09pm
1716,Half Shell Raw Bar,Found,(At foot of Margaret St.),,24.561952,-81.800103,Key West,FL,"(M),(R)",Restaurant,1985,checked,,Still operating: https://www.halfshellrawbar.com/,,3/15/2022 4:10pm
1720,Key West Business Guild,Found,(800)296-7535,"P.O. Box 1208, Key West 33040",24.552568,-81.800562,Key West,FL,,Organization,1985,checked,,Still operating: https://gaykeywestfl.com/ ; Their FB page: https://www.facebook.com/keywestbusinessguild/ ,,3/15/2022 4:17pm
1753,Leo's Campground,Found,,,24.571943,-81.74317 ,Key West,FL,Cruisy Area,Cruising Areas,1985,checked,,Still operating: https://www.leoscampground.com,,3/16/2022 10:57am
1727,Louie's Backyard,Found,,Vernon St. ,24.547393,-81.792863,Key West,FL,"(M),(R)",Restaurant,1985,checked,,Still operating: https://www.louiesbackyard.com,,3/16/2022 11:01am
1754,Mallory Square at sunset,Found,,,24.559902,-81.807583,Key West,FL,Cruisy Area,Cruising Areas,1985,checked,,,,3/16/2022 11:02am
1755,Monroe County Beach,Found,(Reynolds St. Pier),,24.546313,-81.788408,Key West,FL,Cruisy Area,Cruising Areas,1985,checked,,,,3/16/2022 11:02am
1737,Papillon Bar,Found,(Cruisy cocktail hour)(Sun. T-D by-the-sea*),Simonton & South,24.555418,-81.784172,Key West,FL,(*),"Bars/Clubs,Cruising Areas",1985,checked,,,,3/16/2022 11:08am
1750,Wicker Guest House,Found,(at Truman),913 Duval ,33.759637,-78.790519,Key West,FL,"(*),(H)",Hotel,1985,checked,,,,4/30/2022 7:10am
1717,Hurricane Alley Guest House,General Coordinates Used,(Pool),"P.O. Box 552, Key West 33040",24.555418,-81.784172,Key West,FL,(H),Hotel,1985,checked,,,,3/16/2022 11:08am
1722,Lambda West,General Coordinates Used,"(Books,card, etc.) (at Olivia)",901-C Duval ,24.555418,-81.784172,Key West,FL,,Book Store,1985,checked,,,,3/16/2022 11:07am
1744,Southern Exposure,General Coordinates Used,(Publication),"P.O. Box 1554, K.W. 33040",24.555418,-81.784172,Key West,FL,,Publications,1985,checked,,,,3/16/2022 11:13am
1759,M.C.C. of Palm Beaches,Found,,"P.O. Box 6259, Lake Worth",26.809459,-80.112058,Lake Worth,FL,(MCC),Religious Institution,1985,checked,,,,3/16/2022 11:20am
1757,M.C.C.,General Coordinates Used,,"P.O. Box 3201, Lakeland 33802",28.039465,-81.949804,Lakeland,FL,(MCC),Religious Institution,1985,checked,,,,3/31/2022 8:33am
1764,Canova Beach ,Found,(Nights-AYOR),,28.138409,-80.580189,Melbourne,FL,"Cruisy Area,(AYOR)",Cruising Areas,1985,checked,,,,3/29/2022 7:44am
1765,Wickham Park ,Found,(T-Rooms),N. Melbourne,28.164052,-80.662393,Melbourne,FL,"Cruisy Area,(AYOR)",Cruising Areas,1985,checked,,,,3/29/2022 7:46am
1767,Merritt Island Shopping Center ,Found,(T-Room),,28.354411,-80.686612 ,Merritt Island,FL,Cruisy Area,Cruising Areas,1985,checked,,"According to Google search, this business is still operating",,4/4/2022 12:24pm
1808,Bayfront Park Marina,Found,,,25.461951,-80.33652,Miami,FL,"Cruisy Area,(AYOR)",Cruising Areas,1985,checked,,,,3/29/2022 7:51am
1810,Burdine's ,Found,(Dadeland) (T-Room),,25.689755,-80.309948,Miami,FL,"Cruisy Area,(AYOR)",Cruising Areas,1985,checked,,,,3/29/2022 7:55am
1812,Dade Comm. College,Found,(T-Room next to Library),,25.776729,-80.192999 ,Miami,FL,Cruisy Area,Cruising Areas,1985,checked,,,,3/29/2022 7:58am
1790,M.C.C.,Found,(at N.E. 2nd Ct. ),N.E. 23rd St. ,25.799279,-80.189857,Miami,FL,(MCC),Religious Institution,1985,checked,,,,3/29/2022 8:06am
1813,Matheson Hammock Beach on Old Culter Rd.,Found,Turn right at fork,,25.679228,-80.256602,Miami,FL,Cruisy Area,Cruising Areas,1985,checked,,,,3/29/2022 8:08am
1814,Miami Dade College,Found,(S. Campus- Music Bldg.),,25.776729,-80.192999,Miami,FL,Cruisy Area,Cruising Areas,1985,checked,,,,3/29/2022 8:08am
