ID,Title,status,lat,lon,description,streetaddress,city,state,Year,amenityfeatures,type,unclearaddress,uncleartype,notes,dateadded,lastmodified
1,Lagarde Park,Found,33.692729,-85.823936,,,Anniston,AL,1995,Cruisy Area,Cruising Areas,checked,,,,6/12/2023 11:35am
2,Noble St.,Found,33.658482,-85.829655,,btwn. 8th & 16th,Anniston,AL,1995,Cruisy Area,Cruising Areas,checked,,,,6/12/2023 11:38am
4,Haley Center Library & Sanford Park,Found,32.603395,-85.486793,"nr. Langton Hall, Auburn U",,Auburn,AL,1995,"Cruisy Area,(AYOR)",Cruising Areas,checked,,,,6/12/2023 11:39am
18,Alabama Forum,General Coordinates Used,33.518589,-86.810357,328-9228,"Box 55894, 35255",Birmingham,AL,1995,,Publications,checked,,,,6/12/2023 11:54am
7,Community Real Estate Referrals,General Coordinates Used,33.38376,-87.122124 ,(800)346-5592 gay realtor at your service,,Birmingham,AL,1995,,Info Lines & Services,checked,,,,6/12/2023 11:59am
6,AA Gay/Lesbian,General Coordinates Used,33.518589,-86.810357,"(at Lambda Resource Center) 933-8964 (AA#) 8pm Wed & Fri, 6pm Sun",,Birmingham,AL,1995,,Info Lines & Services,checked,,,,6/12/2023 11:57am
26,"""The Pumps""",General Coordinates Used,34.605925,-86.983342,(AYOR),,Decatur,AL,1995,"Cruisy Area,(AYOR)",Cruising Areas,checked,,,,6/12/2023 12:25pm
25,Point Mallard Park,Found,34.57121,-86.93589,Swimmin' Hole (Summers),,Decatur,AL,1995,Cruisy Area,Cruising Areas,checked,,,,6/12/2023 12:27pm
29,Wilson Park,Found,34.80322,-87.675219,"(Nights, AYOR)",,Florence,AL,1995,"Cruisy Area,(AYOR)",Cruising Areas,checked,,,,6/12/2023 12:38pm
28,Veterans Park,Found,34.811018,-87.625245,"(Days, AYOR)",,Florence,AL,1995,"Cruisy Area,(AYOR)",Cruising Areas,checked,,,,6/12/2023 12:38pm
31,GALOP (Gay & Lesbian Org. of Professionals),Found,34.711624,-86.597645,517-6127 meets 4th Th at 2400 Bob Wallace,"PO Box 914, 35804",Huntsville,AL,1995,,Info Lines & Services,checked,,,,6/12/2023 12:40pm
34,Tallulah Bankhead Pkwy.,General Coordinates Used,34.730369,-86.586104,all overlooks (AYOR),,Huntsville,AL,1995,"Cruisy Area,(AYOR)",Cruising Areas,checked,,,,6/12/2023 12:45pm
32,Pink Triangle Alliance,General Coordinates Used,34.729901,-86.59007,"539-4235 resource & info line, 9am-9am",,Huntsville,AL,1995,,Info Lines & Services,checked,,,,6/12/2023 12:42pm
35,Southern Support Services,General Coordinates Used,31.509052,-87.894443,"support group for Thomasville, Demopolis, Selma & Jackson","PO Box 1053, 36784-1073",Jackson,AL,1995,,Info Lines & Services,checked,,,,6/12/2023 12:46pm
36,Germania Springs,Found,33.8478,-85.757482,,,Jacksonville,AL,1995,Cruisy Area,Cruising Areas,checked,,,,6/12/2023 12:47pm
46,"Montgomery Institute, The",General Coordinates Used,32.292786,-86.252829,"244-9623 transgender info, contact Cristine",,Montgomery,AL,1995,,Info Lines & Services,checked,,,,6/12/2023 3:25pm
50,Cooter Pond,Found,32.429394,-86.400732,(AYOR),,Montgomery,AL,1995,"Cruisy Area,(AYOR)",Cruising Areas,checked,,,,6/12/2023 3:20pm
44,Black & White Men Together (BWMT),General Coordinates Used,32.373798,-86.311007,284-2421,,Montgomery,AL,1995,,Info Lines & Services,checked,,,,6/12/2023 3:18pm
51,McInnis area,General Coordinates Used,32.292786,-86.252829,(AYOR),,Montgomery,AL,1995,"Cruisy Area,(AYOR)",Cruising Areas,checked,,,,6/12/2023 3:22pm
52,G/L/B Alliance,General Coordinates Used,33.209841,-87.569173,U. of Alabama 348-7210,,Tuscaloosa,AL,1995,,Info Lines & Services,checked,,,,6/12/2023 3:34pm
5,Autaugaville Rec. Park,General Coordinates Used,32.434025,-86.654702,(AYOR),,Autaugaville,AL,1995,"Cruisy Area,(AYOR)",Cruising Areas,checked,,,,6/12/2023 3:37pm
68,Identity Northview,General Coordinates Used,61.218923,-149.850373,258-4777 monthly newsletter; also sponsors Fourth Fri Potluck Social,"PO Box 200070, 99520",Anchorage,AK,1995,,Publications,checked,,,,6/12/2023 3:43pm
56,Anchorage Garden Buddies,General Coordinates Used,61.196105,-149.915966,monthly men's social club,"PO Box 104858, 99510",Anchorage,AK,1995,,Info Lines & Services,checked,,,,6/12/2023 3:42pm
57,Anchorage Gay/Lesbian Help Line,General Coordinates Used,61.196105,-149.915966,"258-4777, irregular hours, leave message",,Anchorage,AK,1995,,Info Lines & Services,checked,,,,6/12/2023 3:42pm
60,"Lodge at Eagle River, The",General Coordinates Used,61.199372,-149.918675,"278-7575 3 bdrms great views, on 2 acres, deck, hot tub","PO Box 90154, 99509",Anchorage,AK,1995,(IGTA),Accommodations,checked,,,,6/12/2023 3:47pm
76,Palace Saloon,General Coordinates Used,64.837778,-147.716389,"456-5960 4pm-9pm, 11pm-4am Fri-Sat, more gay Fri & Sat, mostly tourist in summer",Alaskaland,Fairbanks,AK,1995,"(GF),(D),(E)",Bars,checked,,,,6/19/2023 4:09pm
78,Island Watch,General Coordinates Used,59.648086,-151.529924,235-2265 cabin & suite,,Homer,AK,1995,"(GF),(WC)",Accommodations,checked,,,,6/19/2023 8:25pm
90,Thorp Park,Found,35.203668,-111.658355,(AYOR),,Flagstaff,AZ,1995,"Cruisy Area,(AYOR)",Cruising Areas,checked,,,,6/19/2023 8:29pm
85,Flagstaff Lesbian & Gay,General Coordinates Used,35.198284,-111.651302,527-3366,,Flagstaff,AZ,1995,,Info Lines & Services,checked,,,,6/19/2023 8:27pm
84,Community Real Estate Referrals,General Coordinates Used,35.198284,-111.651302,(800)346-5592 gay realtor at your service,,Flagstaff,AZ,1995,,Info Lines & Services,checked,,,,6/19/2023 8:27pm
95,Reed & Pioneer Park,Found,33.416972,-111.819674,(AYOR),,Mesa,AZ,1995,"Cruisy Area,(AYOR)",Cruising Areas,checked,,,,6/19/2023 8:33pm
93,Executive Tour Associates,General Coordinates Used,33.415184,-111.831472,898-0098/(800)382-1113,"PO Box 42151, 85274-2151",Mesa,AZ,1995,(IGTA),Travel/Tour Operators,checked,,,,6/19/2023 8:31pm
98,Gay Helpline,General Coordinates Used,33.555703,-112.1121,"265-1102, 7pm-midnight Tues-Sat",,Phoenix,AZ,1995,,Info Lines & Services,checked,,,,6/19/2023 9:01pm
130,Arizona Office of Tourism,General Coordinates Used,33.448377,-112.074037,542-8687,,Phoenix,AZ,1995,,Travel/Tour Operators,checked,,,,6/19/2023 8:42pm
104,Private Resort Inn,General Coordinates Used,33.448377,-112.074037,582-3868 deluxe resort,"PO Box 41624, 85080",Phoenix,AZ,1995,"(MW),(SW),(WC),(IGTA)",Accommodations,checked,,,,6/19/2023 9:09pm
136,Western Express,General Coordinates Used,33.453877,-111.953395,254-1324,"PO Box 5950, 85010",Phoenix,AZ,1995,,Publications,checked,,,,6/19/2023 9:25pm
100,Lesbian/Gay Switchboard,General Coordinates Used,33.448377,-112.074037,"234-2752/0873 (TDD), 10am-10pm",,Phoenix,AZ,1995,,Info Lines & Services,checked,,,,6/19/2023 9:03pm
96,Camelback Business & Professional Assoc.,General Coordinates Used,33.538652,-112.185987,225-8444,"PO Box 2097, 85001",Phoenix,AZ,1995,,Info Lines & Services,checked,,,,6/19/2023 8:49pm
97,Community Real Estate Referrals,General Coordinates Used,33.448377,-112.074037,(800)346-5592 gay realtor at your service,,Phoenix,AZ,1995,,Info Lines & Services,checked,,,,6/19/2023 9:53pm
135,Echo Magazine,General Coordinates Used,33.448377,-112.074037,266-0550,"PO Box 1808, 85001",Phoenix,AZ,1995,,Publications,checked,,,,6/19/2023 9:01pm
151,Hot Air Affair,General Coordinates Used,33.49417,-111.926052,991-0738 hot air balloon trips,"PO Box 6253, 85261",Scottsdale,AZ,1995,(IGTA),Travel/Tour Operators,checked,,,,6/19/2023 9:27pm
153,Sacred Sedona,General Coordinates Used,34.86974,-111.76099,204-2422 2rms,,Sedona,AZ,1995,(MW),Accommodations,checked,,,,6/19/2023 9:30pm
155,Park,General Coordinates Used,34.824424,-111.805914,at Red Rock Crossing (way back),,Sedona,AZ,1995,Cruisy Area,Cruising Areas,checked,,,,6/19/2023 9:29pm
157,Papago Park,Found,33.453632,-111.948693,southern part (AYOR),,Tempe,AZ,1995,"Cruisy Area,(AYOR)",Cruising Areas,checked,,,,6/19/2023 9:33pm
158,West side of Mill Ave.,General Coordinates Used,33.42551,-111.940005,(by the Coffee Plantation)  (AYOR),,Tempe,AZ,1995,"Cruisy Area,(AYOR)",Cruising Areas,checked,,,,6/19/2023 9:51pm
159,City Park,Found,31.713073,-110.068154,(AYOR),,Tombstone,AZ,1995,"Cruisy Area,(AYOR)",Cruising Areas,checked,,,,6/19/2023 9:36pm
178,"Observer, The",General Coordinates Used,32.222607,-110.974711,622-7176,"PO Box 50733, 85703",Tucson,AZ,1995,,Publications,checked,,,,6/19/2023 9:40pm
161,Community Real Estate Referrals,General Coordinates Used,32.222607,-110.974711,(800)346-5592 gay realtor at your service,,Tucson,AZ,1995,,Info Lines & Services,checked,,,,6/19/2023 9:37pm
160,AA Gay/Lesbian,General Coordinates Used,32.222607,-110.974711,"624-4183 (AA#) 8pm Mon, Th-Fri",,Tucson,AZ,1995,,Info Lines & Services,checked,,,,6/19/2023 9:36pm
169,Congress Tap Room,Found,32.222248,-110.966648,(inside Hotel Congress) 11am-1am,,Tucson,AZ,1995,"(GF),(NH),(OC)",Bars,checked,,,,6/19/2023 9:37pm
182,Joe Henry Park,Found,32.728158,-114.648609,(AYOR),,Yuma,AZ,1995,"Cruisy Area,(AYOR)",Cruising Areas,checked,,,,6/19/2023 9:41pm
92,London Bridge,Found,34.467188,-114.352661,(is going down!),,Lake Havasu City,AZ,1995,Cruisy Area,Cruising Areas,checked,,,,6/19/2023 9:42pm
82,Caritas B&B Newtwork,General Coordinates Used,33.833372,-111.950704,(312)857-0801,,Cave Creek,AZ,1995,,Accommodations,checked,,,,6/19/2023 9:52pm
191,Pond Mountain Lodge & Resort,General Coordinates Used,35.07861,-92.317823,253-5877/(800)583-8043 full brkfst,"Rte. 1 Box 50, 72632",Eureka Springs,AR,1995,"(GF),(SW)",Accommodations,checked,,,,6/19/2023 10:06pm
187,"Gardener's Cottage, The",General Coordinates Used,35.07861,-92.317823,"253-9111/ (800)833-3394 priv. country cottage for 2, jacuzzi, seasonal",,Eureka Springs,AR,1995,(GF),Accommodations,checked,,,,6/19/2023 9:58pm
192,Purple Iris Inn,General Coordinates Used,36.393689,-93.707729, (Hwy. 62 W.) 253-8748/ (800)831-4747 seasonal,RR 6 Box 339 ,Eureka Springs,AR,1995,"(GF),(WC)",Accommodations,checked,,,,6/19/2023 10:07pm
205,Flat Rock Beach,General Coordinates Used,36.066242,-94.157853,mixed crowd but fun,,Fayetteville,AR,1995,"Cruisy Area,(N)",Cruising Areas,checked,,,,6/19/2023 10:10pm
206,Lake Fayetteville,Found,36.135807,-94.144443,(AYOR),,Fayetteville,AR,1995,"Cruisy Area,(AYOR)",Cruising Areas,checked,,,,6/19/2023 10:10pm
201,AA Live & Let Live Group,General Coordinates Used,36.066242,-94.157853,"521-5260, 7:30pm Mon, 5pm Sat",,Fayetteville,AR,1995,,Info Lines & Services,checked,,,,6/19/2023 10:09pm
202,Gay/Lesbian Student Association,General Coordinates Used,36.066242,-94.157853,,"University of AR, AU517, 72701",Fayetteville,AR,1995,,Info Lines & Services,checked,,,,6/19/2023 10:10pm
209,3rd & Garrison Sts.,Found,35.389097,-94.428005,(AYOR),,Ft. Smith,AR,1995,"Cruisy Area,(AYOR)",Cruising Areas,checked,,,,6/19/2023 10:12pm
211,De Soto Park,Found,34.536275,-93.029602,(AYOR),,Hot Springs,AR,1995,"Cruisy Area,(AYOR)",Cruising Areas,checked,,,,6/20/2023 1:23pm
224,Travel by Philip,General Coordinates Used,34.744462,-92.288016,227-7690,,Little Rock,AR,1995,(IGTA),Travel/Tour Operators,checked,,,,6/20/2023 1:43pm
212,AA Gay/Lesbian,General Coordinates Used,34.827811,-92.345685 ,664-7303 (AA#),,Little Rock,AR,1995,,Info Lines & Services,checked,,,,6/20/2023 1:25pm
213,Community Real Estate Referrals,General Coordinates Used,34.746481,-92.289595,(800)346-5592 gay realtor at your service,,Little Rock,AR,1995,,Info Lines & Services,checked,,,,6/20/2023 1:36pm
219,Michael's,Found,34.735062,-92.272538,"(at Little Rock Inn) 9pm-2am, 4pm-10pm Sun",,Little Rock,AR,1995,"(MW),D,(S)",Bars,checked,,,,6/20/2023 1:36pm
214,Gay/Lesbian Switchboard,General Coordinates Used,34.746481,-92.289595,"375-5504 (AR only) 6:30pm-10:30pm, info & referrals","PO Box 45053, 72214",Little Rock,AR,1995,,Info Lines & Services,checked,,,,6/20/2023 1:36pm
226,"Parachute, The",General Coordinates Used,34.744462,-92.288016,"(316)651-0500/ (800)536-6519, covers AR, KS, MO, OK","PO Box 11347, Wichita, KS, 67202",Little Rock,AR,1995,,Publications,checked,,,,6/20/2023 1:37pm
217,Christopher's Lounge,Found,34.735062,-92.272538,"(at Little Rock Inn) 5pm-2am, 7pm-1am Sat, piano bar",1401 S Main St,Little Rock,AR,1995,,Bars,checked,,,,6/20/2023 1:26pm
223,Arkansas Department of Tourism,Found,34.752012,-92.282065,(800)NATURAL,,Little Rock,AR,1995,,Travel/Tour Operators,checked,,,,6/20/2023 1:42pm
227,Triangle Journal News,General Coordinates Used,34.746481,-92.289595,"(901) 454-1411, covers TN & AR","Box 11485, Memphis, TN 38111",Little Rock,AR,1995,,Publications,checked,,,,6/20/2023 1:43pm
225,"Lesbian/Gay News-Telegraph, The",General Coordinates Used,34.746481,-92.289595,"(314)664-6411, covers AR, IL, MO, TN","PO Box 14229-A, St. Louis, MO 63178",Little Rock,AR,1995,,Publications,checked,,,,6/20/2023 1:36pm
229,Russellville State Park,Found,35.225281,-93.155952,(AYOR),Lake Dardanelle,Russellville,AR,1995,"Cruisy Area,(AYOR)",Cruising Areas,checked,,,,6/20/2023 2:35pm
183,U of Central Arkansas Gay/Lesbian Student Union,General Coordinates Used,35.091751,-92.436652,,"PO Box 7006, 72032",Conway,AR,1995,,Info Lines & Services,checked,,,,6/20/2023 2:35pm
230,Double Tree Ranch,General Coordinates Used,36.043403,-90.671223,236-7711 RV park & campsites,"PO Box 52, 72474",Walcott,AR,1995,(GF),Accommodations,checked,,,,6/20/2023 2:36pm
233,Gay/Lesbian Hotline of Orange County,General Coordinates Used,33.836593,-117.914301,534-3261 volunteers 7pm-10pm,,Anaheim,CA,1995,,Info Lines & Services,checked,,,,6/20/2023 2:40pm
238,Nude beach on American River,General Coordinates Used,38.896565,-121.07689,downstream,,Auburn,CA,1995,Cruisy Area,Cruising Areas,checked,,,,6/20/2023 2:40pm
247,Beach Park,Found,35.379936,-119.040635,"(Nights, AYOR)",21st & Oak Sts.,Bakersfield,CA,1995,"Cruisy Area,(AYOR)",Cruising Areas,checked,,,,6/20/2023 2:41pm
240,Gay Valley Alliance,General Coordinates Used,35.373292,-119.018712,398-8663 support group & community outreach,"PO Box 304, 93302",Bakersfield,CA,1995,,Info Lines & Services,checked,,,,6/20/2023 2:43pm
256,Carmel Park Beach,Found,36.539474,-121.928334,from dunes to N. end,,Carmel,CA,1995,Cruisy Area,Cruising Areas,checked,,,,6/20/2023 3:06pm
259,Gay Hotline,General Coordinates Used,39.728494,-121.837478,891-5718 (priv. home) hrs vary,,Chico,CA,1995,,Info Lines & Services,checked,,,,6/20/2023 3:15pm
258,Chico State Student Group,Found,39.729665,-121.847887,898-4420,,Chico,CA,1995,,Info Lines & Services,checked,,,,6/20/2023 3:14pm
265,Kneeling Park,Found,39.121909,-122.855206,(Fun),,Clearlake,CA,1995,Cruisy Area,Cruising Areas,checked,,,,6/20/2023 3:17pm
266,Library Park,Found,39.043103,-122.913873,Lakeport,,Clearlake,CA,1995,Cruisy Area,Cruising Areas,checked,,,,6/20/2023 3:17pm
276,Henry Dana St. Park,General Coordinates Used,33.467226,-117.698101,,,Dana Point,CA,1995,Cruisy Area,Cruising Areas,checked,,,,6/20/2023 3:18pm
303,Wells Park,Found,32.799976,-116.942355,,,El Cajon,CA,1995,Cruisy Area,Cruising Areas,checked,,,,6/20/2023 3:20pm
307,Grape Day Park,Found,33.123954,-117.083381,Heritage section,,Escondido,CA,1995,Cruisy Area,Cruising Areas,checked,,,,6/20/2023 3:20pm
312,Old Town,General Coordinates Used,40.802071,-124.163673,(Nights),,Eureka,CA,1995,Cruisy Area,Cruising Areas,checked,,,,6/20/2023 3:20pm
313,Solano County Gay/Lesbian Info Line,General Coordinates Used,38.249196,-122.040515,"449-0550, ask for Kristin or Kathy",,Fairfield,CA,1995,,Info Lines & Services,checked,,,,6/20/2023 3:21pm
320,Coyote Hills Regional Park,Found,37.556629,-122.09406,(AYOR),,Fremont,CA,1995,"Cruisy Area,(AYOR)",Cruising Areas,checked,,,,6/20/2023 3:21pm
321,Bulletin Board at Valley Women's Books,General Coordinates Used,36.737798,-119.787125,popular resource for community info,,Fresno,CA,1995,,Info Lines & Services,checked,,,,6/20/2023 3:40pm
336,Olive & Blackstone Ave.,Found,36.757714,-119.790571,,,Fresno,CA,1995,Cruisy Area,Cruising Areas,checked,,,,6/20/2023 3:34pm
337,Redeo Park,Found,36.771684,-119.773827,,,Fresno,CA,1995,Cruisy Area,Cruising Areas,checked,,,,6/20/2023 3:24pm
333,Pink Pages,General Coordinates Used,36.737798,-119.787125,"485-5333, annual directory for Central Valley & Coast","PO Box 4959, 93744-4959",Fresno,CA,1995,,Publications,checked,,,,6/20/2023 3:33pm
322,Community Link,General Coordinates Used,36.737798,-119.787125,485-5333 youth support group & more,"PO Box 4959, 93744",Fresno,CA,1995,,Info Lines & Services,checked,,,,6/20/2023 3:40pm
325,"Yosemite Chapter, Knights of Malta",General Coordinates Used,36.737798,-119.787125,233-2014 lesbigay leather group,"PO Box 4162, 93744",Fresno,CA,1995,,Info Lines & Services,checked,,,,6/20/2023 3:37pm
348,Campground & R.R. bridge,Found,34.473356,-120.229478,(AYOR),,Gaviota State Beach,CA,1995,"Cruisy Area,(AYOR)",Erotica,checked,,,,6/20/2023 3:43pm
825,"""Nude"" beach",General Coordinates Used,38.501858,-122.99611,,on Russian River at Wohler Bridge,Guerneville,CA,1995,Cruisy Area,Cruising Areas,checked,,"Listed under ""Russian River Resort (All are Guerneville until noted).""",,6/20/2023 4:32pm
823,Tye-Dye Guy,Found,38.501871,-122.999648,"(across from Fife's) open wknds, a must-see for the gay traveller",River Rd.,Guerneville,CA,1995,(*),Bookstores/Retail Shops,checked,,"Listed under ""Russian River Resort (All are Guerneville until noted).""",,6/20/2023 4:37pm
787,Community Real Estate Referrals,General Coordinates Used,38.501858,-122.99611,"(800)346-5592, gay realtor at your service",,Guerneville,CA,1995,,Info Lines & Services,checked,,"Listed under ""Russian River Resort (All are Guerneville until noted).""",,6/20/2023 4:32pm
788,Country Inns of the Russian River,General Coordinates Used,38.527459,-123.000095,(800)927-4667 info & referrals,"PO Box 2416, 95446",Guerneville,CA,1995,,Info Lines & Services,checked,,"Listed under ""Russian River Resort (All are Guerneville until noted).""",,6/20/2023 4:33pm
799,Jim & Rodney's Guest Cottage,General Coordinates Used,38.501858,-122.99611,869-1146 large deck,,Guerneville,CA,1995,(MW),Accommodations,checked,,"Listed under ""Russian River Resort (All are Guerneville until noted).""",,6/20/2023 4:33pm
806,Russian River Resort (Triple R Resort),Found,38.503173,-123.000295,869-0691 cocktail lounge,4th & Mill St.,Guerneville,CA,1995,"(MW),(F)",Accommodations,checked,,"Listed under ""Russian River Resort (All are Guerneville until noted).""",,6/20/2023 4:35pm
360,Gibbel Park,Found,33.749512,-116.999223,(AYOR),,Hemet,CA,1995,"Cruisy Area,(AYOR)",Cruising Areas,checked,,,,6/20/2023 4:38pm
359,Inland Empire Couples,General Coordinates Used,33.74752,-116.971968,652-6918,,Hemet,CA,1995,,Info Lines & Services,checked,,,,6/20/2023 4:39pm
361,Maze Stone County Park,Found,33.781393,-117.056477,,4.5 mi. W. on Hwy 74,Hemet,CA,1995,Cruisy Area,Cruising Areas,checked,,,,6/20/2023 4:40pm
383,Hunky's Video Bar,Found,33.531573,-117.774944,"(at Coast Inn) 10am-2am; also girl, some veggie",,Laguna Beach,CA,1995,"(MW),D,(F),(V),(YC),(WC)",Bars,checked,,,,6/20/2023 4:50pm
395,Orange County Blade,General Coordinates Used,33.542719,-117.785357,494-4898,"PO Box 1538, 92652",Laguna Beach,CA,1995,,Publications,checked,,,,6/20/2023 5:08pm
397,Just S. of Aliso Pier,General Coordinates Used,33.510027,-117.752554,(AYOR),,Laguna Beach,CA,1995,"Cruisy Area,(AYOR)",Cruising Areas,checked,,,,6/20/2023 4:59pm
398,West St. Beach,General Coordinates Used,33.542719,-117.785357,,"N. of Laguna Royal, S. of Laguna",Laguna Beach,CA,1995,Cruisy Area,Cruising Areas,checked,,,,6/20/2023 5:09pm
374,Community Real Estate Referrals,General Coordinates Used,33.510027,-117.752554,(800)346-5592 gay realtor at your service,,Laguna Beach,CA,1995,,Info Lines & Services,checked,,,,6/20/2023 4:59pm
375,Laguna Outreach,General Coordinates Used,33.510027,-117.752554,497-4237 educational/social.org for Orange County,,Laguna Beach,CA,1995,,Info Lines & Services,checked,,,,6/20/2023 5:00pm
386,Newport Station,General Coordinates Used,33.542719,-117.785357,"9pm-2am Tues, Wed, Th & Sat",,Laguna Beach,CA,1995,"(*),(MW),D,(E),(S),(V),(YC)",Bars,checked,,,,6/20/2023 5:08pm
394,Gay/Lesbian Times,General Coordinates Used,33.510027,-117.752554,"(619)299-6397, covers Southern CA","PO Box 34624, San Diego 92163",Laguna Beach,CA,1995,,Publications,checked,,,,6/20/2023 5:00pm
382,Boom Boom Room,Found,33.531573,-117.774944,(at Coast Inn) 10am-2am,,Laguna Beach,CA,1995,"(*),(MW),D,(E),(S),(V),(YC),(WC)",Bars,checked,,,,6/20/2023 4:50pm
399,Bavarian House B&B,General Coordinates Used,38.939926,-119.977187,"544-4411/ (800)431-4411 exclusively gay & lesbian, open Nov-April",,Lake Tahoe,CA,1995,,Accommodations,checked,,,,6/20/2023 5:12pm
442,Beach at Granada & Ocean,Found,33.756852,-118.141338,,,Long Beach,CA,1995,Cruisy Area,Cruising Areas,checked,,,,6/22/2023 8:26am
441,Beach at 'A' St. & Ocean,Found,33.756852,-118.141338,,,Long Beach,CA,1995,Cruisy Area,Cruising Areas,checked,,,,6/22/2023 8:26am
407,Community Real Estate Referrals,General Coordinates Used,33.783824,-118.11409,(800)346-5592 gay realtor at your service,,Long Beach,CA,1995,,Info Lines & Services,checked,,,,6/22/2023 8:28am
438,Gay/Lesbian Times,General Coordinates Used,33.770514,-118.187732,(619)299-6397 covers Southern CA,"PO Box 34624, San Diego, 92163",Long Beach,CA,1995,,Publications,checked,,,,6/22/2023 8:31am
482,Temple,General Coordinates Used,34.089721,-118.370293,(call for locations) 243-5221 underground house Sat,,Los Angeles,CA,1995,"D,(A)",Bars,checked,,"Listed under ""L.A. - Hollywood.""",,6/22/2023 9:56am
627,Community Real Estate Referral,General Coordinates Used,34.052234,-118.243685,(800)346-5592 gay realtor at your service,,Los Angeles,CA,1995,,Info Lines & Services,checked,,"Listed under ""L.A. - West Los Angeles & South Bay.""",,6/22/2023 9:00am
448,Black & White Men Together (BWMT) Los Angeles,General Coordinates Used,34.052234,-118.243685,"(213)664-4716, 7:30pm Sat",,Los Angeles,CA,1995,,Info Lines & Services,checked,,"Listed under ""L.A. - Overview.""",,6/22/2023 8:51am
452,"Gay Connection, The",General Coordinates Used,34.052234,-118.243685,"(900)505-MEET talk and/or meet with other men from your area, at only 99 cents per minute",,Los Angeles,CA,1995,,Info Lines & Services,checked,,"Listed under ""L.A. - Overview.""",,6/22/2023 9:05am
451,Community Real Estate Referrals,General Coordinates Used,34.052234,-118.243685,(800)346-5592 gay realtor at your service,,Los Angeles,CA,1995,,Info Lines & Services,checked,,"Listed under ""L.A. - Overview.""",,6/22/2023 9:00am
467,Black Jack,Found,34.083473,-118.351515,"Box 83515, 90083-0515",,Los Angeles,CA,1995,,Men's Clubs,checked,,"Listed under ""L.A. - Overview.""",,6/22/2023 8:53am
573,Uptown Gay/Lesbian Alliance,General Coordinates Used,34.089721,-118.370293,"258-8842 monthly social 2pm, 2nd Sun, newsletter","PO Box 65111, 90065",Los Angeles,CA,1995,,Info Lines & Services,checked,,"Listed under ""L.A. - Silverlake.""",,6/22/2023 9:57am
628,South Bay Lesbian/ Gay Community Org.,General Coordinates Used,34.090711,-118.337459,"379-2850 support & education system for El Segundo, Manhattan/ Hermosa/ Redondo Beaches, Torrance, Palos Verdes","PO Box 2777, Redondo Beach, 90278",Los Angeles,CA,1995,,Info Lines & Services,checked,,"Listed under ""L.A. - West Los Angeles & South Bay.""",,6/22/2023 9:54am
466,Spunk,General Coordinates Used,34.090711,-118.337459,(213)487-9012 monthly dish on LA club scene,"Plaza 9, 691 S. Irolo, 90005",Los Angeles,CA,1995,,Publications,checked,,"Listed under ""L.A. - Overview.""",,6/22/2023 9:55am
572,Community Real Estate Referrals,General Coordinates Used,34.052234,-118.243685,(800)346-5592 gay realtor at your service,,Los Angeles,CA,1995,,Info Lines & Services,checked,,"Listed under ""L.A. - Silverlake.""",,6/22/2023 9:00am
453,Gay/Lesbian Youth Phone Line,General Coordinates Used,34.052234,-118.243685,"(213)993-7475, referrals & support for those 23 & under, 7pm-10pm",,Los Angeles,CA,1995,,Info Lines & Services,checked,,"Listed under ""L.A. - Overview.""",,6/22/2023 9:05am
457,Bed & Breakfast of California,General Coordinates Used,34.052234,-118.243685,(310)498-0552/ (800)383-3513 B&B reservation service for California,,Los Angeles,CA,1995,,Accommodations,checked,,"Listed under ""L.A. - Overview.""",,6/22/2023 8:50am
443,AA (Gay/Lesbian),General Coordinates Used,34.052234,-118.243685,(213)993-7400,,Los Angeles,CA,1995,,Info Lines & Services,checked,,"Listed under ""L.A. - Overview.""",,6/22/2023 8:43am
450,City Span,General Coordinates Used,34.052234,-118.243685,"(800)248-9722, 8am-8pm lesbigay business directory",,Los Angeles,CA,1995,,Info Lines & Services,checked,,"Listed under ""L.A. - Overview.""",,6/22/2023 8:56am
558,Gay/Lesbian Times,General Coordinates Used,34.052234,-118.243685,(619)299-6397 covers Southern CA,"PO Box 34624, San Diego 92163",Los Angeles,CA,1995,,Publications,checked,,"Listed under ""L.A. - West Hollywood.""",,6/22/2023 9:05am
454,"""IM-RU? Gay Radio""",General Coordinates Used,34.052234,-118.243685,"KPFK LA 90.7 FM (818)985-2711, 10pm Sun; also ""This Way Out"" 4:30pm Tues",,Los Angeles,CA,1995,,Info Lines & Services,checked,,"Listed under ""L.A. - Overview.""",,6/22/2023 8:42am
600,Community Real Estate Referrals,General Coordinates Used,34.052234,-118.243685,(800)346-5592 gay realtor at your service,,Los Angeles,CA,1995,,Info Lines & Services,checked,,"Listed under ""L.A. - Valley.""",,6/22/2023 9:00am
566,Community Real Estate Referrals,General Coordinates Used,34.052234,-118.243685,(800)346-5592 gay realtor at your service,,Los Angeles,CA,1995,,Info Lines & Services,checked,,"Listed under ""L.A. - Midtown.""",,6/22/2023 9:00am
634,Klub Banshee,General Coordinates Used,34.10174,-118.311788,288-1601 dance parties in the LA area Tues & wknds,,Los Angeles,CA,1995,"(*),(W)",Bars,checked,,"Listed under ""L.A. - West Los Angeles & South Bay.""",,6/22/2023 9:17am
445,Asian/Pacific Lesbian & Gays,General Coordinates Used,34.090711,-118.337459,"PO Box 443 Ste. 109, W. Hollywood, 90046 (213)660-2131",,Los Angeles,CA,1995,,Info Lines & Services,checked,,"Listed under ""L.A. - Overview.""",,6/22/2023 8:48am
642,Will Rogers State Beach,Found,34.034319,-118.535257,(AYOR),"Santa Monica - on Pacific Coast Hwy, at Chautauqua just S. of volleyball courts",Los Angeles,CA,1995,"Cruisy Area,(AYOR)",Cruising Areas,checked,,"Listed under ""L.A. - West Los Angeles & South Bay.""",,6/22/2023 10:00am
465,Planet Homo,General Coordinates Used,34.052234,-118.243685,"(213)848-2220, covers LA club scene",,Los Angeles,CA,1995,,Publications,checked,,"Listed under ""L.A. - Overview.""",,6/22/2023 9:24am
565,Beverly Center,Found,34.075171,-118.377355,(Queens for Days!),,Los Angeles,CA,1995,Cruisy Area,Cruising Areas,checked,,"Listed under ""L.A. - West Hollywood.""",,6/22/2023 8:50am
461,Gay/Lesbian Times,General Coordinates Used,34.052234,-118.243685,(619)299-6397 covers Southern CA,"PO Box 34624, San Diego 92163",Los Angeles,CA,1995,,Publications,checked,,"Listed under ""L.A. - Overview.""",,6/22/2023 9:05am
447,Black Gay/Lesbian Leadership Forum,General Coordinates Used,34.052234,-118.243685,"(213)964-7820, nat'l org.",,Los Angeles,CA,1995,,Info Lines & Services,checked,,"Listed under ""L.A. - Overview.""",,6/22/2023 8:51am
470,Sobhiel Limousine Service,General Coordinates Used,34.090711,-118.337459,(800)762-4435,,Los Angeles,CA,1995,,Info Lines & Services,checked,,"Listed under ""L.A. - Hollywood.""",,6/22/2023 9:54am
496,Community Real Estate Referrals,General Coordinates Used,34.052234,-118.243685,(800)346-5592 gay realtor at your service,,Los Angeles,CA,1995,,Info Lines & Services,checked,,"Listed under ""L.A. - West Hollywood.""",,6/22/2023 9:00am
644,Ellis Lake,Found,39.146766,-121.588173,(AYOR),,Marysville,CA,1995,"Cruisy Area,(AYOR)",Cruising Areas,checked,,,,6/22/2023 10:09am
646,Mendocino Coastal Reservations,General Coordinates Used,39.307674,-123.799459,"(800)262-7801, 9am-6pm",,Mendocino,CA,1995,,Accommodations,checked,,,,6/22/2023 10:09am
648,Stanford Inn by the Sea,Found,39.300047,-123.79064,937-5615,Coast Hwy. & Comptche-Ukiah Rd.,Mendocino,CA,1995,(GF),Accommodations,checked,,,,6/22/2023 10:09am
665,Garrapata Beach,Found,36.422101,-121.914599,(Carmel) ,N. end 9.3 mi. S. of Rio Rd. Hwy. 1,Monterey,CA,1995,Cruisy Area,Cruising Areas,checked,,,,6/22/2023 10:34am
660,AA Gay/Lesbian,General Coordinates Used,36.600238,-121.894676,"373-3713 (AA#) at the Little House in the Park, 8pm Th, men-only 8pm Mon",,Monterey,CA,1995,,Info Lines & Services,checked,,,,6/22/2023 10:12am
669,Morro Rock,Found,35.369419,-120.86768,(Late),along Embarcadero,Morro Bay,CA,1995,Cruisy Area,Cruising Areas,checked,,,,6/22/2023 10:35am
673,Bed and Breakfast Inns of Napa,General Coordinates Used,38.297538,-122.286865,226-7459 call for extensive brochure,,Napa,CA,1995,(GF),Accommodations,checked,,,,6/22/2023 10:36am
680,Beach,Found,33.195369,-117.384897,(AYOR),from pier S.,Oceanside,CA,1995,"Cruisy Area,(AYOR)",Cruising Areas,checked,,,,6/22/2023 10:37am
682,"Gay Connection, The",General Coordinates Used,33.787914,-117.853101,"(900)505-6339 talk and/or meet with other men from the area, at only 99 cents per minute",,Orange,CA,1995,,Info Lines & Services,checked,,,,6/22/2023 10:38am
725,Dates Bar & Deli,Found,33.792434,-116.482356,(at The Villa) 10am-midnight,,Palm Springs,CA,1995,"(*),(F)",Bars,checked,,,,6/22/2023 10:51am
687,Community Real Estate Referrals,General Coordinates Used,33.830296,-116.545292,"(800)346-5592, gay realtor at your service",,Palm Springs,CA,1995,,Info Lines & Services,checked,,,,6/22/2023 10:43am
726,"Poolside Bar, The",Found,33.80313,-116.545632,"(at Desert Palms Inn) 324-5100 9am-2am, piano bar",,Palm Springs,CA,1995,"(F),(E)",Bars,checked,,,,6/22/2023 11:01am
688,Desert Business Assn.,General Coordinates Used,33.830296,-116.545292,"PO Box 773, 92263 324-0178 lesbigay business association",,Palm Springs,CA,1995,(IGTA),Info Lines & Services,checked,,,,6/22/2023 10:52am
689,Gay/Lesbian Alliance of the Desert,General Coordinates Used,33.830296,-116.545292,"322-8769 community center, 24hr helpline","PO Box 861, Cathedral City, 92235",Palm Springs,CA,1995,,Info Lines & Services,checked,,,,6/22/2023 10:52am
686,AA Gay/Lesbian,General Coordinates Used,33.830296,-116.545292,324-4880 (AA#),,Palm Springs,CA,1995,,Info Lines & Services,checked,,,,6/22/2023 10:39am
748,Gay/Lesbian Times,General Coordinates Used,33.830296,-116.545292,(619)299-6397 covers Southern CA,"PO Box 34624, San Diego 92163",Palm Springs,CA,1995,,Publications,checked,,,,6/22/2023 10:52am
753,Lesbian/Gay/Bisexual Community Center,General Coordinates Used,37.441883,-122.143019,723-1488 recorded info,"PO Box 8265, Stanford, 94309",Palo Alto,CA,1995,,Info Lines & Services,checked,,,,6/22/2023 11:06am
762,Rancho Cicada Retreat,General Coordinates Used,38.481853,-120.844659,"PO Box 225, 95669 245-4841 May-Sept., secluded riverside retreat in Sierra foothills",,Plymouth,CA,1995,"(MW),(SW),(N)",Accommodations,checked,,,,6/22/2023 11:08am
763,Gay/Lesbian Community Center Hotline,General Coordinates Used,34.060271,-117.758368,"824-7618, 6:30pm-10pm info & referrals",,Pomona,CA,1995,,Info Lines & Services,checked,,,,6/22/2023 11:09am
766,Back Alley Bar,Found,34.057812,-117.737328,(at Alibi East) 9pm-3am Fri-Sat,,Pomona,CA,1995,,Bars,checked,,,,6/22/2023 11:09am
772,Dog Island Park,Found,40.183737,-122.239013,(days),,Red Bluff,CA,1995,Cruisy Area,Cruising Areas,checked,,,,6/22/2023 11:11am
773,Park along river,Found,40.174536,-122.229586,(early evenings),,Red Bluff,CA,1995,Cruisy Area,Cruising Areas,checked,,,,6/22/2023 11:11am
777,Lake Redding Park,Found,40.595133,-122.400309,near boat ramp (AYOR),,Redding,CA,1995,"Cruisy Area,(AYOR)",Cruising Areas,checked,,,,6/22/2023 11:12am
776,Clear Creek Rd.,General Coordinates Used,40.58654,-122.391675,nude beach (summers),4 mi. E. of old 99,Redding,CA,1995,Cruisy Area,Cruising Areas,checked,,,,6/22/2023 11:12am
782,Great Outdoors Inland Empire Chapter,General Coordinates Used,33.980601,-117.375494,"PO Box 56586, 92517 792-2255 outdoor social group",,Riverside,CA,1995,,Info Lines & Services,checked,,,,6/22/2023 11:15am
829,Men's Coming Out Group,Found,38.576213,-121.479906,(at Lambda Center) Mon 5:30pm,,Sacramento,CA,1995,,Info Lines & Services,checked,,,,6/22/2023 12:23pm
827,"Gay Connection, The",General Coordinates Used,38.581572,-121.4944,"(900)505-MEET, talk and/or meet with other men from your area, for only 99 cents per minute",,Sacramento,CA,1995,,Info Lines & Services,checked,,,,6/22/2023 11:57am
856,Vine St.,Found,38.597352,-121.48292,btwn. N. 10th & Richards Blvd. (by car only) (AYOR),,Sacramento,CA,1995,"Cruisy Area,(AYOR)",Cruising Areas,checked,,,,6/22/2023 12:28pm
853,American River Access,Found,38.565615,-121.382507,off La Rivera Dr. (AYOR),,Sacramento,CA,1995,"Cruisy Area,(AYOR)",Cruising Areas,checked,,,,6/22/2023 11:46am
854,Beach & levee on American River,Found,38.600118,-121.484667,"at end of N. 10th St., off Richards Blvd. (AYOR)",,Sacramento,CA,1995,"Cruisy Area,(AYOR)",Cruising Areas,checked,,,,6/22/2023 11:52am
826,Community Real Estate Referrals,General Coordinates Used,38.581572,-121.4944,"(800)346-5592, gay realtor at your service",,Sacramento,CA,1995,,Info Lines & Services,checked,,,,6/22/2023 11:56am
839,Cafe Lambda,Found,38.576213,-121.479906,(at Lambda Center) 442-0185 Fri 8pm-midnight,,Sacramento,CA,1995,"(MW),(E)",Restaurants & Cafes,checked,,,,6/22/2023 11:55am
855,Paradise Beach,Found,38.58126,-121.423108,(AYOR) American River,,Sacramento,CA,1995,"Cruisy Area,(AYOR)",Cruising Areas,checked,,,,6/22/2023 12:25pm
858,AA Gay/Lesbian,General Coordinates Used,34.108345,-117.289765,825-4700 (AA#),,San Bernardino,CA,1995,,Info Lines & Services,checked,,,,6/22/2023 1:37pm
861,Inland Empire Couples,General Coordinates Used,34.108345,-117.289765,793-5994,"PO Box 3023, Rancho Cucamunga, 91729",San Bernardino,CA,1995,,Info Lines & Services,checked,,,,6/22/2023 1:46pm
859,"Gay Connection, The",General Coordinates Used,34.108345,-117.289765,"(900)5050-MEET, talk and/or meet with other men from your area, at only 99 cents per minute",,San Bernardino,CA,1995,,Info Lines & Services,checked,,,,6/22/2023 1:45pm
862,Project Teen,General Coordinates Used,34.108345,-117.289765,"335-2005, 7:30pm Wed, support group for lesbigay teens, call for details",,San Bernardino,CA,1995,,Info Lines & Services,checked,,,,6/22/2023 1:46pm
870,Senda de Playa Beach,Found,33.951792,-118.448844,,,San Clemente,CA,1995,Cruisy Area,Cruising Areas,checked,,,,6/22/2023 1:51pm
869,San Onofre Beach State Park,Found,33.372808,-117.565601,(AYOR),N. end of Camp Pendleton,San Clemente,CA,1995,"Cruisy Area,(N),(AYOR)",Cruising Areas,checked,,,,6/22/2023 1:50pm
873,"Gay Connection, The",General Coordinates Used,32.715738,-117.161084,"(900)505-MEET talk and/or meet with other men from the area, at only 99 cents per minute",,San Diego,CA,1995,,Info Lines & Services,checked,,,,6/22/2023 2:18pm
942,"Undersea Expeditions, Inc.",General Coordinates Used,32.802458,-117.235585,270-2900/ (800)669-0310 personalized gay/lesbian scuba tours worldwide,"PO Box 9455, Pacific Beach, 92169",San Diego,CA,1995,"(*),(IGTA)",Travel/Tour Operators,checked,,,,6/22/2023 2:44pm
874,Gay/Lesbian Asian Pacific Social Support,General Coordinates Used,32.715738,-117.161084,"282-2474, 2nd & 4th Sat","PO Box 8974, 92138",San Diego,CA,1995,,Info Lines & Services,checked,,,,6/22/2023 2:18pm
876,Girth & Mirth San Diego (GMSD),General Coordinates Used,32.715738,-117.161084,"563-9900 ext. 4673, social org. for heavyset men & their admirers, 3rd Sat","PO Box 86822, 92138-6822",San Diego,CA,1995,,Info Lines & Services,checked,,,,6/22/2023 2:22pm
965,Check with S.D.P.D.,General Coordinates Used,32.715738,-117.161084,Northgate Division (AYOR),,San Diego,CA,1995,"Cruisy Area,(AYOR)",Cruising Areas,checked,,,,6/22/2023 2:09pm
932,Groundworks Books,Found,32.877134,-117.2401,"452-9625, 10am-8pm","UCSD Student Center Rm. 0323, La Jolla",San Diego,CA,1995,,Bookstores/Retail Shops,checked,,,,6/22/2023 2:24pm
875,Gay/Lesbian Info Line,General Coordinates Used,32.715738,-117.161084,"294-4636, 24hrs",,San Diego,CA,1995,,Info Lines & Services,checked,,,,6/22/2023 2:18pm
888,Quince St. Trolley Bed & Breakfast,Found,32.736604,-117.161593,"226-8454 real trolley car suite, also B&B referral service",,San Diego,CA,1995,(GF),Accommodations,checked,,,,6/22/2023 2:33pm
880,Caritas B&B Network,General Coordinates Used,32.715738,-117.161084,(312)857-0801,,San Diego,CA,1995,,Accommodations,checked,,,,6/22/2023 2:09pm
872,Community Real Estate Referrals,General Coordinates Used,32.715738,-117.161084,"(800)346-5592, gay realtor at your service",,San Diego,CA,1995,,Info Lines & Services,checked,,,,6/22/2023 2:11pm
994,Hilltop Hideaway,General Coordinates Used,37.77493,-122.419415,(800)800-5838 cottage with Castro view; ask for Jim,,San Francisco,CA,1995,,Accommodations,checked,,"Listed under ""S. F. - Castro Area"".",,6/22/2023 4:43pm
1140,Greens Fort Mason,Found,37.806662,-122.432106,"771-6222 clsd Mon, upscale gourmet vegetarian",,San Francisco,CA,1995,,Restaurants & Cafes,checked,,"Listed under ""S.F.- Haight, Fillmore & West"".",,6/22/2023 4:42pm
1010,Elephant Walk,Found,37.760976,-122.43519,piano bar,18th & Castro,San Francisco,CA,1995,"(*),(NH),(F),(WC)",Bars,checked,,"Listed under ""S. F. - Castro Area"".",,6/22/2023 4:23pm
1220,Basque Hotel & Restaurant,Found,37.798236,-122.406457,788-9404 Uphill Alley off Broadway btwn. Columbus & Kearney,,San Francisco,CA,1995,(BW),Restaurants & Cafes,checked,,"Listed under ""S.F.- Downtown"".",,6/22/2023 4:50pm
972,Lesbian/Gay Switchboard,General Coordinates Used,37.77493,-122.419415,"(510)841-6224, 10am-10pm Mon-Fri, info, referrals, rap line",,San Francisco,CA,1995,,Info Lines & Services,checked,,"Listed under ""S. F. - Overview.""",,6/22/2023 4:48pm
969,"Gay Connection, The",General Coordinates Used,37.77493,-122.419415,"(900)505-MEET, talk and/or meet with other men from your area, at only 99 cents per minute",,San Francisco,CA,1995,,Info Lines & Services,checked,,"Listed under ""S. F. - Overview.""",,6/22/2023 4:26pm
1196,Community Real Estate Referrals,General Coordinates Used,37.77493,-122.419415,"(800)346-5592, gay realtor at your service",,San Francisco,CA,1995,,Info Lines & Services,checked,,"Listed under ""S.F.- Downtown"".",,6/22/2023 4:17pm
978,Western Exposure,General Coordinates Used,37.77493,-122.419415,(510)869-4395 arrange accommodations in private homes in Bay Area,,San Francisco,CA,1995,(MW),Accommodations,checked,,"Listed under ""S. F. - Overview.""",,6/22/2023 5:26pm
970,Gay/Lesbian Sierrans,General Coordinates Used,37.77493,-122.419415,281-5666 outdoor organization,,San Francisco,CA,1995,,Info Lines & Services,checked,,"Listed under ""S. F. - Overview.""",,6/22/2023 4:26pm
974,National Association for Men of Color Together,General Coordinates Used,37.77493,-122.419415,(800)624-2968,,San Francisco,CA,1995,,Info Lines & Services,checked,,"Listed under ""S. F. - Overview.""",,6/22/2023 4:55pm
1136,Cafe Corbus,Found,37.777249,-122.422384,(at the Muscle System) coffee bar & sandwiches,364 Hayes St.,San Francisco,CA,1995,,Restaurants & Cafes,checked,,"Listed under ""S.F.- Haight, Fillmore & West"".",,6/22/2023 4:02pm
1147,"""Land's End""",General Coordinates Used,37.77493,-122.419415,"(Aka ""Glands End"")",,San Francisco,CA,1995,"Cruisy Area,(AYOR)",Cruising Areas,checked,,"Listed under ""S.F.- Haight, Fillmore & West"".",,6/22/2023 2:55pm
968,Community Real Estate Referrals,General Coordinates Used,37.77493,-122.419415,"(800)346-5592, gay realtor at your service",,San Francisco,CA,1995,,Info Lines & Services,checked,,"Listed under ""S. F. - Overview.""",,6/22/2023 4:17pm
966,AA Gay/Lesbian,General Coordinates Used,37.77493,-122.419415,621-1326 (AA#),,San Francisco,CA,1995,,Info Lines & Services,checked,,"Listed under ""S. F. - Overview.""",,6/22/2023 2:55pm
1076,"Black Stallion Inn, The",Found,37.758749,-122.434549,(see Castro section),635 Castro St.,San Francisco,CA,1995,(L),Accommodations,checked,,"Listed under ""S.F. - South of Market"".",,6/22/2023 3:59pm
973,Links,General Coordinates Used,37.77493,-122.419415,255-2157 social S/M network,"PO Box 420989, 94142",San Francisco,CA,1995,,Info Lines & Services,checked,,"Listed under ""S. F. - Overview.""",,6/22/2023 4:52pm
1100,Olive Oils,General Coordinates Used,37.77263,-122.386967,"Pier 50, China Basin Way 495-3099 full bar, patio",,San Francisco,CA,1995,,Restaurants & Cafes,checked,,"Listed under ""S.F. - South of Market"".",,6/22/2023 4:57pm
967,Bay Area Bisexual Network,General Coordinates Used,37.77493,-122.419415,703-7977,,San Francisco,CA,1995,,Info Lines & Services,checked,,"Listed under ""S. F. - Overview.""",,6/22/2023 3:57pm
1087,Pleasuredome,Found,37.779153,-122.391993,(3rd St.) Box 69 255-6434 Sun night dance club,177 Townsend ,San Francisco,CA,1995,"(*),D",Bars,checked,,"Listed under ""S.F. - South of Market"".",,6/22/2023 5:19pm
977,Mi Casa Su Casa,General Coordinates Used,37.77493,-122.419415,(510)268-8534/ (800)215-2272 international home exchange network,,San Francisco,CA,1995,(MW),Accommodations,checked,,"Listed under ""S. F. - Overview.""",,6/22/2023 4:54pm
984,Community Real Estate Referrals,General Coordinates Used,37.77493,-122.419415,(800)346-5592 gay realtor at your service,,San Francisco,CA,1995,,Info Lines & Services,checked,,"Listed under ""S. F. - Castro Area"".",,6/22/2023 4:17pm
1237,South Bay Leather/Uniform Group,General Coordinates Used,37.354108,-121.955236,"socials, workshops, newsletter","PO Box 2519, Santa Clara 95055",San Jose,CA,1995,,Info Lines & Services,checked,,,,6/22/2023 5:48pm
1251,Our Paper,General Coordinates Used,37.33874,-121.885252,"PO Box 23387, 95153 226-0823",,San Jose,CA,1995,,Publications,checked,,,,6/22/2023 5:46pm
1236,"Gay Connection, The",General Coordinates Used,37.33874,-121.885252,"(900)505-MEET talk and/or meet with other men from your area, at only 99 cents per minute",,San Jose,CA,1995,,Info Lines & Services,checked,,,,6/22/2023 5:45pm
1246,Tynker's Dam,Found,37.323841,-121.969727,(see Santa Clara),46 Saratoga,San Jose,CA,1995,,Bars,checked,,,,6/22/2023 5:49pm
1258,Gay/Lesbian Alliance of the Central Coast,General Coordinates Used,35.282752,-120.659616,541-4252,,San Luis Obispo,CA,1995,,Info Lines & Services,checked,,,,6/24/2023 5:04pm
1263,Pismo Dunes,General Coordinates Used,35.282752,-120.659616,(AYOR),Grand Ave. to beach,San Luis Obispo,CA,1995,"Cruisy Area,(AYOR)",Cruising Areas,checked,,,,6/24/2023 5:05pm
1262,Pirates Cove Beach,Found,35.175962,-120.715886,,left turn off Avila,San Luis Obispo,CA,1995,"Cruisy Area,(N)",Cruising Areas,checked,,,,6/24/2023 5:05pm
1261,Diamond Cove,Found,35.174193,-120.716813,,W. of Pirates Cove & down a cliff,San Luis Obispo,CA,1995,Cruisy Area,Cruising Areas,checked,,,,6/24/2023 5:04pm
1278,Padero Lane Beach,Found,34.41613,-119.567803,"(Summers, AYOR)",,Santa Barbara,CA,1995,"Cruisy Area,(AYOR)",Cruising Areas,checked,,,,6/22/2023 5:58pm
1276,Cabrillo Beach,Found,33.71101,-118.283293,,E. of Wharf,Santa Barbara,CA,1995,Cruisy Area,Cruising Areas,checked,,,,6/22/2023 5:57pm
1277,East Beach,Found,34.415256,-119.676353,,,Santa Barbara,CA,1995,"Cruisy Area,(N)",Cruising Areas,checked,,,,6/22/2023 5:57pm
1292,Beer Can Beach,Found,36.952162,-121.882944,(AYOR),,Santa Cruz,CA,1995,"Cruisy Area,(AYOR)",Cruising Areas,checked,,,,6/24/2023 12:32pm
1282,AA Gay/Lesbian,General Coordinates Used,36.974117,-122.030796,457-2559 (AA#),,Santa Cruz,CA,1995,,Info Lines & Services,checked,,,,6/24/2023 12:32pm
1293,Bonney Doon Beach,Found,36.999672,-122.181635,,8 mi. N. on Hwy 1.,Santa Cruz,CA,1995,Cruisy Area,Cruising Areas,checked,,,,6/24/2023 12:32pm
1303,Bill Jones Houseboat,Found,37.874813,-122.501802,"332-2270 B&B, largest floating house on SF Bay",B-61 Issaquah Dock,Sausalito,CA,1995,(IGTA),Accommodations,checked,,,,6/24/2023 4:06pm
1304,Black Sand Beach,Found,37.824336,-122.508695,off Lookout Rd.,,Sausalito,CA,1995,Cruisy Area,Cruising Areas,checked,,,,6/24/2023 4:06pm
1327,Bates Beach,General Coordinates Used,34.280492,-119.29452,(no motel) (AYOR),btwn. here & Santa Barbara,Ventura,CA,1995,"Cruisy Area,(AYOR)",Cruising Areas,checked,,,,6/24/2023 12:28pm
1328,Emma Wood St. Beach,Found,34.29323,-119.339852,,,Ventura,CA,1995,Cruisy Area,Cruising Areas,checked,,,,6/24/2023 12:29pm
1331,Pebble Beach Park,Found,34.508323,-117.308224,(AYOR),,Victorville,CA,1995,"Cruisy Area,(AYOR)",Cruising Areas,checked,,,,6/24/2023 1:03pm
231,Kenton Mine Lodge,Found,39.455192,-120.859995,"287-3212 rooms and cabins in the Sierra, seasonal", ,Alleghany,CA,1995,,Accommodations,checked,,,,6/24/2023 4:10pm
236,Atascadero Lake County Park,Found,35.466515,-120.67034,nr. zoo,,Atascadero,CA,1995,Cruisy Area,Cruising Areas,checked,,,,6/24/2023 3:28pm
659,Legg Lake,Found,34.033319,-118.059225,(AYOR),N. end,Montebello,CA,1995,"Cruisy Area,(AYOR)",Cruising Areas,checked,,,,6/24/2023 3:30pm
269,Park on Villa Ave. btwn. Barstow Ave. & Bullard Ave.,Found,36.818788,-119.714263,(days & early evenings),,Clovis,CA,1995,Cruisy Area,Cruising Areas,checked,,,,6/24/2023 3:40pm
268,Park at corner of Clovis Ave. & Sierra Ave.,Found,36.829814,-119.700908,(days & early evenings),,Clovis,CA,1995,Cruisy Area,Cruising Areas,checked,,,,6/24/2023 3:38pm
339,Gay/Lesbian Hotline Orange County,General Coordinates Used,33.774269,-117.937995,"534-3261, 7pm-10pm, clsd wknds",,Garden Grove,CA,1995,,Info Lines & Services,checked,,,,6/24/2023 3:40pm
1315,Lake Mendocino,Found,39.204341,-123.183196,(AYOR),at the overlook,Ukiah,CA,1995,"Cruisy Area,(AYOR)",Cruising Areas,checked,,,,6/24/2023 3:56pm
1314,Jensen's Truck Stop,General Coordinates Used,39.17199,-123.220691,nights (AYOR),Lovers Ln.,Ukiah,CA,1995,"Cruisy Area,(AYOR)",Cruising Areas,checked,,,,6/24/2023 3:54pm
1312,"Billy Club, The",Found,39.150219,-123.209269,"462-0766 social group PO Box 381, 95482",,Ukiah,CA,1995,,Men's Clubs,checked,,,,6/24/2023 3:54pm
251,Hillcrest Lodge,Found,34.238887,-116.924216,"866-7330 cabins, condos & motel units",,Big Bear,CA,1995,(GF),Accommodations,checked,,,,6/24/2023 4:25pm
250,Grey Squirrel Resort,Found,34.238718,-116.942969,"866-4335 cabins, rooms, one suite w/ jacuzzi, pets by arrangement",,Big Bear,CA,1995,"(GF),(SW),(WC)",Accommodations,checked,,,,6/24/2023 4:24pm
672,"Giant Redwoods RV & Camp, The",Found,40.262258,-123.877741,943-3198 on the Eel river,"PO Box 222, 95554",Myers Flat,CA,1995,(GF),Accommodations,checked,,,,6/24/2023 4:26pm
363,Huntington Beach Pier,Found,33.655206,-118.004062,(AYOR),,Huntington Beach,CA,1995,"Cruisy Area,(AYOR)",Cruising Areas,checked,,,,6/24/2023 4:28pm
364,Main St. & Pacific Coast Hwy.,Found,33.657111,-118.002064,(AYOR),,Huntington Beach,CA,1995,"Cruisy Area,(AYOR)",Cruising Areas,checked,,,,6/24/2023 4:29pm
369,Beach,Found,32.593941,-117.132843,1 mi. N. of Seacoast & Carnation entrance to beach (AYOR),,Imperial Beach,CA,1995,"Cruisy Area,(AYOR)",Cruising Areas,checked,,,,6/24/2023 4:31pm
651,Applegate Park,Found,37.313099,-120.479231,(AYOR) off 'M' St.,,Merced,CA,1995,"Cruisy Area,(AYOR)",Cruising Areas,checked,,,,6/24/2023 4:38pm
1234,San Gregorio Beach,Found,37.322999,-122.403308,I mile N. of State Beach,,San Gregorio,CA,1995,Cruisy Area,Cruising Areas,checked,,,,6/24/2023 4:33pm
1318,Solano Country Gay/Lesbian Info Line,Found,38.356917,-121.989332,448-1010,,Vacaville,CA,1995,,Info Lines & Services,checked,,,,6/24/2023 4:47pm
1319,Solano Lambda Men's Association,Found,38.356917,-121.989332,"(at Vacaville Book Co.) 7:30pm, 2nd & 4th Tues",,Vacaville,CA,1995,,Info Lines & Services,checked,,,,6/24/2023 4:47pm
1332,Ave. 283,Found,36.30546,-119.364537,Off Shirk Rd. by Fwy. 99 (nights) (AYOR),,Visalia,CA,1995,"Cruisy Area,(AYOR)",Cruising Areas,checked,,,,6/24/2023 4:53pm
1333,Mooney Grove Park,Found,36.279922,-119.308948,"(days, AYOR)",,Visalia,CA,1995,"Cruisy Area,(AYOR)",Cruising Areas,checked,,,,6/24/2023 4:47pm
1345,Eel River,General Coordinates Used,39.61714,-123.355957,"(warm summer days, AYOR)",N. of town,Willits,CA,1995,"Cruisy Area,(AYOR)",Cruising Areas,checked,,,,6/24/2023 4:58pm
1347,"""Rest Stop""",Found,37.652156,-119.702773,"at turn to Glacier Point on road to valley (days & early nights, AYOR)",,Yosemite National Park,CA,1995,"Cruisy Area,(AYOR)",Cruising Areas,checked,,,,6/24/2023 4:36pm
1346,Ahwahnee Hotel,Found,37.746154,-119.574336,"The Yosemite Village 252-4848 incredibly dramatic, expensive grand fortress",,Yosemite National Park,CA,1995,"(GF),(F),(SW)",Accommodations,checked,,,,6/24/2023 4:36pm
281,Gay Switchboard,Found,37.86112,-122.259311,"(at Pacific Center) 841-6224 (TTY) 10am-10pm Mon-Fri, til 4pm Sat",,East Bay,CA,1995,,Info Lines & Services,checked,,,,6/24/2023 5:01pm
280,Gay/Lesbian Alanon,Found,37.86112,-122.259311,"(at Pacific Center) 548-8283, 7pm Fri",,East Bay,CA,1995,,Info Lines & Services,checked,,,,6/24/2023 5:01pm
279,Fruit Punch,General Coordinates Used,37.871523,-122.273042,94.1FM (KPFA) 848-6767 lesbigay radio 7pm Wed,,East Bay,CA,1995,,Info Lines & Services,checked,,,,6/24/2023 5:01pm
278,Community Real Estate Referrals,General Coordinates Used,37.871523,-122.273042,"(800)346-5592 gay realtor at your service, Berkley & Oakland",,East Bay,CA,1995,,Info Lines & Services,checked,,,,6/24/2023 5:01pm
771,Caritas B&B Network,General Coordinates Used,36.065143,-119.016434,(312)857-0801,,Porterville,CA,1995,,Accommodations,checked,,,,6/24/2023 4:59pm
1352,Silver Nugget,General Coordinates Used,39.191098,-106.817539,"925-8154 10pm-2am; also restaurant, 5pm-10pm, steak & seafood",Hyman Ave. Mall,Aspen,CO,1995,"(GF),D,(CW),(E),(WC)",Bars,checked,,,,6/26/2023 9:12am
1348,Aspen Gay/Lesbian Community,General Coordinates Used,39.191098,-106.817539,"925-9249 resource & info service, outdoor activities, monthly events","PO Box 3143, 81612",Aspen,CO,1995,,Info Lines & Services,checked,,,,6/26/2023 9:12am
1365,Colorado Community Directory,General Coordinates Used,40.014986,-105.270546,"443-7768, extensive statewide resources","PO Drawer 2270, 80306",Boulder,CO,1995,,Publications,checked,,,,6/26/2023 9:14am
1358,Lesbian/Bisexual/Gay/Transgendered Alliance,Found,40.006728,-105.271484,"492-8567 events schedule, resource info","University of Colorado, Boulder",Boulder,CO,1995,,Info Lines & Services,checked,,,,6/26/2023 9:16am
1367,Chatauqua Park,Found,40.000082,-105.281954,,,Boulder,CO,1995,Cruisy Area,Cruising Areas,checked,,,,6/26/2023 9:13am
1357,Community Real Estate Referrals,General Coordinates Used,40.014986,-105.270546,(800)346-5592 gay realtor at your service,,Boulder,CO,1995,,Info Lines & Services,checked,,,,6/26/2023 9:14am
1368,Bunk House,Found,39.52572,-106.046361,"453-6475 ski resort, rustic, full brkfst, hot tub; also Mountain House, 4-6 person cabin","PO Box 6, 80424",Breckenridge,CO,1995,,Accommodations,checked,,,,6/26/2023 9:19am
1370,Pikes Peak Paradise,Found,38.982237,-105.101206,"(800)354-0989 elegant, great views, full brkfst",,Colorado Springs,CO,1995,"(GF),(WC)",Accommodations,checked,,,,6/26/2023 9:21am
1369,Community Real Estate Referrals,General Coordinates Used,38.833882,-104.821363,(800)346-5592 gay realtor at your service,,Colorado Springs,CO,1995,,Info Lines & Services,checked,,,,6/26/2023 9:19am
1377,Monument Valley Park,Found,38.845493,-104.828681,,,Colorado Springs,CO,1995,Cruisy Area,Cruising Areas,checked,,,,6/26/2023 9:20am
1382,"Gay Connection, The",General Coordinates Used,39.739236,-104.990251,"(900)346-MEET meet and/or talk with other men from the area, at only 99 cents per minute",,Denver,CO,1995,,Info Lines & Services,checked,,,,6/26/2023 9:29am
1385,Girth & Mirth of the Rockies,General Coordinates Used,39.739236,-104.990251,784-5814 social org. for big men & their admirers,"Box 2351, 80201",Denver,CO,1995,,Info Lines & Services,checked,,,,6/26/2023 9:29am
1386,Young Alive Group,General Coordinates Used,39.739236,-104.990251,"860-1819 (MCC#) social/support group for ages 18-29, sponsored by MCC",,Denver,CO,1995,,Info Lines & Services,checked,,,,6/26/2023 9:33am
1380,Asian Gay/Lesbian Alliance,General Coordinates Used,39.739236,-104.990251,831-6268 (Community Center #),,Denver,CO,1995,,Info Lines & Services,checked,,,,6/26/2023 9:26am
1387,Mile Hi B&B,General Coordinates Used,39.739236,-104.990251,329-7827/ (800)513-7827 cont'l brkfst,,Denver,CO,1995,(MW),Accommodations,checked,,,,6/26/2023 9:29am
1379,AA Gay/Lesbian,General Coordinates Used,39.739236,-104.990251,322-4440 (AA#),,Denver,CO,1995,,Info Lines & Services,checked,,,,6/26/2023 9:26am
1381,Community Real Estate Referrals,General Coordinates Used,39.747363,-105.108354,"(800)346-5592, gay realtor at your service",,Denver,CO,1995,,Info Lines & Services,checked,,,,6/26/2023 9:28am
1450,Tanrydon,General Coordinates Used,39.601363,-105.89621,468-1965 exclusively gay B&B,"PO Box 138-C, Montezuma Rte., 80435",Dillon,CO,1995,(MW),Accommodations,checked,,,,6/26/2023 9:34am
1451,Dragonback Ranch,General Coordinates Used,37.26945,-107.009762,"731-4534/ (301)585-1428 (*ff-season) April-Oct, wilderness workshops","HC 60 Box 58A, Pagosa Springs, 81147",Durango,CO,1995,"(MW),(SW)",Accommodations,checked,,,,6/26/2023 9:56am
1452,Main Mall,Found,37.272956,-107.881675,"(days, AYOR)",,Durango,CO,1995,"Cruisy Area,(AYOR)",Cruising Areas,checked,,,,6/26/2023 9:56am
1453,Distinctive Inn of Colorado,General Coordinates Used,37.27528,-107.880067,(800)866-0621 great brochure,"PO Box 2061, 80517",Durango,CO,1995,,Accommodations,checked,,,,6/26/2023 9:55am
1454,Sundance Cottages,General Coordinates Used,37.213371,-107.712616,586-3922,,Durango,CO,1995,"(GF),(WC)",Accommodations,checked,,,,6/26/2023 9:57am
1459,Never Summer Nordic,General Coordinates Used,40.42415,-105.898903,"482-9411 yurts, tipi-like shelters, sleep eight or twelve in Colorado Rockies, mountain biking, skiing","PO Box 1983, 80522",Fort Collins,CO,1995,,Travel/Tour Operators,checked,,,,6/26/2023 9:58am
1455,Gay/Lesbian & Bisexual Alliance,General Coordinates Used,40.58526,-105.084423,491-7232,"Lory Student Ctr., CSU Box 206, 80523",Fort Collins,CO,1995,,Info Lines & Services,checked,,,,6/26/2023 9:57am
1461,Hawthorne & Lincoln Parks,Found,39.075019,-108.544832,(clsd midnight) (AYOR),,Grand Junction,CO,1995,"Cruisy Area,(AYOR)",Cruising Areas,checked,,,,6/26/2023 9:58am
1462,Greeley Gay/Lesbian Alliance,Found,40.40627,-104.69446,(U of Northern Colorado) 351-2065 leave msg. for referrals,,Greeley,CO,1995,,Info Lines & Services,checked,,,,6/26/2023 9:59am
1464,Island Grove Bar,Found,40.438617,-104.702579,(AYOR),,Greeley,CO,1995,"Cruisy Area,(AYOR)",Cruising Areas,checked,,,,6/26/2023 9:59am
1468,Mineral Palace Park,Found,38.28112,-104.607067,(AYOR),,Pueblo,CO,1995,"Cruisy Area,(AYOR)",Cruising Areas,checked,,,,6/26/2023 10:00am
1466,Pueblo After 2,General Coordinates Used,38.254447,-104.609141,"564-4004 social/educational network, produces newsletter","PO Box 1602, 81002",Pueblo,CO,1995,,Info Lines & Services,checked,,,,6/26/2023 10:00am
1472,Silver Zephyr,Found,39.919148,-105.789557,"(at Silverado II) 726-8732 5pm-10pm, full bar",,Winter Park,CO,1995,(WC),Restaurants & Cafes,checked,,,,6/26/2023 10:03am
1469,Elk River Estates,General Coordinates Used,40.484977,-106.831716,"879-7556 B&B, nr. hiking, skiing & natural hot springs",,Steamboat Springs,CO,1995,"(GF),(F)",Accommodations,checked,,,,6/26/2023 10:05am
1473,Caritas B&B Network,General Coordinates Used,38.993881,-105.05693,(312)857-0801,,Woodland Park,CO,1995,,Accommodations,checked,,,,6/26/2023 10:06am
1477,Bridgeport Country News,General Coordinates Used,41.230698,-73.064036,(AYOR),Boston Post Rd. nr. Post Office,Bridgeport,CT,1995,"Cruisy Area,(AYOR)",Cruising Areas,checked,,,,6/26/2023 10:52am
1475,Community Real Estate Referrals,General Coordinates Used,41.179226,-73.189438,(800)346-5592 gay realtor at your service,,Bridgeport,CT,1995,,Info Lines & Services,checked,,,,6/26/2023 10:53am
1486,Hammonasset State Beach,Found,41.266698,-72.558421,(AYOR),,Hammonasset,CT,1995,"Cruisy Area,(AYOR)",Cruising Areas,checked,,,,6/26/2023 10:54am
1491,XX Club,General Coordinates Used,41.763964,-72.667475,transsexual support group,"PO Box 387, 06141",Hartford,CT,1995,,Info Lines & Services,checked,,,,6/26/2023 10:57am
1490,Gay/Lesbian Guide Line,General Coordinates Used,41.763964,-72.667475,"327-0767 support, info, referrals, 7pm-10pm Tues & Th",,Hartford,CT,1995,,Info Lines & Services,checked,,,,6/26/2023 10:56am
1488,Community Real Estate Referrals,General Coordinates Used,41.763964,-72.667475,"(800)346-5592, gay realtor at your service",,Hartford,CT,1995,,Info Lines & Services,checked,,,,6/26/2023 10:56am
1487,AA Gay/Lesbian,General Coordinates Used,41.763964,-72.667475,daily at Gay/Lesbian Community Center,,Hartford,CT,1995,,Info Lines & Services,checked,,,,6/26/2023 10:54am
1505,Hubbard Park,Found,41.548248,-72.836131,(AYOR),,Meriden,CT,1995,"Cruisy Area,(AYOR)",Cruising Areas,checked,,,,6/26/2023 10:57am
1506,Milford Country News,General Coordinates Used,41.230698,-73.064036,,Rte. 1,Milford,CT,1995,Cruisy Area,Cruising Areas,checked,,,,6/26/2023 10:57am
1508,Walnut Hill Park,Found,41.661945,-72.793227,(AYOR),Veterans Monument,New Britain,CT,1995,"Cruisy Area,(AYOR)",Cruising Areas,checked,,,,6/26/2023 10:58am
1509,Community Real Estate Referrals,General Coordinates Used,41.308274,-72.927883,"(800)346-5592, gay realtor at your service",,New Haven,CT,1995,,Info Lines & Services,checked,,,,6/26/2023 10:58am
1519,New London People's Forum Affirming Lesbian/Gay & Bisexual Identity,General Coordinates Used,41.355654,-72.099521,"443-8855, 7:30pm Wed, social support group",,New London,CT,1995,,Info Lines & Services,checked,,,,6/26/2023 11:00am
1521,Ocean Park Beach,Found,41.309373,-72.098616,(AYOR),nr. boardwalk,New London,CT,1995,"Cruisy Area,(AYOR)",Cruising Areas,checked,,,,6/26/2023 11:00am
1530,Gay/Lesbian Guide Line,General Coordinates Used,41.05343,-73.538734,"327-0767, 7pm-10pm Tues & Th, statewide counseling & referrals",,Stamford,CT,1995,,Info Lines & Services,checked,,,,6/26/2023 11:03am
1531,Cove Island Beach,Found,41.04695,-73.505113,,,Stamford,CT,1995,Cruisy Area,Cruising Areas,checked,,,,6/26/2023 11:03am
1535,Lakewood Ponds,Found,41.578213,-73.024696,,,Waterbury,CT,1995,Cruisy Area,Cruising Areas,checked,,,,6/26/2023 11:04am
1537,Sherwood Isle State Park,Found,41.116614,-73.332136,"(Summers, AYOR)","E. beach, far end, I-95 exit 18",Westport,CT,1995,"Cruisy Area,(AYOR)",Cruising Areas,checked,,,,6/26/2023 11:05am
1481,"Oldtown, Dikes Pt. Park",Found,41.532809,-73.437608,(AYOR),E. side of Lake Candlewood,Danbury,CT,1995,"Cruisy Area,(AYOR)",Cruising Areas,checked,,,,6/26/2023 11:06am
1478,Gay/Lesbian Helpline,General Coordinates Used,41.394817,-73.454011,"354-5170, 24hr answering service",,Danbury,CT,1995,,Info Lines & Services,checked,,,,6/26/2023 11:06am
1527,Frog Rock,General Coordinates Used,41.897598,-71.962574,(AYOR),,Pomfret,CT,1995,"Cruisy Area,(AYOR)",Cruising Areas,checked,,,,6/26/2023 11:09am
1522,Gay Men's Group of Fairfield County,General Coordinates Used,41.117744,-73.408157,"(at Triangle Ctr.) 846-4905 7:30pm, 3rd Tues, social/support",,Norwalk,CT,1995,,Info Lines & Services,checked,,,,6/26/2023 11:10am
1532,Bisexual/Gay/Lesbian Association,General Coordinates Used,41.806297,-72.254578,"486-3679, 7:30pm Th","Box U-8, 2110 Hillside Rd., U of CT, 06268",Storrs,CT,1995,,Info Lines & Services,checked,,,,6/26/2023 11:11am
1541,Community Real Estate Referrals,General Coordinates Used,38.539556,-75.055181,"(800)346-5592, gay realtor at your service",,Bethany Beach,DE,1995,,Info Lines & Services,checked,,,,6/26/2023 5:16pm
1542,Nomad Village,General Coordinates Used,38.584001,-75.060736,539-7581 call for hours; also Oasis,"Box 1, Rte. 1, 3mi. N. in Tower Shores",Bethany Beach,DE,1995,"(MW),D",Bars,checked,,,,6/26/2023 5:17pm
1543,Community Real Estate Referrals,General Coordinates Used,39.158168,-75.524368,"(800346-5592, gay realtor at your service",,Dover,DE,1995,,Info Lines & Services,checked,,,,6/26/2023 5:18pm
1564,Carpenter's Beach,Found,38.707959,-75.075173,,below S. end of Boardwalk at foot of Queen St.,Rehoboth Beach,DE,1995,Cruisy Area,Cruising Areas,checked,,,,6/26/2023 5:33pm
1565,Poodle Beach,Found,38.708156,-75.07496,S. part of Boardwalk,,Rehoboth Beach,DE,1995,Cruisy Area,Cruising Areas,checked,,,,6/26/2023 5:34pm
1552,Sand in My Shoes,Found,38.712318,-75.092385,"226-2006/ (800)231-5856 B&B, hot tub & sundeck, pets welcome",Canal & 6th St.,Rehoboth Beach,DE,1995,(MW),Accommodations,checked,,,,6/26/2023 5:36pm
1563,Cape Henlopen State Park Beach,Found,38.707959,-75.075173,,,Rehoboth Beach,DE,1995,Cruisy Area,Cruising Areas,checked,,,,6/26/2023 5:33pm
1546,Community Real Estate Referrals,General Coordinates Used,38.720945,-75.076014,"(800)346-5592, gay realtor at your service",,Rehoboth Beach,DE,1995,,Info Lines & Services,checked,,,,6/26/2023 5:30pm
1575,Brandywine Park,Found,39.758685,-75.552416,(AYOR),footbridge & woods,Wilmington,DE,1995,"Cruisy Area,(AYOR)",Cruising Areas,checked,,,,6/26/2023 5:42pm
1566,Community Real Estate Referrals,General Coordinates Used,39.744655,-75.548391,"(800)346-5592, gay realtor at your service",,Wilmington,DE,1995,,Info Lines & Services,checked,,,,6/26/2023 5:42pm
1574,8th St.,Found,39.743921,-75.550549,,btwn. Shipley & Tetnell,Wilmington,DE,1995,Cruisy Area,Cruising Areas,checked,,,,6/26/2023 5:42pm
1584,Hola Gay,General Coordinates Used,38.907192,-77.036871,"332-2192, 7pm-11pm, hotline (en espanol)",,Washington,DC,1995,,Info Lines & Services,checked,,,,6/26/2023 6:02pm
1667,Beach Dr.,General Coordinates Used,38.983817,-77.044984,(AYOR),in Rock Creek Park above 16th St.,Washington,DC,1995,"Cruisy Area,(AYOR)",Cruising Areas,checked,,,,6/26/2023 5:58pm
1580,Black & White Men Together,General Coordinates Used,38.907192,-77.036871,546-3341 active multiracial/ multicultural social org.,,Washington,DC,1995,,Info Lines & Services,checked,,,,6/26/2023 5:59pm
1587,Transgender Education Association,General Coordinates Used,38.907192,-77.036871,"(301)949-3822, social/support org. for transvestites/transsexuals","PO Box 16036, Arlington, VA 22215",Washington,DC,1995,,Info Lines & Services,checked,,,,6/26/2023 6:06pm
1586,Lesbian/Gay Youth Helpline,General Coordinates Used,38.907192,-77.036871,"(at Sexual Minority Youth Assistance League) 546-5911, 7pm-10pm Mon-Fri, for youth 14-21",,Washington,DC,1995,,Info Lines & Services,checked,,,,6/26/2023 6:04pm
1600,"Annex, The",Found,38.909094,-77.048576,(upstairs at Badlands) 296-0505 9pm-5am Fri-Sat,,Washington,DC,1995,"(*),(S),(V)",Bars,checked,,,,6/26/2023 5:56pm
1576,AA Gay/Lesbian,General Coordinates Used,38.907192,-77.036871,797-3580 (substance abuse info line #) also see listing in The Washington Blade,,Washington,DC,1995,,Info Lines & Services,checked,,,,6/26/2023 5:51pm
1668,Dupont Circle,General Coordinates Used,38.909578,-77.043441,,,Washington,DC,1995,Cruisy Area,Cruising Areas,checked,,,,6/26/2023 6:00pm
1581,Community Real Estate Referrals,General Coordinates Used,38.907192,-77.036871,"(800)346-5592, gay realtor at your service",,Washington,DC,1995,,Info Lines & Services,checked,,,,6/26/2023 5:59pm
1601,Bachelors Mill,Found,38.877242,-76.994699,"(downstairs in Back Door Pub) 544-1913 8pm-2am, til 5am Fri-Sat",,Washington,DC,1995,"(MW),D,(MRC-AF),(S),(WC)",Bars,checked,,,,6/26/2023 5:56pm
1583,Gay/Lesbian Switchboard,General Coordinates Used,38.907192,-77.036871,"628-4667/ 628-4669 (TDD) 7:30pm-10:30pm, peer counseling & referrals",,Washington,DC,1995,,Info Lines & Services,checked,,,,6/26/2023 6:01pm
1582,Gay/Lesbian Hotline,General Coordinates Used,38.907192,-77.036871,"(Whitman Walker Clinic) 833-3234, 7pm-11pm, crisis counseling & referrals",,Washington,DC,1995,,Info Lines & Services,checked,,,,6/26/2023 6:00pm
1635,Ferrara's Dupont,Found,38.911139,-77.044455,"232-1107 7am-10pm, til 11pm Fri-Sat, coffee & desserts",Connecticut Ave & 'Q' St. NW,Washington,DC,1995,(*),Restaurants & Cafes,checked,,,,6/26/2023 6:00pm
1579,BiCentrist Alliance,General Coordinates Used,38.907192,-77.036871,828-3065 national bisexual organization,,Washington,DC,1995,,Info Lines & Services,checked,,,,6/26/2023 5:58pm
1577,Adventuring,General Coordinates Used,38.907192,-77.036871,lesbigay outdoors group,"PO Box 18118, 20036",Washington,DC,1995,,Info Lines & Services,checked,,,,6/26/2023 5:52pm
1578,Asians & Friends,General Coordinates Used,38.907192,-77.036871,387-2742,,Washington,DC,1995,,Info Lines & Services,checked,,,,6/26/2023 5:56pm
1669,Community Real Estate Referral,General Coordinates Used,26.352306,-80.084329,(800)346-5592 gay realtor at your service,,Boca Raton,FL,1995,,Info Lines & Services,checked,,,,6/26/2023 6:09pm
1673,Spanish River Park,Found,26.383382,-80.114047,(AYOR),,Boca Raton,FL,1995,"Cruisy Area,(AYOR)",Cruising Areas,checked,,,,6/26/2023 6:10pm
1675,Coquina Beach,Found,27.448333,-82.692163,,,Bradenton,FL,1995,Cruisy Area,Cruising Areas,checked,,,,6/26/2023 6:10pm
1676,Jetty Park & Beach,General Coordinates Used,28.392218,-80.607713,"(days, AYOR)",,Cape Canaveral,FL,1995,"Cruisy Area,(AYOR)",Cruising Areas,checked,,,,6/26/2023 6:10pm
1678,Gay/Lesbian Referral Service of Pinellas County,General Coordinates Used,27.965853,-82.800103,"586-4297, 7pm-11pm",,Clearwater,FL,1995,,Info Lines & Services,checked,,,,6/26/2023 6:12pm
1677,Community Real Estate Referrals,General Coordinates Used,27.965853,-82.800103,"(800)346-5592, gay realtor at your service",,Clearwater,FL,1995,,Info Lines & Services,checked,,,,6/26/2023 6:10pm
1680,Community Real Estate Referrals,General Coordinates Used,28.320007,-80.607551,"(800)346-5592, gay realtor at your service",,Cocoa Beach,FL,1995,,Info Lines & Services,checked,,,,6/26/2023 6:13pm
1700,Boardwalk & beach,Found,29.224086,-81.00469,(AYOR),in front of sightseeing tower & by bandshell,Daytona Beach,FL,1995,"Cruisy Area,(AYOR)",Cruising Areas,checked,,,,6/26/2023 6:13pm
1688,Community Real Estate Referrals,General Coordinates Used,29.210815,-81.022833,"(800)346-5592, gay realtor at your service",,Daytona Beach,FL,1995,,Info Lines & Services,checked,,,,6/26/2023 6:14pm
1690,RESPECT Inc.,General Coordinates Used,29.210815,-81.022833,"257-7071 gay youth educational group, referrals","PO Box 5218, 32118",Daytona Beach,FL,1995,,Info Lines & Services,checked,,,,6/26/2023 6:15pm
1760,Jaybirds Toybox,Found,26.08837,-80.135063,(at Copa bar) 791-8655,,Ft. Lauderdale,FL,1995,,Erotica,checked,,,,6/28/2023 4:07pm
1704,Community Real Estate Referrals,General Coordinates Used,26.122439,-80.137317,"(800)346-5592, gay realtor at your service",,Ft. Lauderdale,FL,1995,,Info Lines & Services,checked,,,,6/28/2023 4:04pm
1705,Greater Ft. Lauderdale Gay Business Assoc.,General Coordinates Used,26.122439,-80.137317,,"PO Box 7341-A, 33338",Ft. Lauderdale,FL,1995,,Info Lines & Services,checked,,,,6/28/2023 4:05pm
1753,Rainbow Adventures,General Coordinates Used,26.122439,-80.137317,(800)881-4814 lesbigay sailing charters,,Ft. Lauderdale,FL,1995,,Travel/Tour Operators,checked,,,,6/28/2023 4:09pm
1773,Bunche Beach,Found,26.475913,-81.967312, (south end of beach) (AYOR),John Morris Pkwy.,Ft. Myers,FL,1995,"Cruisy Area,(AYOR)",Cruising Areas,checked,,,,6/26/2023 6:17pm
1772,Support Line,General Coordinates Used,26.640628,-81.872308,monthly newsletter,,Ft. Myers,FL,1995,,Publications,checked,,,,6/26/2023 6:19pm
1764,Lambda Drummers (Gay AA),General Coordinates Used,26.640628,-81.872308,"332-2272 ext. 441, 8:15pm Sat & Tues, 6pm Sun men's group",,Ft. Myers,FL,1995,,Info Lines & Services,checked,,,,6/26/2023 6:19pm
1763,Community Real Estate Referrals,General Coordinates Used,26.640628,-81.872308,(800)346-5592 gay realtor at your service ,,Ft. Myers,FL,1995,,Info Lines & Services,checked,,,,6/26/2023 6:18pm
1765,Support Inc.,General Coordinates Used,26.640628,-81.872308,"332-2272 gay switchboard, 8am-11pm","PO Box 546, 33902",Ft. Myers,FL,1995,,Info Lines & Services,checked,,,,6/26/2023 6:19pm
1774,Community Real Estate Referrals,General Coordinates Used,29.651634,-82.324826,(800)346-5592 gay realtor at your service,,Gainesville,FL,1995,,Info Lines & Services,checked,,,,6/26/2023 6:22pm
1776,Gay Switchboard,General Coordinates Used,29.651634,-82.324826,"332-0700, 24hrs, info & referrals, volunteers 6pm-11pm",,Gainesville,FL,1995,,Info Lines & Services,checked,,,,6/26/2023 6:22pm
1777,Lesbian/Gay & Bisexual Student Union,General Coordinates Used,29.651634,-82.324826,392-1665 ext. 310,"PO Box 118505, 32611-8505",Gainesville,FL,1995,,Info Lines & Services,checked,,,,6/26/2023 6:22pm
1775,Gay AA,General Coordinates Used,29.651634,-82.324826,"332-0700, 8pm Sun",,Gainesville,FL,1995,,Info Lines & Services,checked,,,,6/26/2023 6:22pm
1781,Newnan's Lake,Found,29.666388,-82.25511,(AYOR),,Gainesville,FL,1995,"Cruisy Area,(AYOR)",Cruising Areas,checked,,,,6/26/2023 6:22pm
1778,Ambush Room,General Coordinates Used,29.651634,-82.324826,(at Melody Club) 376-3772 4pm-2am,,Gainesville,FL,1995,"(*),D,(CW)",Bars,checked,,,,6/26/2023 6:22pm
1782,Park at NE 16th Ave/Main St.,Found,29.666594,-82.32444,(days),,Gainesville,FL,1995,"Cruisy Area,(AYOR)",Cruising Areas,checked,,,,6/26/2023 6:23pm
1784,Community Real Estate Referrals,General Coordinates Used,29.651634,-82.324826,(800)346-5592 gay realtor at your service,,Hollywood,FL,1995,,Info Lines & Services,checked,,,,6/26/2023 6:23pm
1788,Young Circle,Found,26.01154,-80.143033,(AYOR),,Hollywood,FL,1995,"Cruisy Area,(AYOR)",Cruising Areas,checked,,,,6/26/2023 6:23pm
1790,Community Real Estate Referrals,General Coordinates Used,30.332184,-81.655651 ,(800)346-5592 gay realtor at your service,,Jacksonville,FL,1995,,Info Lines & Services,checked,,,,6/26/2023 6:24pm
1791,Lesbian/Gay Community Assoc.,General Coordinates Used,30.332184,-81.655651 ,396-8044 touchtone community database for NE Florida,,Jacksonville,FL,1995,,Info Lines & Services,checked,,,,6/26/2023 6:25pm
1804,5th Ave. Beach,General Coordinates Used,30.282958,-81.394154,(AYOR),and S. to Boardwalk,Jacksonville Beach,FL,1995,"Cruisy Area,(AYOR)",Cruising Areas,checked,,,,6/26/2023 6:28pm
1802,Community Real Estate Referrals,General Coordinates Used,30.284122,-81.396134,(800)346-5592 gay realtor at your service,,Jacksonville Beach,FL,1995,,Info Lines & Services,checked,,,,6/26/2023 6:28pm
1807,Helpline,General Coordinates Used,24.555059,-81.779987,296-4357 gay-friendly general crisis assistance & referrals,,Key West,FL,1995,,Info Lines & Services,checked,,,,6/26/2023 6:34pm
1891,International Gay Travel Assoc. (IGTA),General Coordinates Used,24.555059,-81.779987,296-6633/ (800)448-8550,"PO Box 4974, 33041",Key West,FL,1995,,Travel/Tour Operators,checked,,,,6/26/2023 6:34pm
1888,Clione,General Coordinates Used,24.555059,-81.779987,296-1433 topsail schooner,,Key West,FL,1995,,Travel/Tour Operators,checked,,,,6/26/2023 6:32pm
1898,"""Dick Dock""",Found,24.547154,-81.788282,(AYOR),pier at end of Reynolds St.,Key West,FL,1995,"Cruisy Area,(AYOR)",Cruising Areas,checked,,,,6/26/2023 6:29pm
1901,Ft. Zachary Taylor Beach,Found,24.555418,-81.784172,,,Key West,FL,1995,Cruisy Area,Cruising Areas,checked,,,,6/26/2023 6:33pm
1805,Community Real Estate Referrals,General Coordinates Used,24.555059,-81.779987,(800)346-5592 gay realtor at your service,,Key West,FL,1995,,Info Lines & Services,checked,,,,6/26/2023 6:32pm
1810,Andrew's Inn,Found,24.551231,-81.80012,294-7730 elegantly restored rooms & garden cottages,Zero Whalton Ln.,Key West,FL,1995,"(*),(MW)",Accommodations,checked,,,,6/26/2023 6:30pm
1808,Key West Business Guild,Found,24.552568,-81.800562,294-4603/ (800)535-7797,"PO Box 1208, 33041",Key West,FL,1995,(IGTA),Info Lines & Services,checked,,,,6/26/2023 6:34pm
1889,Escape Cruise,Found,24.561146,-81.801264,"296-4608, 3hr reef trip & sunset cruises on ""SS Sunshine""",Key West Bright Marina,Key West,FL,1995,,Travel/Tour Operators,checked,,,,6/26/2023 6:33pm
1899,Duval St.,Found,24.553851,-81.801316,(Queens for days!),,Key West,FL,1995,Cruisy Area,Cruising Areas,checked,,,,6/26/2023 6:33pm
1861,B.O.'s Fish Wagon,Found,24.555992,-81.802934,294-9272 seafood and eat it,corner of Duval & Flemings Sts.,Key West,FL,1995,(*),Restaurants & Cafes,checked,,,,6/26/2023 6:30pm
1900,Fleming St.,General Coordinates Used,24.555059,-81.779987,(Queens for nights!),,Key West,FL,1995,Cruisy Area,Cruising Areas,checked,,,,6/26/2023 6:33pm
1893,Starbuck Sailing Tour,General Coordinates Used,24.555418,-81.784172,296-7134 variety of cruises,,Key West,FL,1995,,Travel/Tour Operators,checked,,,,6/26/2023 6:35pm
1908,Community Real Estate Referrals,General Coordinates Used,27.798081,-82.797325,(800)346-5592 gay realtor at your service,,Madeira Beach,FL,1995,,Info Lines & Services,checked,,,,6/26/2023 6:36pm
1913,Melbourne Harbor Marina,Found,28.078221,-80.600536,(AYOR),,Melbourne,FL,1995,"Cruisy Area,(AYOR)",Cruising Areas,checked,,,,6/26/2023 6:37pm
1912,Canova Beach,Found,28.138409,-80.580189,"(Nights, AYOR)",,Melbourne,FL,1995,"Cruisy Area,(AYOR)",Cruising Areas,checked,,,,6/26/2023 6:36pm
1916,"Gay Connection, The",General Coordinates Used,25.735525,-80.237719,(900) 287-MEET talk and/or meet with other men from the area at only 99 cents per minutes,,Miami,FL,1995,,Info Lines & Services,checked,,,,6/27/2023 9:01am
1917,Gay/Lesbian Community Hotline of Greater Miami,General Coordinates Used,25.735525,-80.237719,759-3661,,Miami,FL,1995,,Info Lines & Services,checked,,,,6/27/2023 9:01am
1945,Matheson Hammock Beach,Found,25.679228,-80.256602,on Old Cutler Rd.,,Miami,FL,1995,Cruisy Area,Cruising Areas,checked,,,,6/27/2023 9:02am
1943,Bearcut Beach,Found,25.731489,-80.157269,,,Miami,FL,1995,Cruisy Area,Cruising Areas,checked,,,,6/27/2023 8:58am
1915,Community Real Estate Referrals,General Coordinates Used,25.735525,-80.237719,(800)346-5592 gay realtor at your service,,Miami,FL,1995,,Info Lines & Services,checked,,,,6/27/2023 9:00am
1944,Biscayne Blvd.,General Coordinates Used,25.76168,-80.19179,"""Hitchhikers""",,Miami,FL,1995,Cruisy Area,Cruising Areas,checked,,,,6/27/2023 8:58am
1995,Gay AA,General Coordinates Used,26.142036,-81.79481 ,"566-8750, 8pm Tues & Th",,Naples,FL,1995,,Info Lines & Services,checked,,,,6/27/2023 9:15am
1994,Community Real Estate Referrals,General Coordinates Used,26.142036,-81.79481 ,(800)346-5592 gay realtor at your service,,Naples,FL,1995,,Info Lines & Services,checked,,,,6/27/2023 9:14am
1999,Vanderbilt Beach,Found,26.263907,-81.824499,,S. of the Ritz,Naples,FL,1995,Cruisy Area,Cruising Areas,checked,,,,6/27/2023 9:15am
2025,Power House Disco,Found,28.547912,-81.397649,(at Parliament House) 425-7571 8pm-2am,,Orlando,FL,1995,"(*),D,(E),(YC)",Bars,checked,,,,6/27/2023 9:37am
2023,Orlando Eagle,Found,28.507431,-81.397649,(at The Complex) 843-6334 4pm-2am,,Orlando,FL,1995,(L),Bars,checked,,,,6/27/2023 9:37am
2029,New Image Fitness Center,Found,28.507431,-81.397649,(at The Complex) 420-9890 24hrs,,Orlando,FL,1995,"MO,(PC)",Gyms & Health Clubs,checked,,,,6/27/2023 9:37am
2027,Stable,Found,28.547912,-81.397649,(at Parliament House) 425-7571 6pm-2am,,Orlando,FL,1995,(CW),Bars,checked,,,,6/27/2023 9:38am
2022,Loading Dock,Found,28.507431,-81.397649,(at The Complex) 857-1609 noon-2am,,Orlando,FL,1995,(*),Bars,checked,,,,6/27/2023 9:28am
2002,Community Real Estate Referrals,General Coordinates Used,28.538383,-81.378927,(800)346-5592 gay realtor at your service,,Orlando,FL,1995,,Info Lines & Services,checked,,,,6/27/2023 9:23am
2006,Metropolitan Business Association,Found,28.558978,-81.378866,6:30pm 1st Th at Radisson Hotel,"PO Box 568041, 32856",Orlando,FL,1995,,Info Lines & Services,checked,,,,6/27/2023 9:36am
2003,"Gay Connection, The",General Coordinates Used,28.538383,-81.378927,"(900)38-MATCH talk to and/or meet with other men from the area, at only 99 cents per minute",,Orlando,FL,1995,,Info Lines & Services,checked,,,,6/27/2023 9:27am
2037,Midnight News,Found,28.547912,-81.397649,(at Parliament House) 425-7571,,Orlando,FL,1995,,Erotica,checked,,,,6/27/2023 9:37am
2005,Gay/Lesbian Community Services,General Coordinates Used,28.538383,-81.378927,"843-4297 touchtone helpline 24hrs, extensive referrals",,Orlando,FL,1995,,Info Lines & Services,checked,,,,6/27/2023 9:27am
2032,Blue Parrot Art Deco Shop,Found,28.547912,-81.397649,"(at Parliament House) 425-7571, 10pm-2am",,Orlando,FL,1995,,Bookstores/Retail Shops,checked,,,,6/27/2023 9:22am
2015,City Lights Cabaret,Found,28.507431,-81.397649,(at The Complex) 422-6826 noon-2am,,Orlando,FL,1995,"(*),(MW),D,(S)",Bars,checked,,,,6/27/2023 9:22am
2042,Phillip's Inlet County Beach,General Coordinates Used,30.176591,-85.805488,,1/2 mi. W. of Ramsgate Harbor,Panama City,FL,1995,Cruisy Area,Cruising Areas,checked,,,,6/27/2023 9:39am
2045,Community Real Estate Referrals,General Coordinates Used,30.421309,-87.216915,(800)346-5592 gay realtor at your service,,Pensacola,FL,1995,,Info Lines & Services,checked,,,,6/27/2023 9:40am
2051,Beach on Santa Rosa Island Ft. Picken's Beach,General Coordinates Used,30.421309,-87.216915,(AYOR),,Pensacola,FL,1995,"Cruisy Area,(N),(AYOR)",Cruising Areas,checked,,,,6/27/2023 9:40am
2052,Gay Dunes Beach,General Coordinates Used,30.421309,-87.216915,,"Rt. 399 2 mi E. of Gulf Island sign, towards Navarre Beach",Pensacola,FL,1995,Cruisy Area,Cruising Areas,checked,,,,6/27/2023 9:40am
2063,North Lido Beach,Found,27.319488,-82.581975,(AYOR),,Sarasota,FL,1995,"Cruisy Area,(AYOR)",Cruising Areas,checked,,,,6/27/2023 9:41am
2054,Community Real Estate Referrals,General Coordinates Used,27.336465,-82.531012,"(800)346-5592, gay realtor at your service",,Sarasota,FL,1995,,Info Lines & Services,checked,,,,6/27/2023 9:40am
2086,Last Lake,General Coordinates Used,30.438256,-84.280733,,SW on Rte. 373,Tallahassee,FL,1995,Cruisy Area,Cruising Areas,checked,,,,6/27/2023 10:04am
2107,Ben T. Davis Beach,Found,27.970749,-82.579284,(AYOR),Campbell Causeway,Tampa,FL,1995,"Cruisy Area,(AYOR)",Cruising Areas,checked,,,,6/27/2023 10:06am
2088,Gay Hotline,General Coordinates Used,27.950575,-82.457178,"229-8839, 7pm-11pm",,Tampa,FL,1995,,Info Lines & Services,checked,,,,6/27/2023 10:07am
2087,Community Real Estate Referrals,General Coordinates Used,27.950575,-82.457178,(800)346-5592 gay realtor at your service,,Tampa,FL,1995,,Info Lines & Services,checked,,,,6/27/2023 10:06am
2109,Community Real Estate Referrals,General Coordinates Used,27.099778,-82.454263,(800)346-5592 gay realtor at your service,,Venice,FL,1995,,Info Lines & Services,checked,,,,6/27/2023 10:10am
2111,Casperson Beach,Found,27.058503,-82.444011,,walk 1/2 mi. S.,Venice,FL,1995,Cruisy Area,Cruising Areas,checked,,,,6/27/2023 10:10am
2129,MacArthur Park Beach,Found,26.824956,-80.043057,,,West Palm Beach,FL,1995,Cruisy Area,Cruising Areas,checked,,,,6/27/2023 10:13am
2130,Seawall,General Coordinates Used,26.715342,-80.053375,(Summers),,West Palm Beach,FL,1995,Cruisy Area,Cruising Areas,checked,,,,6/27/2023 10:13am
2127,Ice,General Coordinates Used,26.715342,-80.053375,weekly gay-friendly entertainment guide,"PO Box 16634, 33416",West Palm Beach,FL,1995,,Publications,checked,,,,6/27/2023 10:13am
2112,Community Real Estate Referrals,General Coordinates Used,26.671834,-80.05526,(800)346-5592 gay realtor at your service,,West Palm Beach,FL,1995,,Info Lines & Services,checked,,,,6/27/2023 10:12am
2131,Community Real Estate Referrals,General Coordinates Used,28.599808,-81.339296,(800)346-5592 gay realtor at your service,,Winter Park,FL,1995,,Info Lines & Services,checked,,,,6/27/2023 10:19am
2065,For Your Pleasure,General Coordinates Used,26.211756,-80.211918,263-5970 rental properties,,Seaview,FL,1995,(MW),Accommodations,checked,,,,6/27/2023 10:31am
2108,Playalinda Beach,General Coordinates Used,28.612219,-80.807554,,,Titusville,FL,1995,Cruisy Area,Cruising Areas,checked,,,,6/27/2023 10:31am
2081,Community Real Estate Referrals,General Coordinates Used,27.742813,-82.750454,(800)345-5592 gay realtor at your service,,St. Petersburg Beach,FL,1995,,Info Lines & Services,checked,,,,6/27/2023 10:32am
2000,Community Real Estate Referrals,General Coordinates Used,29.025819,-80.926998,(800)345-5592 gay realtor at your service,,New Smyrna Beach,FL,1995,,Info Lines & Services,checked,,,,6/28/2023 3:44pm
1686,Crescent City Campground,General Coordinates Used,29.430251,-81.510629,"698-2020 75 hook-up sites, tenting space, laundry, showers",Rte. 2 Box 25,Crescent City,FL,1995,"(GF),(SW)",Accommodations,checked,,,,6/28/2023 3:48pm
1789,Caritas B&B Network,General Coordinates Used,28.835451,-82.331395,(312)857-0801,,Inverness,FL,1995,,Accommodations,checked,,,,6/28/2023 3:48pm
2066,Community Real Estate Referrals,General Coordinates Used,27.767601,-82.640291,(800)346-5592 gay realtor at your service,,St Petersburg,FL,1995,,Info Lines & Services,checked,,,,6/28/2023 3:53pm
2080,Pass-a-Grille Beach,General Coordinates Used,27.68656,-82.737271,,below 8th St.,St Petersburg,FL,1995,Cruisy Area,Cruising Areas,checked,,,,6/28/2023 3:54pm
2067,Gay Information Line (The Line),General Coordinates Used,27.767601,-82.640291,"586-4297 info & referrals, 7pm-11pm",,St Petersburg,FL,1995,,Info Lines & Services,checked,,,,6/28/2023 3:53pm
1951,Colours: Miami Beach,General Coordinates Used,25.782612,-80.134077,532-9341/ (800)934-5622,,South Beach,FL,1995,"(MW),(IGTA)",Accommodations,checked,,,,6/28/2023 3:55pm
1947,South Beach Central,General Coordinates Used,25.782612,-80.134077,(800)538-3616 info & accommodation service,,South Beach,FL,1995,,Info Lines & Services,checked,,,,6/28/2023 3:55pm
1959,Normandy South,General Coordinates Used,25.85398,-80.133088,674-1197 guesthouse,,South Beach,FL,1995,"MO,(SW),(N),(IGTA)",Accommodations,checked,,,,6/28/2023 3:55pm
1946,Community Real Estate Referrals,General Coordinates Used,25.782612,-80.134077,(800)346-5592 gay realtor at your service,,South Beach,FL,1995,,Info Lines & Services,checked,,,,6/28/2023 3:55pm
2141,Collage Square,Found,33.958537,-83.37557,(AYOR),Clayton & College Sts.,Athens,GA,1995,"Cruisy Area,(AYOR)",Cruising Areas,checked,,,,6/28/2023 4:17pm
2132,Lesbian/Gay/Bisexual Student Union (LGBSU),Found,33.951279,-83.373609,"549-9368, 7pm Mon, Memorial Hall, Rm. 213",,Athens,GA,1995,,Info Lines & Services,checked,,,,6/28/2023 4:19pm
2146,"""Gay Graffiti""",General Coordinates Used,33.748752,-84.387684,WRFG 89.3 FM 7:30pm-8:30pm Sun,,Atlanta,GA,1995,,Info Lines & Services,checked,,,,6/28/2023 4:30pm
2207,Southern Voice,General Coordinates Used,33.748995,-84.387982,876-1819 weekly,"PO Box 18215, 30316",Atlanta,GA,1995,,Publications,checked,,,,6/28/2023 4:48pm
2148,Caruso Manor,General Coordinates Used,33.781735,-84.363513,"Virginia/Highland 875-1706, historic B&B, nr. public transit & bars",,Atlanta,GA,1995,,Accommodations,checked,,,,6/28/2023 4:32pm
2205,ETC. Magazine,General Coordinates Used,33.748995,-84.387982,525-3821,"PO Box 8916, 31106",Atlanta,GA,1995,,Publications,checked,,,,6/28/2023 4:33pm
2147,Gay Helpline,General Coordinates Used,33.748995,-84.387982,"892-0661, 6pm-11pm, info & counseling",,Atlanta,GA,1995,,Info Lines & Services,checked,,,,6/28/2023 4:33pm
2142,Community Real Estate Referrals,General Coordinates Used,33.748995,-84.387982,(800)346-5592 gay realtor at your service,,Atlanta,GA,1995,,Info Lines & Services,checked,,,,6/28/2023 4:32pm
2179,Little 5 Points,Found,33.765506,-84.349145,(South of Ponce de Leon Ave.) hip pedestrian area; too many restaurants & shops to list ,Moreland & Euclid Ave. ,Atlanta,GA,1995,,Restaurants & Cafes,checked,,,,6/28/2023 4:45pm
2144,African American Lesbian/Gay Alliance (AALGA),General Coordinates Used,33.748752,-84.387684,"239-8184 social/political, meets 4pm 1st Sun","PO Box 50374, 30302",Atlanta,GA,1995,,Info Lines & Services,checked,,,,6/28/2023 4:30pm
2199,Hotlanta River Expo.,General Coordinates Used,33.748995,-84.387982,"874-3976, 17th annual men's raft race & pageant","PO Box 8375, 30306",Atlanta,GA,1995,,Travel/Tour Operators,checked,,,,6/28/2023 4:44pm
2206,"News, The",General Coordinates Used,33.748995,-84.387982,(at Atlanta Gay Center) 876-5372,,Atlanta,GA,1995,,Publications,checked,,,,6/28/2023 4:46pm
2151,Upper Echelons,General Coordinates Used,33.755711,-84.388372,"642-1313 luxury penthouse, downtown Atlanta",,Atlanta,GA,1995,"(GF),(SW)",Accommodations,checked,,,,6/28/2023 4:49pm
2212,Ft. Gordon PX,Found,33.407798,-82.135132,,,Augusta,GA,1995,Cruisy Area,Cruising Areas,checked,,,,6/28/2023 4:50pm
2217,Callaway Gardens,Found,32.845472,-84.848281,(AYOR),& showers at Robin Lake Beach,Columbus,GA,1995,"Cruisy Area,(AYOR)",Cruising Areas,checked,,,,6/28/2023 4:50pm
2216,Broadway,General Coordinates Used,32.460976,-84.987709,(Uptown) (AYOR),,Columbus,GA,1995,"Cruisy Area,(AYOR)",Cruising Areas,checked,,,,6/28/2023 4:50pm
2219,Central Park,General Coordinates Used,34.297879,-83.824066,(AYOR),,Gainesville,GA,1995,"Cruisy Area,(AYOR)",Cruising Areas,checked,,,,6/28/2023 4:57pm
2220,Community Real Estate Referrals,General Coordinates Used,32.080899,-81.091203 ,(800)346-5592 gay realtor at your service,,Savannah,GA,1995,,Info Lines & Services,checked,,,,6/28/2023 4:59pm
2224,"Monterey Square, Bull Street",Found,32.071502,-81.094953,(AYOR),,Savannah,GA,1995,"Cruisy Area,(AYOR)",Cruising Areas,checked,,,,6/28/2023 4:59pm
2225,Savannah Beach,Found,32.000215,-80.845666,,,Savannah,GA,1995,Cruisy Area,Cruising Areas,checked,,,,6/28/2023 5:00pm
2213,Lake Carroll Rec. Area,Found,33.598611,-85.045833,(AYOR),,Carrollton,GA,1995,"Cruisy Area,(AYOR)",Cruising Areas,checked,,,,6/28/2023 5:00pm
2305,Douglas Simonson Studio,General Coordinates Used,21.309885,-157.85814,737-6275 call for appt.,,"Honolulu, Oahu",HI,1995,,Bookstores/Retail Shops,checked,,,,6/28/2023 6:34pm
2321,Ala Moana Beach Park,Found,21.289969,-157.847657,nr. Waikiki Yacht Club,,"Honolulu, Oahu",HI,1995,Cruisy Area,Cruising Areas,checked,,,,6/28/2023 6:31pm
2279,Community Real Estate Referrals,General Coordinates Used,21.309885,-157.85814,"(800)346-5592, gay realtor at your service",,"Honolulu, Oahu",HI,1995,,Info Lines & Services,checked,,,,6/28/2023 6:33pm
2322,Diamond Head,Found,21.261983,-157.805999,(AYOR),bushes above hwy. & bushes below lighthouse,"Honolulu, Oahu",HI,1995,"Cruisy Area,(AYOR)",Cruising Areas,checked,,,,6/28/2023 6:33pm
2307,2nd Floor Tickets & Tours,Found,21.279343,-157.828481,924-3006,"Waikiki Shopping Plaza, 2nd flr., at Seaside & Kalakaua Ave. S.","Honolulu, Oahu",HI,1995,,Travel/Tour Operators,checked,,,,6/28/2023 6:29pm
2323,Queens Surf Beach,Found,21.26791,-157.82247,,Kapiolani Park,"Honolulu, Oahu",HI,1995,Cruisy Area,Cruising Areas,checked,,,,6/28/2023 6:39pm
2310,Pacific Ocean Holidays,General Coordinates Used,21.309885,-157.85814,"923-2400/ (800)735-6600 also publishes semi-annual gay Pocket Guide to Hawaii, single copy $4","PO Box 88245, 96830","Honolulu, Oahu",HI,1995,(IGTA),Travel/Tour Operators,checked,,,,6/28/2023 6:39pm
2308,Bird of Paradise Travel,General Coordinates Used,21.309885,-157.85814,735-9103,"PO Box 4157, 96812","Honolulu, Oahu",HI,1995,(IGTA),Travel/Tour Operators,checked,,,,6/28/2023 6:33pm
2278,AA Gay/Lesbian,General Coordinates Used,21.312816,-157.813049,(Waikiki Health Ctr.) 946-1438 (AA#) 8pm,277 Oahu,"Honolulu, Oahu",HI,1995,,Info Lines & Services,checked,,,,6/28/2023 6:30pm
2314,Gay Community News,General Coordinates Used,21.309885,-157.85814,521-6000,"PO Box 37083, 96837","Honolulu, Oahu",HI,1995,,Publications,checked,,,,6/28/2023 6:34pm
2233,Kahaluu Beach Park,Found,19.579266,-155.966671,(AYOR),,"Kailua-Kona, Hawaii",HI,1995,"Cruisy Area,(AYOR)",Cruising Areas,checked,,,,6/28/2023 6:45pm
2231,Hale Kipa 'O Pele,General Coordinates Used,19.639994,-155.996926,(800)LAVAGLO plantation style B&B,,"Kailua-Kona, Hawaii",HI,1995,(MW),Accommodations,checked,,,,6/28/2023 6:45pm
2234,Nude beach,General Coordinates Used,19.639994,-155.996926,5 mi. S. of airport,,"Kailua-Kona, Hawaii",HI,1995,Cruisy Area,Cruising Areas,checked,,,,6/28/2023 6:47pm
2325,Kona Market Place,Found,19.639103,-155.993626,,,"Kailua, Oahu",HI,1995,Cruisy Area,Cruising Areas,checked,,,,6/28/2023 6:48pm
2324,Kailua Beach Park,Found,21.397396,-157.727218 ,(AYOR),,"Kailua, Oahu",HI,1995,"Cruisy Area,(AYOR)",Cruising Areas,checked,,,,6/28/2023 6:48pm
2263,AA Gay/Lesbian,General Coordinates Used,20.878333,-156.6825,"244-9673 (AA#), 572-4818 Don or Doug, 8pm Wed, 7:30am Sun",,"Lahaina, Maui",HI,1995,,Info Lines & Services,checked,,,,6/28/2023 6:50pm
2269,Front St.,General Coordinates Used,20.915891,-156.695939,along Beach Walk,,"Lahaina, Maui",HI,1995,Cruisy Area,Cruising Areas,checked,,,,6/28/2023 6:51pm
2268,Maui Surfing School,General Coordinates Used,20.878333,-156.6825,875-0625,"PO Box 424, Luunene, 96784","Lahaina, Maui",HI,1995,,Travel/Tour Operators,checked,,,,6/28/2023 6:52pm
2267,Skin Deep Tattoo,General Coordinates Used,20.878333,-156.6825,call for new location 661-8531,,"Lahaina, Maui",HI,1995,,Bookstores/Retail Shops,checked,,,,6/28/2023 6:52pm
2265,Community Real Estate Referrals,General Coordinates Used,20.882371,-156.681619,(800)346-5592 gay realtor at your service,,"Lahaina, Maui",HI,1995,,Info Lines & Services,checked,,,,6/28/2023 6:51pm
2264,Both Sides Now Info Line,General Coordinates Used,20.882371,-156.681619,"572-1884, 24hr message, newsletter avail.","PO Box 5042, Kahului, 96732","Lahaina, Maui",HI,1995,,Info Lines & Services,checked,,,,6/28/2023 6:51pm
2272,Makena nude beach,Found,20.631622,-156.444792,,,"Makena, Maui",HI,1995,Cruisy Area,Cruising Areas,checked,,,,6/28/2023 6:54pm
2251,Pali Kai,General Coordinates Used,22.19457,-159.406945,"828-6691 hilltop B&B, ocean hot tub","PO Box 450, 96754","Kilauea, Kauai",HI,1995,,Accommodations,checked,,,,6/28/2023 6:56pm
2250,Kalihiwai Jungle Home,General Coordinates Used,22.19457,-159.406945,"828-1626 spectacular views, lush tropical setting, walking distance to beaches",,"Kilauea, Kauai",HI,1995,"(N),(WC)",Accommodations,checked,,,,6/28/2023 6:56pm
2242,Community Real Estate Referrals,General Coordinates Used,22.205929,-159.497565,"(800)346-5592, gay realtor at your service",,"Hanalei, Kauai",HI,1995,,Info Lines & Services,checked,,,,6/28/2023 6:57pm
2243,Tahiti Nui,Found,22.203373,-159.495245,"826-6277 noon-2am, Fri luau, CW Mon, live bands & more gay Fri-Sat",Kuhio Hwy.,"Hanalei, Kauai",HI,1995,"(GF),(F),(E),(WC)",Bars,checked,,,,6/28/2023 6:59pm
2238,Anahola Beach Club,General Coordinates Used,22.150811,-159.305912,"822-6966/ (800)262-4652 beachside, full brfst","PO Box 562, 96703","Anahola, Kauai",HI,1995,"(MW),(IGTA)",Accommodations,checked,,,,6/28/2023 6:59pm
2240,Donkey Beach,General Coordinates Used,22.116944,-159.299444,(nude) (AYOR) (follow winding dirt path),Rte. 56 at dirt road S. of 12 mi. marker,"Anahola, Kauai",HI,1995,"Cruisy Area,(AYOR)",Cruising Areas,checked,,,,6/28/2023 6:59pm
2241,Lydgate Park,Found,22.041632,-159.334407,(AYOR),off Rte. 56,"Anahola, Kauai",HI,1995,"Cruisy Area,(AYOR)",Cruising Areas,checked,,,,6/28/2023 6:59pm
2239,Mahina Kai Bed & Breakfast,General Coordinates Used,22.150811,-159.305912,"822-9451 Japanese-style B&B, hot tub, gardens","PO Box 699, 96703","Anahola, Kauai",HI,1995,"(MW),(SW)",Accommodations,checked,,,,6/28/2023 7:00pm
2258,Ko'a Kai Condominium Rentals,General Coordinates Used,20.739941,-156.454187,879-6058,"Box 1969, 96753","Kihei, Maui",HI,1995,"(GF),(SW)",Accommodations,checked,,,,6/28/2023 7:01pm
2261,Kalama Park,Found,20.731438,-156.452933,(AYOR),,"Kihei, Maui",HI,1995,"Cruisy Area,(AYOR)",Cruising Areas,checked,,,,6/28/2023 7:01pm
2260,Triple Lei B&B,General Coordinates Used,20.739941,-156.454187,"874-8645 exclusively gay, nr. nude beach","PO Box 593, 96753","Kihei, Maui",HI,1995,"(SW),(N)",Accommodations,checked,,,,6/28/2023 7:02pm
2257,Anfora's Dream,General Coordinates Used,20.739941,-156.454187,(213)737-0731 rental condo,"PO Box 74030, LA, CA, 90004","Kihei, Maui",HI,1995,(MW),Accommodations,checked,,,,6/28/2023 7:01pm
2271,Personal Maui,General Coordinates Used,20.853869,-156.310337,572-1589/ (800) DAN-KEEN guide for tours of the hidden Maui,,"Makawao, Maui",HI,1995,,Travel/Tour Operators,checked,,,,6/28/2023 7:03pm
2270,Maui Network,General Coordinates Used,20.853869,-156.310337,572-9555/ (800)367-5221 condo reservation service,"PO Box 1077, 96768","Makawao, Maui",HI,1995,,Travel/Tour Operators,checked,,,,6/28/2023 7:03pm
2227,RBR Farms,General Coordinates Used,19.488983,-155.910125,"328-9212/ (800)328-9212 B&B on 7 acres, full brkfst","PO Box 930, 96704","Captain Cook, Hawaii",HI,1995,"(*),(MW),(SW),(N),(IGTA)",Accommodations,checked,,,,6/28/2023 7:05pm
2235,Huliaule'a,General Coordinates Used,19.49544,-154.949411,"965-9175 B&B, full brkfst","PO Box 1030, 96778","Pahoa, Hawaii",HI,1995,(MW),Accommodations,checked,,,,6/29/2023 10:27pm
2236,Kalani Honua Resort,General Coordinates Used,19.49544,-154.949411,"965-7828/(800)800-6886 conference center & retreat, individuals welcome","RR2 Box 4500, 96778","Pahoa, Hawaii",HI,1995,"(MW),(F),(SW),(IGTA)",Accommodations,checked,,,,6/29/2023 10:27pm
2244,Community Real Estate Referrals,General Coordinates Used,21.925571,-159.527211,"(800)346-5592, gay realtor at your service",,"Kalaheo, Kauai",HI,1995,,Info Lines & Services,checked,,,,6/29/2023 10:28pm
2255,Hana Plantation Houses,General Coordinates Used,20.755717,-155.987988,248-7868/ (800)228-4262 rental houses,"PO Box 249, 96713","Hana, Maui",HI,1995,(IGTA),Accommodations,checked,,,,6/29/2023 10:28pm
2254,Hana Alil Holidays,General Coordinates Used,20.755717,-155.987988,248-7742/ (800)548-0478 accommodations reservations,,"Hana, Maui",HI,1995,(GF),Accommodations,checked,,,,6/29/2023 10:28pm
2256,Napualani O'Hana,General Coordinates Used,20.755717,-155.987988,248-8935,"PO Box 118, 96713","Hana, Maui",HI,1995,(GF),Accommodations,checked,,,,6/29/2023 10:28pm
2262,Camp Kula,General Coordinates Used,20.791352,-156.324877,878-2528 HIV+ guests welcome,,"Kula, Maui",HI,1995,"(*),(MW)",Accommodations,checked,,,,6/29/2023 10:29pm
2229,Hale Anuenue (Rainbow House),General Coordinates Used,20.238155,-155.833825,889-6187 B&B,"PO Box 371, 96719","Hawi, Hawaii",HI,1995,"(GF),(WC)",Accommodations,checked,,,,6/29/2023 10:56pm
2253,Kailua Maui Garden Estate,General Coordinates Used,20.911399,-156.251594,"572-9726/ (800)258-8588 suites, cottages, hot tub","SR Box 9, 96708","Haiku, Maui",HI,1995,"(GF),(SW)",,checked,,No type listed.,,6/29/2023 10:57pm
2252,Halfway to Hana House,General Coordinates Used,20.911399,-156.251594,572-1176 priv. studio w/ ocean view,,"Haiku, Maui",HI,1995,,,checked,,No type listed.,,6/29/2023 10:57pm
2230,Paauhau Plantation House,General Coordinates Used,20.079467,-155.469539,"775-7222 B&B, cottage avil., full brkfst, tennis courts",,"Honokaa, Hawaii",HI,1995,(GF),Accommodations,checked,,,,6/29/2023 10:58pm
2277,Suzie's,Found,21.379079,-157.930254,"486-3103, 24hrs",Aiea Shopping Ctr.,"Aiea, Oahu",HI,1995,,Erotica,checked,,,,6/29/2023 10:58pm
2276,C 'n' N,Found,21.379079,-157.930254,487-2944,Aiea Shopping Ctr.,"Aiea, Oahu",HI,1995,,Erotica,checked,,,,6/29/2023 10:58pm
2237,Hale Ohi'a Cottages,General Coordinates Used,19.427231,-155.233802,"967-7986 B&B, nr. recreation",Hale Ohi'a Road,"Volcano Village, Hawaii",HI,1995,"(GF),(WC)",Accommodations,checked,,,,6/29/2023 10:59pm
2275,Hana Plantation Houses,General Coordinates Used,21.177724,-157.224034,248-7868/ (800)228-4262 reservation,"PO Box 249, 96713","Kalua Koi, Molokai",HI,1995,,,checked,,No type listed.,,6/29/2023 11:00pm
2327,AA Gay/Lesbian,Found,43.627786,-116.218333,"344-6611 (AA#), 8pm Sun, Tues",23rd & Woodlawn,Boise,ID,1995,,Info Lines & Services,checked,,,,6/29/2023 11:04pm
2334,Ann Morrison Park,Found,43.610906,-116.220551,(AYOR),nr. baseball fields,Boise,ID,1995,"Cruisy Area,(AYOR)",Cruising Areas,checked,,,,6/29/2023 11:04pm
2338,Snake River Falls,Found,43.496607,-112.043772,(AYOR),,Idaho Falls,ID,1995,"Cruisy Area,(AYOR)",Cruising Areas,checked,,,,6/29/2023 11:06pm
2337,"Riverside Dr. & ""The Loop""",Found,43.500985,-112.042787,(opposite hospital),,Idaho Falls,ID,1995,Cruisy Area,Cruising Areas,checked,,,,6/29/2023 11:06pm
2343,Ross Park,Found,42.842206,-112.423548,(AYOR),,Pocatello,ID,1995,"Cruisy Area,(AYOR)",Cruising Areas,checked,,,,6/29/2023 11:07pm
2344,Cedar St. Bridge,General Coordinates Used,48.276577,-116.553465,(AYOR),,Sand Point,ID,1995,"Cruisy Area,(AYOR)",Cruising Areas,checked,,,,6/29/2023 11:07pm
2339,Hot Pools,General Coordinates Used,42.619363,-112.011071,(mixed crowd),,Lava Hot Springs,ID,1995,Cruisy Area,Cruising Areas,checked,,,,6/29/2023 11:17pm
2336,"Clark House on Hayden Lake, The",General Coordinates Used,47.758794,-116.756858,772-3470/ (800)765-4593 full brkfst,East 4550 S. Hayden Lake Rd.,Coeur D'alene,ID,1995,"(*),(GF)",Accommodations,checked,,,,6/29/2023 11:24pm
2350,Jefferson St.,General Coordinates Used,40.484203,-88.993687,(Nights),by Courthouse Square,Bloomington,IL,1995,Cruisy Area,Cruising Areas,checked,,,,6/29/2023 11:28pm
2355,Shabonna Woods & Sandridge Forest Preserves,Found,41.605149,-87.561958,,,Calumet City,IL,1995,Cruisy Area,Cruising Areas,checked,,,,6/29/2023 11:29pm
2356,Gay/Lesbian/Bisexual & Friends,General Coordinates Used,37.727273,-89.21675,(at S.I.U.) 453-5151,,Carbondale,IL,1995,,Info Lines & Services,checked,,,,6/29/2023 11:30pm
2371,Gay/Lesbian Helpline,General Coordinates Used,41.878114,-87.629798,"929-4357, 6pm-10pm",,Chicago,IL,1995,,Info Lines & Services,checked,,"Listed under ""Chicago - Overview"".",,6/30/2023 1:16pm
2368,Community Real Estate Referrals,General Coordinates Used,41.878114,-87.629798,(800)346-5592 gay realtor at your service,,Chicago,IL,1995,,Info Lines & Services,checked,,"Listed under ""Chicago - Overview"".",,6/30/2023 1:15pm
2399,Community Real Estate Referrals,General Coordinates Used,41.878114,-87.629798,(800)346-5592 gay realtor at your service,,Chicago,IL,1995,,Info Lines & Services,checked,,"Listed under ""Chicago - New Town"".",,6/30/2023 1:15pm
2444,Community Real Estate Referrals,General Coordinates Used,41.878114,-87.629798,(800)346-5592 gay realtor at your service,,Chicago,IL,1995,,Info Lines & Services,checked,,"Listed under ""Chicago - North Side"".",,6/30/2023 1:15pm
2465,Community Real Estate Referrals,General Coordinates Used,41.878114,-87.629798,(800)346-5592 gay realtor at your service,,Chicago,IL,1995,,Info Lines & Services,checked,,"Listed under ""Chicago - South Side"".",,6/30/2023 1:15pm
2370,"Gay Connection, The",General Coordinates Used,41.878114,-87.629798,"(900)847-MEET talk and/or meet with other men from the area, for only 99 cents per minute",,Chicago,IL,1995,,Info Lines & Services,checked,,"Listed under ""Chicago - Overview"".",,6/30/2023 1:16pm
2379,Community Real Estate Referrals,General Coordinates Used,41.878114,-87.629798,(800)346-5592 gay realtor at your service,,Chicago,IL,1995,,Info Lines & Services,checked,,"Listed under ""Chicago - Near Northside"".",,6/30/2023 1:15pm
2443,Belmont Rock,Found,41.935181,-87.631544,(AYOR),S. of Belmont at Lake,Chicago,IL,1995,"Cruisy Area,(AYOR)",Cruising Areas,checked,,"Listed under ""Chicago - New Town"".",,6/30/2023 11:15am
2380,Old Town Bed & Breakfast,General Coordinates Used,41.878114,-87.629798,440-9268 patio,,Chicago,IL,1995,(GF),Accommodations,checked,,"Listed under ""Chicago - Near Northside"".",,6/30/2023 1:19pm
2483,Airie Crown Forest Preserve,Found,41.768373,-87.87216,(Summers),,La Grange,IL,1995,Cruisy Area,Cruising Areas,checked,,,,6/30/2023 1:33pm
2508,Brother to Brother,General Coordinates Used,39.781721,-89.650148,support group for gay & bisexual men,"PO Box 4681, 62708",Springfield,IL,1995,,Info Lines & Services,checked,,,,6/30/2023 3:12pm
2492,Starved Rock State Park,Found,41.317148,-88.995103,,,Ottawa,IL,1995,Cruisy Area,Cruising Areas,checked,,,,6/30/2023 3:34pm
2475,Fox Valley Gay Association,General Coordinates Used,42.035408,-88.282567,"931-1110, 7pm-10pm Mon-Fri, info & referrals",,Elgin,IL,1995,,Info Lines & Services,checked,,,,6/30/2023 3:35pm
2359,Community Real Estate Referrals,General Coordinates Used,40.11642,-88.243383,(800)346-5592 gay realtor at your service,,Champaign/Urbana,IL,1995,,Info Lines & Services,checked,,,,6/30/2023 4:08pm
2360,Lesbian/Gay Switchboard,General Coordinates Used,40.11642,-88.243383,"384-8040, 8pm-10pm Mon-Fri",,Champaign/Urbana,IL,1995,,Info Lines & Services,checked,,,,6/30/2023 4:08pm
2361,People for Lesbian/Gay/Bisexual Concerns of Illinois,Found,40.101952,-88.227161,(at U of I) 333-1187 student group,,Champaign/Urbana,IL,1995,,Info Lines & Services,checked,,,,6/30/2023 4:08pm
