ID,title,description,streetaddress,type,amenityfeatures,city,state,Year,unclearaddress,uncleartype,notes,lastmodified,full.address,lat,lon,geoAddress,status
5116,'B.A.' Beach,nr. Evergreen Floating Bridge,,Cruising Areas,Cruisy Area,Seattle,WA,1983,checked,NA,,6/9/2022 1:48pm,", WA",47.60621,-122.332071,unclear_coded_by_hand,Location could not be verified. General city or location coordinates used.
780,'B.A.' Beach,"on Russian River, at Wohler Bridge",,Cruising Areas,Cruisy Area,Russian River,CA,1983,checked,NA,,2/23/2022 3:06pm,", CA",38.911632,-123.011048,unclear_coded_by_hand,Location could not be verified. General city or location coordinates used.
3810,'B.A.' Beach,2 mi. E.,Rte. 2,Cruising Areas,Cruisy Area,Troy,NY,1983,checked,NA,,6/1/2022 9:21am,"Rte. 2, NY",42.728412,-73.691785,unclear_coded_by_hand,Location could not be verified. General city or location coordinates used.
4979,'B.A.' Beach,nr. Salt Air Beach,,Cruising Areas,Cruisy Area,Salt Lake City,UT,1983,checked,NA,,6/8/2022 3:10pm,", UT",40.747813,-112.187268,unclear_coded_by_hand,Location could not be verified. General city or location coordinates used.
2823,'B.A.' beach,,N . Truro,Cruising Areas,Cruisy Area,Provincetown,MA,1983,checked,NA,,5/19/2022 1:37pm,"N . Truro, MA",42.064946,-70.111248,unclear_coded_by_hand,Verified Location
1196,'B' Street,(Disco),236 S. 'B' St.,Bars/Clubs,(D),San Mateo,CA,1983,,,,12/5/2021 11:00am,"236 S. 'B' St., San Mateo, CA",37.5657665,-122.3231079,"236 s b st, san mateo, ca 94401, usa",Google Verified Location
1493,'Black Forest',walking area under bridge,27th & Pennsylvania N.W.,Cruising Areas,"Cruisy Area,(AYOR)",Washington,DC,1983,checked,NA,,3/15/2022 5:38am,"27th & Pennsylvania N.W., DC",38.907192,-77.036871,unclear_coded_by_hand,Location could not be verified. General city or location coordinates used.
1864,'Bus Stop',at Pine & Jefferson,,Cruising Areas,Cruisy Area,Albany,GA,1983,checked,NA,,4/30/2022 7:47am,", GA",31.578466,-84.155978,unclear_coded_by_hand,Verified Location
3473,'bushes',"anywhere and everypleace from the time you get on the ferry, but especially the W. end of tyhe boardwalk at The Pines, and the 'Meat Rack' & 'bushes' betw. Cherry Grove & The Pines. Seasonal flights are offered by Pellham Airlines, E. 23rd St. Marina, N.Y.C.",,Cruising Areas,Cruisy Area,Fire Island,NY,1983,checked,NA,,5/30/2022 12:41pm,", NY",40.6476,-73.145947,unclear_coded_by_hand,Location could not be verified. General city or location coordinates used.
73,'C' Street,4th Ave.,,Cruising Areas,Cruisy Area,Anchorage,AK,1983,checked,NA,,2/8/2022 4:10am,", AK",61.218923,-149.850373,unclear_coded_by_hand,Location could not be verified. General city or location coordinates used.
4078,'Cruising the Levee',Take Dixie Dr. or Riverside to Helena. The Levee overlooks Island Park,,Cruising Areas,"Cruisy Area,(AYOR),(*)",Dayton,OH,1983,checked,NA,,6/2/2022 3:51pm,", OH",39.758948,-84.191607,unclear_coded_by_hand,Location could not be verified. General city or location coordinates used.
711,'Cruisy jacuzzi' sauna & bushes at Desert Palms,(Late),,Cruising Areas,"Cruisy Area,(*)",Palm Springs,CA,1983,checked,NA,,4/27/2022 5:52pm,", CA",33.894667,-116.615475,unclear_coded_by_hand,Location could not be verified. General city or location coordinates used.
2988,'Dog Run',Clarkston,,Cruising Areas,"Cruisy Area,(AYOR)",Pontiac,MI,1983,checked,NA,,5/23/2022 7:47am,", MI",42.73512,-83.419294,unclear_coded_by_hand,Location could not be verified. General city or location coordinates used.
861,'F' St. Bookstore,,2004 University,Book Store,(*),San Diego,CA,1983,,,,12/5/2021 11:00am,"2004 University, San Diego, CA",32.715738,-117.1610838,"san diego, ca, usa",Google Verified Location
860,'F' St. Bookstore,,4th & 'F',Book Store,(*),San Diego,CA,1983,checked,NA,,2/28/2022 3:50am,"4th & 'F', CA",32.748618,-117.143424,unclear_coded_by_hand,Verified Location
290,'F' Street Bookstore,,158 E. Main,Book Store,(*),El Cajon,CA,1983,,,,12/5/2021 11:00am,"158 E. Main, El Cajon, CA",32.7951953,-116.9609898,"158 e main st, el cajon, ca 92020, usa",Google Verified Location
4480,'First Beach',in front of concession stands,,Cruising Areas,Cruisy Area,Newport,RI,1983,checked,NA,,6/6/2022 8:19am,", RI",41.488401,-71.291362,unclear_coded_by_hand,Verified Location
2337,'Gay Loop' Keo & Park,betw. 4th & 5th Sts. (AH*),,Cruising Areas,"Cruisy Area,(AH),(*)",Des Moines,IA,1983,checked,NA,,5/2/2022 4:42am,", IA",41.586835,-93.624959,unclear_coded_by_hand,Location could not be verified. General city or location coordinates used.
4668,'Hippie Hollow',"'B.A.' beach in Lake Travis, off Hwy. 620",,Cruising Areas,Cruisy Area,Austin,TX,1983,checked,NA,,6/7/2022 3:24pm,", TX",30.41351,-97.886849,unclear_coded_by_hand,Verified Location
1335,'Hitch-Hikers',,E. Colfax,Cruising Areas,Cruisy Area,Denver,CO,1983,checked,NA,,3/11/2022 5:24am,"E. Colfax, CO",39.739236,-104.990251,unclear_coded_by_hand,Location could not be verified. General city or location coordinates used.
674,'Hitch-hikers',,Hill St.,Cruising Areas,Cruisy Area,Oceanside,CA,1983,checked,NA,,2/20/2022 9:15am,"Hill St., CA",33.19587,-117.379483,unclear_coded_by_hand,Location could not be verified. General city or location coordinates used.
1212,'Hitch-hikers',(nr. State St.) (afternoons),US 101,Cruising Areas,Cruisy Area,Santa Barbara,CA,1983,checked,NA,,4/28/2022 5:03am,"US 101, CA",34.415519,-119.693381,unclear_coded_by_hand,Verified Location
3444,'Hitch-hikers',betw. North & Bryant,Elmwood,Cruising Areas,Cruisy Area,Buffalo,NY,1983,checked,NA,,5/27/2022 10:53pm,"Elmwood, NY",42.902261,-78.877111,unclear_coded_by_hand,Verified Location
1506,'Hitch-hikers',,Wisconsin Ave.,Cruising Areas,Cruisy Area,Washington,DC,1983,checked,NA,,3/15/2022 5:38am,"Wisconsin Ave., DC",38.907192,-77.036871,unclear_coded_by_hand,Location could not be verified. General city or location coordinates used.
196,'Hitch-hikers',E. Speedway,,Cruising Areas,Cruisy Area,Tucson,AZ,1983,checked,NA,,2/14/2022 3:06am,", AZ",32.222607,-110.974711,unclear_coded_by_hand,Location could not be verified. General city or location coordinates used.
139,'Hitch-hikers',,Roosevelt St.,Cruising Areas,Cruisy Area,Phoenix,AZ,1983,checked,NA,,2/9/2022 3:40pm,"Roosevelt St., AZ",33.448377,-112.074037,unclear_coded_by_hand,Location could not be verified. General city or location coordinates used.
4763,'Hitch-hikers',,N. Mesa St.,Cruising Areas,Cruisy Area,El Paso,TX,1983,checked,NA,,6/7/2022 4:43pm,"N. Mesa St., TX",31.761878,-106.485022,unclear_coded_by_hand,Location could not be verified. General city or location coordinates used.
208,'Hitch-hikers',4th Ave. & Hwy. 8,,Cruising Areas,"Cruisy Area,(AYOR)",Yuma,AZ,1983,checked,NA,,2/13/2022 2:30pm,", AZ",32.731581,-114.624535,unclear_coded_by_hand,Verified Location
416,'Hitch-hikers',on Broadway,,Cruising Areas,Cruisy Area,Long Beach,CA,1983,checked,NA,,2/19/2022 11:20am,", CA",33.769284,-118.193606,unclear_coded_by_hand,Verified Location
899,'Hitch-hikers',(Sailors) (along Rosecrans),,Cruising Areas,Cruisy Area,San Diego,CA,1983,checked,NA,,2/28/2022 3:53am,", CA",32.715738,-117.161084,unclear_coded_by_hand,Location could not be verified. General city or location coordinates used.
5263,'Hitch-hikers',N. Farwell & Prospect,,Cruising Areas,Cruisy Area,Milwaukee,WI,1983,checked,NA,,6/13/2022 3:13pm,", WI",43.038903,-87.906474,unclear_coded_by_hand,Location could not be verified. General city or location coordinates used.
900,'Hitch-hikers',(along El Cahon) (nr. S.D. St. Univ.),,Cruising Areas,Cruisy Area,San Diego,CA,1983,checked,NA,,2/28/2022 3:53am,", CA",32.715738,-117.161084,unclear_coded_by_hand,Location could not be verified. General city or location coordinates used.
360,'Hitch-hikers',On Coast Hwy. from Myrtle St. to Bluebird Canyon Rd.,,Cruising Areas,Cruisy Area,Laguna Beach,CA,1983,checked,NA,,2/22/2022 8:17am,", CA",33.542719,-117.785357,unclear_coded_by_hand,Location could not be verified. General city or location coordinates used.
531,'Hitch-hikers',from Highland to Beverly Hills,Santa Monica Blvd.,Cruising Areas,Cruisy Area,Hollywood,CA,1983,checked,NA,,2/20/2022 7:28am,"Santa Monica Blvd., CA",34.092809,-118.328661,unclear_coded_by_hand,Location could not be verified. General city or location coordinates used.
532,'Hitch-hikers',W. of Highland,Sunset Blvd,Cruising Areas,Cruisy Area,Hollywood,CA,1983,checked,NA,,2/20/2022 7:28am,"Sunset Blvd, CA",34.092809,-118.328661,unclear_coded_by_hand,Location could not be verified. General city or location coordinates used.
138,'Hitch-hikers',,2nd St.,Cruising Areas,Cruisy Area,Phoenix,AZ,1983,checked,NA,,2/9/2022 3:41pm,"2nd St., AZ",33.448377,-112.074037,unclear_coded_by_hand,Location could not be verified. General city or location coordinates used.
4736,'Homo Heights',Oaklawn & Lemmon,,Cruising Areas,Cruisy Area,Dallas,TX,1983,checked,NA,,6/7/2022 4:09pm,", TX",32.811931,-96.805542,unclear_coded_by_hand,Verified Location
591,'Hustlers',betw. 4th & 6th Sts.,Main St.,Cruising Areas,Cruisy Area,Los Angeles,CA,1983,checked,NA,,2/20/2022 8:06am,"Main St., CA",34.052234,-118.243685,unclear_coded_by_hand,Location could not be verified. General city or location coordinates used.
4059,'In the woods',,Whittier St.,Cruising Areas,"Cruisy Area,(AYOR)",Columbus,OH,1983,checked,NA,,6/2/2022 3:16pm,"Whittier St., OH",39.961176,-82.998794,unclear_coded_by_hand,Location could not be verified. General city or location coordinates used.
160,'K' Mart,T-Room,,Cruising Areas,Cruisy Area,Sierra Vista,AZ,1983,checked,NA,,2/10/2022 6:45am,", AZ",31.5455,-110.277286,unclear_coded_by_hand,Location could not be verified. General city or location coordinates used.
1495,'K' St.,,'K' St.,Cruising Areas,Cruisy Area,Washington,DC,1983,checked,NA,,3/15/2022 5:38am,"'K' St., DC",38.907192,-77.036871,unclear_coded_by_hand,Location could not be verified. General city or location coordinates used.
821,'K' St. Mall,Weinstock's T-Room,,Cruising Areas,Cruisy Area,Sacramento,CA,1983,checked,NA,,2/24/2022 7:17am,", CA",38.573139,-121.471161,unclear_coded_by_hand,Verified Location
2706,'L' St. Beach,,,Cruising Areas,"Cruisy Area,(OC)",Boston,MA,1983,checked,NA,,5/18/2022 2:56pm,", MA",42.328987,-71.035301,unclear_coded_by_hand,Verified Location
3423,'Lollypop Heaven',Rest Stop,Rte. 81 Northbound,Cruising Areas,Cruisy Area,Binghamton,NY,1983,checked,NA,,5/27/2022 10:39pm,"Rte. 81 Northbound, NY",42.098687,-75.917974,unclear_coded_by_hand,Location could not be verified. General city or location coordinates used.
3472,'Meat Rack',"anywhere and everypleace from the time you get on the ferry, but especially the W. end of tyhe boardwalk at The Pines, and the 'Meat Rack' & 'bushes' betw. Cherry Grove & The Pines. Seasonal flights are offered by Pellham Airlines, E. 23rd St. Marina, N.Y.C.",,Cruising Areas,Cruisy Area,Fire Island,NY,1983,checked,NA,,5/30/2022 12:42pm,", NY",40.6476,-73.145947,unclear_coded_by_hand,Location could not be verified. General city or location coordinates used.
3232,'Milk Run',"Howard & Jackson Sts., betw . 16th & 18th, in vicinity of Bus Depot (Nights)",,Cruising Areas,Cruisy Area,Omaha,NE,1983,checked,NA,,5/25/2022 9:24am,", NE",41.254493,-96.205166,unclear_coded_by_hand,Verified Location
1163,'Miracle Mile',,Folsom St.,Cruising Areas,Cruisy Area,San Francisco,CA,1983,checked,NA,Article about Folsom St. or the Miracle Mile: https://www.foundsf.org/index.php?title=Folsom_Street:_The_Miracle_Mile,3/6/2022 4:34pm,"Folsom St., CA",37.77493,-122.419415,unclear_coded_by_hand,Location could not be verified. General city or location coordinates used.
1164,'Miracle Mile',betw. 12th & 8th,Harrison St.,Cruising Areas,Cruisy Area,San Francisco,CA,1983,checked,NA,,3/6/2022 4:33pm,"Harrison St., CA",37.77493,-122.419415,unclear_coded_by_hand,Location could not be verified. General city or location coordinates used.
1063,'N Touch,(Disco),1548 Polk St.,Bars/Clubs,"(D),(OC),(*)",San Francisco,CA,1983,,,,12/5/2021 11:00am,"1548 Polk St., San Francisco, CA",37.7913356,-122.4206189,"1548 polk st, san francisco, ca 94109, usa",Google Verified Location
1503,'P' St. Beach,(Georgetown),,Cruising Areas,"Cruisy Area,(AYOR)",Washington,DC,1983,checked,NA,,3/15/2022 5:38am,", DC",38.907192,-77.036871,unclear_coded_by_hand,Location could not be verified. General city or location coordinates used.
1167,'Polstrasse',betw. Post & Union,Polk St.,Cruising Areas,"Cruisy Area,(*),(RT)",San Francisco,CA,1983,checked,NA,,3/6/2022 4:36pm,"Polk St., CA",37.77493,-122.419415,unclear_coded_by_hand,Location could not be verified. General city or location coordinates used.
4526,'Primrose Path',Senate St. & grounds adj. to the Capitol,,Cruising Areas,"Cruisy Area,(AYOR)",Columbia,SC,1983,checked,NA,,6/6/2022 9:29am,", SC",34.00071,-81.034814,unclear_coded_by_hand,Location could not be verified. General city or location coordinates used.
3075,'Rest Stop ',just N. o f town,I-55,Cruising Areas,Cruisy Area,Hernando,MS,1983,checked,NA,,5/23/2022 11:49am,"I-55, MS",34.823987,-89.993702,unclear_coded_by_hand,Location could not be verified. General city or location coordinates used.
2850,'Rest Stop',,N. on Rte. 3,Cruising Areas,"Cruisy Area,(AYOR)",Weymouth,MA,1983,checked,NA,,5/19/2022 2:20pm,"N. on Rte. 3, MA",42.218072,-70.941036,unclear_coded_by_hand,Location could not be verified. General city or location coordinates used.
3069,'Rest Stop',,I-20 E.,Cruising Areas,Cruisy Area,Forest,MS,1983,checked,NA,,5/23/2022 11:42am,"I-20 E., MS",32.364589,-89.474235,unclear_coded_by_hand,Location could not be verified. General city or location coordinates used.
3332,'Rest Stop',(Eastbound) 1/2 mi. E. of Garden St. Pkwy.,Rte. 3,Cruising Areas,Cruisy Area,Clifton,NJ,1983,checked,NA,,5/26/2022 8:10am,"Rte. 3, NJ",40.858433,-74.163755,unclear_coded_by_hand,Location could not be verified. General city or location coordinates used.
4440,'Rest Stop',at Bridgeville,I-79,Cruising Areas,Cruisy Area,Pittsburgh,PA,1983,checked,NA,,6/4/2022 9:12am,"I-79, PA",40.440625,-79.995886,unclear_coded_by_hand,Location could not be verified. General city or location coordinates used.
2360,'Rest Stop',3 mi. W.,US 56,Cruising Areas,Cruisy Area,Lyons,KS,1983,checked,NA,,5/2/2022 5:35am,"US 56, KS",38.34501,-98.201727,unclear_coded_by_hand,Location could not be verified. General city or location coordinates used.
2439,'Rest Stop',,I-12 E.,Cruising Areas,Cruisy Area,Baton Rouge,LA,1983,checked,NA,,5/3/2022 4:49am,"I-12 E., LA",30.451468,-91.187147,unclear_coded_by_hand,Location could not be verified. General city or location coordinates used.
2362,'Rest Stop',10 mi. E. of Junction City,I-70,Cruising Areas,Cruisy Area,Manhattan,KS,1983,checked,NA,,5/2/2022 5:39am,"I-70, KS",39.183608,-96.571669,unclear_coded_by_hand,Location could not be verified. General city or location coordinates used.
5151,'Rest Stop',at Federal Way,I-5 N.,Cruising Areas,Cruisy Area,Tacoma,WA,1983,checked,NA,,6/10/2022 8:40pm,"I-5 N., WA",47.252877,-122.444291,unclear_coded_by_hand,Location could not be verified. General city or location coordinates used.
2559,'Rest Stop',in Minden,1-20 E.,Cruising Areas,Cruisy Area,Shreveport,LA,1983,checked,NA,,5/17/2022 6:37pm,"1-20 E., LA",32.615428,-93.286835,unclear_coded_by_hand,Location could not be verified. General city or location coordinates used.
2284,'Rest Stop',3 mi. N.E.,US 40,Cruising Areas,Cruisy Area,Knightstown,IN,1983,checked,NA,,5/1/2022 7:15pm,"US 40, IN",39.795601,-85.526363,unclear_coded_by_hand,Location could not be verified. General city or location coordinates used.
2874,'Rest Stop',in Vet Park - 3 mi. S.,River Rd.,Cruising Areas,Cruisy Area,Bay City,MI,1983,checked,NA,,5/20/2022 3:18pm,"River Rd., MI",43.594468,-83.888865,unclear_coded_by_hand,Location could not be verified. General city or location coordinates used.
2875,'Rest Stop',Westbound,Jan-94,Cruising Areas,Cruisy Area,Belleville,MI,1983,checked,NA,,5/20/2022 3:19pm,"Jan-94, MI",42.204762,-83.485213,unclear_coded_by_hand,Location could not be verified. General city or location coordinates used.
337,'Rest Stop',just N. of Bunker Hill Dr. exit,I-280,Cruising Areas,Cruisy Area,Hillsborough,CA,1983,checked,NA,,2/18/2022 10:45am,"I-280, CA",37.574103,-122.379416,unclear_coded_by_hand,Location could not be verified. General city or location coordinates used.
2230,'Rest Stop',N. nr. Zion,I-94,Cruising Areas,Cruisy Area,Waukegan,IL,1983,checked,NA,,4/14/2022 5:55am,"I-94, IL",42.363633,-87.844794,unclear_coded_by_hand,Location could not be verified. General city or location coordinates used.
2393,'Rest Stop',,I-75 S.,Cruising Areas,Cruisy Area,Covington,KY,1983,checked,NA,,5/2/2022 6:13pm,"I-75 S., KY",39.083671,-84.508554,unclear_coded_by_hand,Location could not be verified. General city or location coordinates used.
2878,'Rest Stop',8 mi. N .,US 131,Cruising Areas,Cruisy Area,Big Rapids,MI,1983,checked,NA,,5/20/2022 1:13pm,"US 131, MI",43.698078,-85.483656,unclear_coded_by_hand,Location could not be verified. General city or location coordinates used.
2968,'Rest Stop',2 mi. S. of I96 (Northbound),Hwy. 127,Cruising Areas,Cruisy Area,Lansing,MI,1983,checked,NA,,5/20/2022 2:55pm,"Hwy. 127, MI",42.732535,-84.555535,unclear_coded_by_hand,Location could not be verified. General city or location coordinates used.
2570,'Rest Stop',,Rt. 3,Cruising Areas,Cruisy Area,Liberty,ME,1983,checked,NA,,5/18/2022 11:17am,"Rt. 3, ME",44.389369,-69.302651,unclear_coded_by_hand,Location could not be verified. General city or location coordinates used.
1215,'Rest Stop',"N. of Goleta, jsut before tunnel",,Cruising Areas,Cruisy Area,Santa Barbara,CA,1983,checked,NA,,3/3/2022 7:30am,", CA",34.420831,-119.69819,unclear_coded_by_hand,Location could not be verified. General city or location coordinates used.
2564,'Rest Stop',Northbound at Carmel,Jan-95,Cruising Areas,"Cruisy Area,(AYOR)",Bangor,ME,1983,checked,NA,,5/18/2022 11:03am,"Jan-95, ME",44.801613,-68.771226,unclear_coded_by_hand,Location could not be verified. General city or location coordinates used.
2641,'Rest Stop',& woods behind (Known locally as 'Ruth Ann's'),1-95 Northbound,Cruising Areas,"Cruisy Area,(AYOR)",Burtonsville,MD,1983,checked,NA,,5/18/2022 1:28pm,"1-95 Northbound, MD",39.111219,-76.932475,unclear_coded_by_hand,Location could not be verified. General city or location coordinates used.
4534,'Rest Stop',,I-85 S.,Cruising Areas,Cruisy Area,Gaffney,SC,1983,checked,NA,,6/6/2022 9:37am,"I-85 S., SC",35.071795,-81.649819,unclear_coded_by_hand,Location could not be verified. General city or location coordinates used.
4097,'Rest Stop',,East on U.S. 33,Cruising Areas,Cruisy Area,Saint Marys,OH,1983,checked,NA,,6/2/2022 4:19pm,"East on U.S. 33, OH",40.54227,-84.389396,unclear_coded_by_hand,Location could not be verified. General city or location coordinates used.
2308,'Rest Stop',10 mi. S.,Hwy. 41,Cruising Areas,Cruisy Area,Farmersbury,IN,1983,checked,NA,,5/1/2022 7:27pm,"Hwy. 41, IN",39.248651,-87.381963,unclear_coded_by_hand,Location could not be verified. General city or location coordinates used.
4434,'Rest Stop',,Allegheny River Blvd.,Cruising Areas,Cruisy Area,Pittsburgh,PA,1983,checked,NA,,6/4/2022 9:12am,"Allegheny River Blvd., PA",40.440625,-79.995886,unclear_coded_by_hand,Location could not be verified. General city or location coordinates used.
2872,'Rest Stop',just S. of 1-94,Hwy. 23,Cruising Areas,Cruisy Area,Ann Arbor,MI,1983,checked,NA,,5/20/2022 1:07pm,"Hwy. 23, MI",42.280826,-83.743038,unclear_coded_by_hand,Location could not be verified. General city or location coordinates used.
834,'Rest Stop',nr. Fontana (N. side),I-10,Cruising Areas,"Cruisy Area,(AYOR)",San Bernardino,CA,1983,checked,NA,,2/28/2022 3:38am,"I-10, CA",34.108345,-117.289765,unclear_coded_by_hand,Location could not be verified. General city or location coordinates used.
2353,'Rest Stop',1 mi. E.,US 56,Cruising Areas,Cruisy Area,Great Bend,KS,1983,checked,NA,,5/2/2022 5:11am,"US 56, KS",38.364457,-98.764807,unclear_coded_by_hand,Location could not be verified. General city or location coordinates used.
4030,'Rest Stop',20 mi. S. (WE),I-71,Cruising Areas,Cruisy Area,Cleveland,OH,1983,checked,NA,,6/2/2022 2:52pm,"I-71, OH",41.49932,-81.69436,unclear_coded_by_hand,Location could not be verified. General city or location coordinates used.
2969,'Rest Stop',1 mi. N.,Hwy 27,Cruising Areas,Cruisy Area,Lansing,MI,1983,checked,NA,,5/20/2022 2:55pm,"Hwy 27, MI",42.732535,-84.555535,unclear_coded_by_hand,Location could not be verified. General city or location coordinates used.
4871,'Rest Stop',,US 59 N.,Cruising Areas,Cruisy Area,Houston,TX,1983,checked,NA,,6/7/2022 5:14pm,"US 59 N., TX",29.760427,-95.369803,unclear_coded_by_hand,Location could not be verified. General city or location coordinates used.
2989,'Rest Stop',,S. on 1-75,Cruising Areas,Cruisy Area,Pontiac,MI,1983,checked,NA,,5/23/2022 7:50am,"S. on 1-75, MI",42.638922,-83.291047,unclear_coded_by_hand,Location could not be verified. General city or location coordinates used.
4085,'Rest Stop',,I-75,Cruising Areas,Cruisy Area,Lebanon,OH,1983,checked,NA,,6/2/2022 4:03pm,"I-75, OH",39.435337,-84.202992,unclear_coded_by_hand,Location could not be verified. General city or location coordinates used.
2317,'Rest Stop',betw. Cedar Rapids & Iowa City (Summers only),,Cruising Areas,"Cruisy Area,(AYOR)",Cedar Rapids,IA,1983,checked,NA,,5/2/2022 4:36am,", IA",41.97788,-91.665623,unclear_coded_by_hand,Location could not be verified. General city or location coordinates used.
4995,'Rest Stop',,N. & S. on Rte. 7,Cruising Areas,Cruisy Area,Rutland,VT,1983,checked,NA,,6/9/2022 10:11am,"N. & S. on Rte. 7, VT",43.610624,-72.972606,unclear_coded_by_hand,Location could not be verified. General city or location coordinates used.
2959,'Rest Stop',4 mi. W.,I-94,Cruising Areas,Cruisy Area,Kalamazoo,MI,1983,checked,NA,,5/20/2022 2:43pm,"I-94, MI",42.291707,-85.587229,unclear_coded_by_hand,Location could not be verified. General city or location coordinates used.
4459,'Rest Stop',(AYOR - Fuzz),Hwy. 82 W.,Cruising Areas,"Cruisy Area,(OC),(AYOR)",Sharon,PA,1983,checked,NA,,6/6/2022 7:41am,"Hwy. 82 W., PA",41.233112,-80.493403,unclear_coded_by_hand,Location could not be verified. General city or location coordinates used.
2861,'Rest Stop',(Uxbridge),146 S.,Cruising Areas,Cruisy Area,Worcester,MA,1983,checked,NA,,5/20/2022 12:02pm,"146 S., MA",42.262593,-71.802293,unclear_coded_by_hand,Location could not be verified. General city or location coordinates used.
2585,'Rest Stop',,I-95,Cruising Areas,Cruisy Area,Ogunquit,ME,1983,checked,NA,,5/18/2022 11:18am,"I-95, ME",43.246835,-70.598622,unclear_coded_by_hand,Location could not be verified. General city or location coordinates used.
3073,'Rest Stop',,U.S. 49 S.,Cruising Areas,Cruisy Area,Hattiesburg,MS,1983,checked,NA,,5/23/2022 11:46am,"U.S. 49 S., MS",31.327119,-89.290339,unclear_coded_by_hand,Location could not be verified. General city or location coordinates used.
4079,'Rest Stop',at exits 201 & 202,I-70 W.,Cruising Areas,Cruisy Area,Dayton,OH,1983,checked,NA,,6/2/2022 3:51pm,"I-70 W., OH",39.758948,-84.191607,unclear_coded_by_hand,Location could not be verified. General city or location coordinates used.
237,'Rest Stop',(I-40),,Cruising Areas,Cruisy Area,Ozark,AR,1983,checked,NA,,2/15/2022 8:56am,", AR",35.48703,-93.827696,unclear_coded_by_hand,Location could not be verified. General city or location coordinates used.
2970,'Rest Stop',(Okemos),I-96,Cruising Areas,Cruisy Area,Lansing,MI,1983,checked,NA,,5/20/2022 2:55pm,"I-96, MI",42.732535,-84.555535,unclear_coded_by_hand,Location could not be verified. General city or location coordinates used.
1615,'Rest Stop',(exit 21) S.W. of town,I-75,Cruising Areas,Cruisy Area,Gainesville,FL,1983,checked,NA,,3/15/2022 3:52pm,"I-75, FL",29.651634,-82.324826,unclear_coded_by_hand,Location could not be verified. General city or location coordinates used.
1241,'Rest Stop',N. of Malibu,US 101,Cruising Areas,Cruisy Area,Santa Monica,CA,1983,checked,NA,,3/4/2022 3:48am,"US 101, CA",34.019454,-118.491191,unclear_coded_by_hand,Location could not be verified. General city or location coordinates used.
3487,'Rest Stop',nr. exit 28,I-87,Cruising Areas,Cruisy Area,Lake George,NY,1983,checked,NA,,5/31/2022 2:23pm,"I-87, NY",43.426181,-73.712341,unclear_coded_by_hand,Location could not be verified. General city or location coordinates used.
2654,'Rest Stop',nr. jet. 28,Rte. 125,Cruising Areas,Cruisy Area,Attleboro,MA,1983,checked,NA,,5/18/2022 2:55pm,"Rte. 125, MA",41.944544,-71.285608,unclear_coded_by_hand,Verified Location
2562,'Rest Stop',Augusta (Northbound) - also woods in back,I-95,Cruising Areas,"Cruisy Area,(AYOR)",Augusta,ME,1983,checked,NA,,5/18/2022 12:39pm,"I-95, ME",44.310624,-69.77949,unclear_coded_by_hand,Location could not be verified. General city or location coordinates used.
2295,'Rest Stop',,I-40,Cruising Areas,Cruisy Area,New Lebanon,IN,1983,checked,NA,,5/1/2022 6:54pm,"I-40, IN",39.040876,-87.471132,unclear_coded_by_hand,Location could not be verified. General city or location coordinates used.
2454,'Rest Stop',,E. on 1-10,Cruising Areas,Cruisy Area,Lafayette,LA,1983,checked,NA,,5/3/2022 4:35am,"E. on 1-10, LA",30.22409,-92.019843,unclear_coded_by_hand,Location could not be verified. General city or location coordinates used.
5200,'Rest Stop',3 mi. S.,US 151,Cruising Areas,"Cruisy Area,(AYOR)",Beaver Dam,WI,1983,checked,NA,,6/12/2022 8:24am,"US 151, WI",43.457769,-88.837329,unclear_coded_by_hand,Location could not be verified. General city or location coordinates used.
2846,'Rest Stop',,Rte. 1-95 W,Cruising Areas,"Cruisy Area,(AYOR)",Swansea,MA,1983,checked,NA,,5/19/2022 2:17pm,"Rte. 1-95 W, MA",41.748162,-71.189562,unclear_coded_by_hand,Location could not be verified. General city or location coordinates used.
2728,'Rest Stop',,S. on Rte. 3,Cruising Areas,Cruisy Area,Marshfield-Pembroke,MA,1983,checked,NA,,5/19/2022 12:46pm,"S. on Rte. 3, MA",42.087995,-70.744678,unclear_coded_by_hand,Location could not be verified. General city or location coordinates used.
2596,'Rest Stop',,Rte. 3,Cruising Areas,Cruisy Area,South Chino,ME,1983,checked,NA,,5/18/2022 12:32pm,"Rte. 3, ME",44.394979,-69.570923,unclear_coded_by_hand,Location could not be verified. General city or location coordinates used.
5271,'Rest Stop',,Hwy. 41 N.,Cruising Areas,Cruisy Area,Oshkosh,WI,1983,checked,NA,,6/13/2022 4:08pm,"Hwy. 41 N., WI",44.024706,-88.542614,unclear_coded_by_hand,Location could not be verified. General city or location coordinates used.
2942,'Rest Stop',Both N & S.,I-75,Cruising Areas,Cruisy Area,Flint,MI,1983,checked,NA,,5/20/2022 2:30pm,"I-75, MI",43.012527,-83.687456,unclear_coded_by_hand,Location could not be verified. General city or location coordinates used.
4405,'Rest Stop',betw. Philipsburg & Port Matilda,Hwy. 322,Cruising Areas,Cruisy Area,Philipsburg,PA,1983,checked,NA,,6/4/2022 8:59am,"Hwy. 322, PA",40.896447,-78.220569,unclear_coded_by_hand,Location could not be verified. General city or location coordinates used.
4054,'Rest Stop',,33 South,Cruising Areas,"Cruisy Area,(*)",Columbus,OH,1983,checked,NA,,6/2/2022 3:16pm,"33 South, OH",39.961176,-82.998794,unclear_coded_by_hand,Location could not be verified. General city or location coordinates used.
236,'Rest Stop',W. on I-40 (Gazebos),,Cruising Areas,Cruisy Area,Little Rock,AR,1983,checked,NA,,2/14/2022 4:21am,", AR",34.746481,-92.289595,unclear_coded_by_hand,Location could not be verified. General city or location coordinates used.
4572,'Rest Stop',betw. Chattanooga & Cleveland,,Cruising Areas,Cruisy Area,Chattanooga,TN,1983,checked,NA,,6/6/2022 10:11am,", TN",35.04563,-85.30968,unclear_coded_by_hand,Location could not be verified. General city or location coordinates used.
2941,'Rest Stop',(West),I-69,Cruising Areas,"Cruisy Area,(AYOR)",Flint,MI,1983,checked,NA,,5/20/2022 2:30pm,"I-69, MI",43.012527,-83.687456,unclear_coded_by_hand,Location could not be verified. General city or location coordinates used.
2871,'Rest Stop',Northbound at 31 mile marker,U.S. 23,Cruising Areas,"(*),Cruisy Area,(AYOR)",Ann Arbor,MI,1983,checked,NA,,5/20/2022 1:07pm,"U.S. 23, MI",42.280826,-83.743038,unclear_coded_by_hand,Location could not be verified. General city or location coordinates used.
3960,'Rest Stop',just N. of N. Canton,Hwy. 77 S.,Cruising Areas,Cruisy Area,Canton,OH,1983,checked,NA,,6/2/2022 2:21pm,"Hwy. 77 S., OH",40.798947,-81.378447,unclear_coded_by_hand,Location could not be verified. General city or location coordinates used.
4031,'Rest Stop',25 mi. E.,I-90,Cruising Areas,Cruisy Area,Cleveland,OH,1983,checked,NA,,6/2/2022 2:52pm,"I-90, OH",41.49932,-81.69436,unclear_coded_by_hand,Location could not be verified. General city or location coordinates used.
4955,'Rest Stop',E. of town,Hwy. 89,Cruising Areas,Cruisy Area,Logan,UT,1983,checked,NA,,6/8/2022 10:40am,"Hwy. 89, UT",41.73698,-111.833836,unclear_coded_by_hand,Location could not be verified. General city or location coordinates used.
4892,'Rest Stop',3 mi. W.,I-30,Cruising Areas,Cruisy Area,Mount Vernon,TX,1983,checked,NA,,6/8/2022 9:09am,"I-30, TX",33.188727,-95.221332,unclear_coded_by_hand,Location could not be verified. General city or location coordinates used.
2376,'Rest Stop',,Hwy. 50 E.,Cruising Areas,Cruisy Area,Walton,KS,1983,checked,NA,,5/2/2022 6:00pm,"Hwy. 50 E., KS",38.117789,-97.2567,unclear_coded_by_hand,Location could not be verified. General city or location coordinates used.
91,'Rest Stop',NW on Hwy. 80,,Cruising Areas,Cruisy Area,Flagstaff,AZ,1983,checked,NA,,2/9/2022 3:19pm,", AZ",35.198284,-111.651302,unclear_coded_by_hand,Location could not be verified. General city or location coordinates used.
4788,'Rest Stop',,I-35 S.,Cruising Areas,Cruisy Area,Ft. Worth,TX,1983,checked,NA,,6/7/2022 4:54pm,"I-35 S., TX",32.755488,-97.330766,unclear_coded_by_hand,Location could not be verified. General city or location coordinates used.
2294,'Rest Stop',"10 mi. S., just off Ind. 3",Ind. 36,Cruising Areas,Cruisy Area,Muncie,IN,1983,checked,NA,,5/1/2022 6:49pm,"Ind. 36, IN",40.193377,-85.38636,unclear_coded_by_hand,Location could not be verified. General city or location coordinates used.
2204,'Rest Stop',betw. Peoria & Bloomington,I-74,Cruising Areas,"Cruisy Area,(AYOR)",Peoria,IL,1983,checked,NA,,4/14/2022 5:38am,"I-74, IL",40.693649,-89.588986,unclear_coded_by_hand,Location could not be verified. General city or location coordinates used.
4209,'Rest Stop',5 mi. S. (Late nights),,Cruising Areas,Cruisy Area,Medford,OR,1983,checked,NA,,6/3/2022 4:10pm,", OR",42.326515,-122.875595,unclear_coded_by_hand,Location could not be verified. General city or location coordinates used.
3349,'Rest Stop',W. of Dover,Hwy. 80,Cruising Areas,Cruisy Area,Mine Hill,NJ,1983,checked,NA,,5/26/2022 9:38am,"Hwy. 80, NJ",40.877877,-74.59377,unclear_coded_by_hand,Location could not be verified. General city or location coordinates used.
4870,'Rest Stop',15 E.,I-10,Cruising Areas,Cruisy Area,Houston,TX,1983,checked,NA,,6/7/2022 5:14pm,"I-10, TX",29.760427,-95.369803,unclear_coded_by_hand,Location could not be verified. General city or location coordinates used.
2189,'Rest Stop',,US 51 South,Cruising Areas,Cruisy Area,La Salle,IL,1983,checked,NA,,4/14/2022 5:35am,"US 51 South, IL",41.36215,-89.041825,unclear_coded_by_hand,Location could not be verified. General city or location coordinates used.
2352,'Rest Stop',7 mi. E.,US 54,Cruising Areas,"Cruisy Area,(AYOR)",Augusta,KS,1983,checked,NA,,5/2/2022 5:58pm,"US 54, KS",37.686684,-96.976702,unclear_coded_by_hand,Location could not be verified. General city or location coordinates used.
1405,'Rest Stop',Wilbur Cross Pkwy - E.,Rte. 15,Cruising Areas,Cruisy Area,Orange,CT,1983,checked,NA,,3/14/2022 4:45am,"Rte. 15, CT",41.278637,-73.026528,unclear_coded_by_hand,Location could not be verified. General city or location coordinates used.
4293,'Rest Stop',,I-81 S.,Cruising Areas,Cruisy Area,Greencastle,PA,1983,checked,NA,,6/4/2022 7:29am,"I-81 S., PA",39.790371,-77.727771,unclear_coded_by_hand,Location could not be verified. General city or location coordinates used.
2995,'Rest Stop',Southbound betw. Bay City and Saginaw,I-75,Cruising Areas,Cruisy Area,Saginaw,MI,1983,checked,NA,,5/23/2022 7:58am,"I-75, MI",43.594468,-83.888865,unclear_coded_by_hand,Location could not be verified. General city or location coordinates used.
4539,'Rest Stop',betw. Greenville & Anderson S.C.,I-85 S.,Cruising Areas,Cruisy Area,Greenville,SC,1983,checked,NA,,6/6/2022 9:38am,"I-85 S., SC",34.852618,-82.39401,unclear_coded_by_hand,Location could not be verified. General city or location coordinates used.
4466,'Rest Stop',12 mi. S.,Rte. 11,Cruising Areas,Cruisy Area,Wilkes-Barre,PA,1983,checked,NA,,6/6/2022 7:55am,"Rte. 11, PA",41.245915,-75.881307,unclear_coded_by_hand,Location could not be verified. General city or location coordinates used.
3894,'Rest Stop',,I-85,Cruising Areas,"Cruisy Area,(AYOR)",Greensboro,NC,1983,checked,NA,,6/2/2022 12:35pm,"I-85, NC",36.072635,-79.791975,unclear_coded_by_hand,Location could not be verified. General city or location coordinates used.
2563,'Rest Stop',Southbound at Herman &,Jan-95,Cruising Areas,Cruisy Area,Bangor,ME,1983,checked,NA,,5/18/2022 11:03am,"Jan-95, ME",44.801613,-68.771226,unclear_coded_by_hand,Location could not be verified. General city or location coordinates used.
5198,'Rest Stop',betw. Appleton & Green Bay,US Hwy. 41,Cruising Areas,Cruisy Area,Appleton,WI,1983,checked,NA,,6/12/2022 8:22am,"US Hwy. 41, WI",44.261931,-88.415385,unclear_coded_by_hand,Location could not be verified. General city or location coordinates used.
5211,'Rest Stop',(4 mi. W.),I-94,Cruising Areas,Cruisy Area,Kenosha,WI,1983,checked,NA,,6/12/2022 8:30am,"I-94, WI",42.584743,-87.821185,unclear_coded_by_hand,Location could not be verified. General city or location coordinates used.
4082,'Rest Stop',,Rt. 68,Cruising Areas,Cruisy Area,Findlay,OH,1983,checked,NA,,6/2/2022 4:00pm,"Rt. 68, OH",41.04422,-83.649932,unclear_coded_by_hand,Location could not be verified. General city or location coordinates used.
1787,'Rest Stop',next to Gulf Coast College at foot of bay bridge - E.,,Cruising Areas,Cruisy Area,Panama City,FL,1983,checked,NA,,3/29/2022 2:31pm,", FL",30.176591,-85.805488,unclear_coded_by_hand,Location could not be verified. General city or location coordinates used.
2831,'Rest Stop',E & W (AYOR),Rte. I-95,Cruising Areas,"Cruisy Area,(AYOR)",Seekonk,MA,1983,checked,NA,,5/19/2022 2:13pm,"Rte. I-95, MA",41.808434,-71.336997,unclear_coded_by_hand,Location could not be verified. General city or location coordinates used.
2845,'Rest Stop',,Rte. 1-95 E,Cruising Areas,"Cruisy Area,(AYOR)",Swansea,MA,1983,checked,NA,,5/19/2022 2:17pm,"Rte. 1-95 E, MA",41.748162,-71.189562,unclear_coded_by_hand,Location could not be verified. General city or location coordinates used.
3090,'Rest Stop',,I-55 S.,Cruising Areas,Cruisy Area,Oxford,MS,1983,checked,NA,,5/23/2022 6:45pm,"I-55 S., MS",34.36683,-89.518635,unclear_coded_by_hand,Location could not be verified. General city or location coordinates used.
2428,'Rest Stop',westbound,I-20,Cruising Areas,Cruisy Area,Arcadia,LA,1983,checked,NA,,5/3/2022 4:47am,"I-20, LA",32.549041,-92.920158,unclear_coded_by_hand,Location could not be verified. General city or location coordinates used.
4996,'Rest Stop',,I-91,Cruising Areas,Cruisy Area,Springfield,VT,1983,checked,NA,,6/9/2022 10:12am,"I-91, VT",43.298408,-72.482312,unclear_coded_by_hand,Location could not be verified. General city or location coordinates used.
2551,'Rest Stop',,I-20 E.,Cruising Areas,Cruisy Area,Ruston,LA,1983,checked,NA,,5/17/2022 6:36pm,"I-20 E., LA",32.531825,-92.473759,unclear_coded_by_hand,Verified Location
3951,'Rest Stop',(N & S),I-77,Cruising Areas,Cruisy Area,Akron,OH,1983,checked,NA,,6/2/2022 1:23pm,"I-77, OH",41.081445,-81.519005,unclear_coded_by_hand,Location could not be verified. General city or location coordinates used.
4204,'Rest Stop',3 mi. N. (Both sides),I-5,Cruising Areas,"Cruisy Area,(AYOR)",Grants Pass,OR,1983,checked,NA,,6/3/2022 4:08pm,"I-5, OR",42.439007,-123.328392,unclear_coded_by_hand,Location could not be verified. General city or location coordinates used.
2860,'Rest Stop',on 140 (Upton),,Cruising Areas,Cruisy Area,Worcester,MA,1983,checked,NA,,5/20/2022 12:02pm,", MA",42.262593,-71.802293,unclear_coded_by_hand,Location could not be verified. General city or location coordinates used.
2841,'Rest Stop',betw. Northampton & Holyoke (Mass arrests),I-91 S.,Cruising Areas,"Cruisy Area,(AYOR)",Springfield,MA,1983,checked,NA,,5/18/2022 2:39pm,"I-91 S., MA",42.101483,-72.589811,unclear_coded_by_hand,Location could not be verified. General city or location coordinates used.
2364,'Rest Stop',7 mi. W.,Hwy. 160,Cruising Areas,Cruisy Area,Parsons,KS,1983,checked,NA,,5/2/2022 6:08am,"Hwy. 160, KS",37.340338,-95.261084,unclear_coded_by_hand,Location could not be verified. General city or location coordinates used.
3328,'Rest Stop',,Hwy. 23 N.,Cruising Areas,Cruisy Area,Butler,NJ,1983,checked,NA,,5/26/2022 8:04am,"Hwy. 23 N., NJ",41.003709,-74.341539,unclear_coded_by_hand,Location could not be verified. General city or location coordinates used.
2586,'Rest Stop',,US 1 - S.,Cruising Areas,"Cruisy Area,(AYOR)",Ogunquit,ME,1983,checked,NA,,5/18/2022 11:18am,"US 1 - S., ME",43.246835,-70.598622,unclear_coded_by_hand,Location could not be verified. General city or location coordinates used.
4123,'Rest Stop',,Rte. 3 S.,Cruising Areas,Cruisy Area,Wooster,OH,1983,checked,NA,,6/2/2022 4:36pm,"Rte. 3 S., OH",40.805057,-81.935143,unclear_coded_by_hand,Location could not be verified. General city or location coordinates used.
167,'Rest Stop',Hwy 80 N.,,Cruising Areas,"Cruisy Area,(AYOR)",Tempe,AZ,1983,checked,NA,,2/10/2022 6:46am,", AZ",33.42551,-111.940005,unclear_coded_by_hand,Location could not be verified. General city or location coordinates used.
2567,'Rest Stop',betw. Bath & Brunswick (S.),US 1,Cruising Areas,Cruisy Area,Brunswick,ME,1983,checked,NA,,5/18/2022 11:11am,"US 1, ME",43.914016,-69.966996,unclear_coded_by_hand,Location could not be verified. General city or location coordinates used.
2561,'Rest Stop',at Sidney (Southbound),I-95,Cruising Areas,Cruisy Area,Augusta,ME,1983,checked,NA,,5/18/2022 12:40pm,"I-95, ME",44.310624,-69.77949,unclear_coded_by_hand,Location could not be verified. General city or location coordinates used.
4092,'Rest Stop',,Rt. 23 S.,Cruising Areas,Cruisy Area,Marion,OH,1983,checked,NA,,6/2/2022 4:14pm,"Rt. 23 S., OH",40.58867,-83.128524,unclear_coded_by_hand,Location could not be verified. General city or location coordinates used.
4878,'Rest Stop',,I-20 E.,Cruising Areas,Cruisy Area,Longview,TX,1983,checked,NA,,6/8/2022 8:47am,"I-20 E., TX",32.500704,-94.740489,unclear_coded_by_hand,Location could not be verified. General city or location coordinates used.
5207,'Rest Stop',eastside nr. city limits,Wise. 141,Cruising Areas,Cruisy Area,Green Bay,WI,1983,checked,NA,,6/12/2022 8:27am,"Wise. 141, WI",44.513319,-88.013296,unclear_coded_by_hand,Location could not be verified. General city or location coordinates used.
5206,'Rest Stop',S. of DePere (AYOR - many arrests),US 41,Cruising Areas,"Cruisy Area,(AYOR)",Green Bay,WI,1983,checked,NA,,6/12/2022 8:27am,"US 41, WI",44.513319,-88.013296,unclear_coded_by_hand,Location could not be verified. General city or location coordinates used.
3963,'Rest Stop',1 1/2 mi. W.,Rte. 127,Cruising Areas,Cruisy Area,Carthegena,OH,1983,checked,NA,,6/2/2022 2:25pm,"Rte. 127, OH",40.437845,-84.562182,unclear_coded_by_hand,Location could not be verified. General city or location coordinates used.
1784,'Rest Stop',on I-4 Buena Vista,,Cruising Areas,"Cruisy Area,(AYOR)",Orlando,FL,1983,checked,NA,,3/29/2022 2:11pm,", FL",28.538383,-81.378927,unclear_coded_by_hand,Location could not be verified. General city or location coordinates used.
2848,'Rest Stop',,Rte. 146,Cruising Areas,Cruisy Area,Uxbridge,MA,1983,checked,NA,,5/19/2022 2:18pm,"Rte. 146, MA",42.077243,-71.630253,unclear_coded_by_hand,Location could not be verified. General city or location coordinates used.
2192,'Rest Stop',6 mi. N.,US 67,Cruising Areas,Cruisy Area,Macomb,IL,1983,checked,NA,,4/14/2022 5:59am,"US 67, IL",40.459208,-90.671797,unclear_coded_by_hand,Location could not be verified. General city or location coordinates used.
3060,'Rest Stop',(Both sides),I-55 N.,Cruising Areas,Cruisy Area,Batesville,MS,1983,checked,NA,,5/23/2022 11:14am,"I-55 N., MS",34.311498,-89.944257,unclear_coded_by_hand,Location could not be verified. General city or location coordinates used.
4090,'Rest Stop',,I-71 & US 30,Cruising Areas,Cruisy Area,Mansfield,OH,1983,checked,NA,,6/2/2022 4:07pm,"I-71 & US 30, OH",40.779654,-82.419918,unclear_coded_by_hand,Location could not be verified. General city or location coordinates used.
4095,'Rest Stop',just S. of 271,Hwy. 77,Cruising Areas,Cruisy Area,Richfield,OH,1983,checked,NA,,6/2/2022 4:17pm,"Hwy. 77, OH",41.239777,-81.638178,unclear_coded_by_hand,Location could not be verified. General city or location coordinates used.
4893,'Rest Stop',10 mi. S.,US-59,Cruising Areas,Cruisy Area,Nacogdoches,TX,1983,checked,NA,,6/8/2022 9:10am,"US-59, TX",31.603513,-94.655487,unclear_coded_by_hand,Location could not be verified. General city or location coordinates used.
4283,'Rest Stop',Southbound,I-81,Cruising Areas,Cruisy Area,Chambersburg,PA,1983,checked,NA,,6/4/2022 7:15am,"I-81, PA",39.937591,-77.661102,unclear_coded_by_hand,Location could not be verified. General city or location coordinates used.
5179,'Rest Stop',,Rt. 15 - S.,Cruising Areas,Cruisy Area,Findlay,OH,1983,checked,NA,,6/2/2022 4:00pm,"Rt. 15 - S., OH",41.04422,-83.649932,unclear_coded_by_hand,Location could not be verified. General city or location coordinates used.
3826,'Rest Stop',15 mi. N.,I-684,Cruising Areas,Cruisy Area,White Plains,NY,1983,checked,NA,,6/1/2022 1:51pm,"I-684, NY",41.033986,-73.76291,unclear_coded_by_hand,Location could not be verified. General city or location coordinates used.
2355,'Rest Stop',2 mi. W. of town,I-70,Cruising Areas,Cruisy Area,Junction City,KS,1983,checked,NA,,5/2/2022 5:12am,"I-70, KS",39.028609,-96.831398,unclear_coded_by_hand,Location could not be verified. General city or location coordinates used.
2375,'Rest Stop',,Old Hwy. 75,Cruising Areas,Cruisy Area,Wakarusa,KS,1983,checked,NA,,5/2/2022 5:59pm,"Old Hwy. 75, KS",38.885694,-95.696034,unclear_coded_by_hand,Location could not be verified. General city or location coordinates used.
4527,'Rest Stop',on 1-26 S.,,Cruising Areas,Cruisy Area,Columbia,SC,1983,checked,NA,,6/6/2022 9:30am,", SC",34.00071,-81.034814,unclear_coded_by_hand,Location could not be verified. General city or location coordinates used.
3086,'Rest Stop',,I-20,Cruising Areas,Cruisy Area,Morton,MS,1983,checked,NA,,5/23/2022 6:44pm,"I-20, MS",32.353756,-89.654517,unclear_coded_by_hand,Location could not be verified. General city or location coordinates used.
1947,'Rest Stop',by Macon bypass,I-75 N.,Cruising Areas,Cruisy Area,Macon,GA,1983,checked,NA,,4/12/2022 5:25am,"I-75 N., GA",32.840695,-83.632402,unclear_coded_by_hand,Location could not be verified. General city or location coordinates used.
2739,'Rest Stop',,Hwy. 91,Cruising Areas,"Cruisy Area,(AYOR)",Northampton,MA,1983,checked,NA,,5/19/2022 2:24pm,"Hwy. 91, MA",42.32509,-72.641201,unclear_coded_by_hand,Location could not be verified. General city or location coordinates used.
4407,'Rest Stop' & woods,"behind I-81, betw. exit 31 & 32",,Cruising Areas,Cruisy Area,Pine Grove,PA,1983,checked,NA,,6/4/2022 9:08am,", PA",40.548423,-76.384678,unclear_coded_by_hand,Location could not be verified. General city or location coordinates used.
4993,'Rest Stops',on both sides of I-66,,Cruising Areas,Cruisy Area,Manassas,VA,1983,checked,NA,,6/9/2022 11:04am,", VA",38.750949,-77.475267,unclear_coded_by_hand,Location could not be verified. General city or location coordinates used.
3809,'Rest Stops',both sides - just W. of Shinnecock Canal,Sunrise Hwy. Ext.,Cruising Areas,Cruisy Area,The Hamptons,NY,1983,checked,NA,,6/1/2022 9:01am,"Sunrise Hwy. Ext., NY",40.963434,-72.184801,unclear_coded_by_hand,Location could not be verified. General city or location coordinates used.
1355,'Rest Stops',,Milford & Fairfield,Cruising Areas,Cruisy Area,Bridgeport,CT,1983,checked,NA,,3/12/2022 7:09am,"Milford & Fairfield, CT",41.179226,-73.189438,unclear_coded_by_hand,Location could not be verified. General city or location coordinates used.
5058,'Rest Stops',I-5 N. & S. about 5 mi.,,Cruising Areas,Cruisy Area,Blaine,WA,1983,checked,NA,,6/9/2022 12:46pm,", WA",48.993723,-122.747119,unclear_coded_by_hand,Location could not be verified. General city or location coordinates used.
2726,'Rest Stops',(nr. Chelmsford) (N. Chelmsford),I-495 & Rte. 3,Cruising Areas,Cruisy Area,Lowell,MA,1983,checked,NA,,5/19/2022 12:45pm,"I-495 & Rte. 3, MA",42.633425,-71.316172,unclear_coded_by_hand,Location could not be verified. General city or location coordinates used.
4267,'Rest Stops',betw. Salem & Portland - also betw. Salem & Albany (both sides - discretion),I-5,Cruising Areas,Cruisy Area,Salem,OR,1983,checked,NA,,6/4/2022 6:27am,"I-5, OR",44.942898,-123.035096,unclear_coded_by_hand,Location could not be verified. General city or location coordinates used.
1354,'Rest Stops',nr. Darien,I-95,Cruising Areas,Cruisy Area,Bridgeport,CT,1983,checked,NA,,3/12/2022 7:09am,"I-95, CT",41.179226,-73.189438,unclear_coded_by_hand,Location could not be verified. General city or location coordinates used.
2655,'Rest Stops',at Attleboro,1-95 N,Cruising Areas,"Cruisy Area,(AYOR)",Attleboro,MA,1983,checked,NA,,5/18/2022 2:55pm,"1-95 N, MA",41.944544,-71.285608,unclear_coded_by_hand,Verified Location
2656,'Rest Stops',Southbound at N. at Attleboro,1-95 N,Cruising Areas,"Cruisy Area,(AYOR)",Attleboro,MA,1983,checked,NA,,5/18/2022 2:55pm,"1-95 N, MA",41.944544,-71.285608,unclear_coded_by_hand,Verified Location
4772,'Rest Stops',,I-10 E.,Cruising Areas,Cruisy Area,Fabens,TX,1983,checked,NA,,6/7/2022 4:48pm,"I-10 E., TX",31.50234,-106.158587,unclear_coded_by_hand,Location could not be verified. General city or location coordinates used.
3114,'Rest Stops',,I-44,Cruising Areas,"Cruisy Area,(AYOR)",Joplin,MO,1983,checked,NA,,6/13/2022 4:57pm,"I-44, MO",37.084227,-94.513281,unclear_coded_by_hand,Verified Location
1193,'Sin Jose',1st St. betw. San Salvador & Santa Clara ('Hustlers'),San Salvador & Santa Clara,Cruising Areas,Cruisy Area,San Jose,CA,1983,checked,NA,,3/2/2022 6:32pm,"San Salvador & Santa Clara, CA",37.334225,-121.889073,unclear_coded_by_hand,Verified Location
283,'T-Rooms',opp. Henry Danna St. Park,,Cruising Areas,Cruisy Area,Dana Point,CA,1983,checked,NA,,3/4/2022 4:19am,", CA",33.467226,-117.698101,unclear_coded_by_hand,Location could not be verified. General city or location coordinates used.
1173,'Tenderloin',hustlers at Flagg Bros. 'corner',Mason St.,Cruising Areas,Cruisy Area,San Francisco,CA,1983,checked,NA,,3/6/2022 4:36pm,"Mason St., CA",37.77493,-122.419415,unclear_coded_by_hand,Location could not be verified. General city or location coordinates used.
1174,'Tenderloin',hustlers at Flagg Bros. 'corner',Market St.,Cruising Areas,Cruisy Area,San Francisco,CA,1983,checked,NA,,3/6/2022 4:36pm,"Market St., CA",37.77493,-122.419415,unclear_coded_by_hand,Location could not be verified. General city or location coordinates used.
4962,'The Block',N. of 25th,Grant,Cruising Areas,Cruisy Area,Ogden,UT,1983,checked,NA,,6/8/2022 10:42am,"Grant, UT",41.223,-111.97383,unclear_coded_by_hand,Location could not be verified. General city or location coordinates used.
1505,'The Block',betw. 'O' & Dumbarton (Georgetown),30th to 31st,Cruising Areas,Cruisy Area,Washington,DC,1983,checked,NA,,3/15/2022 5:38am,"30th to 31st, DC",38.907192,-77.036871,unclear_coded_by_hand,Location could not be verified. General city or location coordinates used.
222,'The Block',around Tradewinds Motel,,Cruising Areas,Cruisy Area,Ft. Smith,AR,1983,checked,NA,,2/14/2022 4:13am,", AR",35.385924,-94.398547,unclear_coded_by_hand,Location could not be verified. General city or location coordinates used.
3961,'The Block',around Andre's Restaurant on N .W .,,Cruising Areas,"Cruisy Area,(AYOR)",Canton,OH,1983,checked,NA,,6/2/2022 2:21pm,", OH",40.798947,-81.378447,unclear_coded_by_hand,Location could not be verified. General city or location coordinates used.
5040,'The Block',Grace & Franklin betw. Adams & 3rd,,Cruising Areas,Cruisy Area,Richmond,VA,1983,checked,NA,,6/9/2022 11:54am,", VA",37.54388,-77.442348,unclear_coded_by_hand,Verified Location
1754,'The Block',nr. Cactus Lounge - off Biscayne Blvd. (Hustlers),,Cruising Areas,Cruisy Area,Miami,FL,1983,checked,NA,,3/29/2022 7:47am,", FL",25.76168,-80.19179,unclear_coded_by_hand,Location could not be verified. General city or location coordinates used.
5193,'The Block',,Christopher St.,Cruising Areas,Cruisy Area,Charleston,WV,1983,checked,NA,,6/11/2022 4:02pm,"Christopher St., WV",38.34982,-81.632623,unclear_coded_by_hand,Location could not be verified. General city or location coordinates used.
5164,'The Block',"Summers, Donnally",Capitol St.,Cruising Areas,Cruisy Area,Charleston,WV,1983,checked,NA,,6/11/2022 4:02pm,"Capitol St., WV",38.34982,-81.632623,unclear_coded_by_hand,Location could not be verified. General city or location coordinates used.
529,'The Bushes',betw. Beverly & Melrose,Robertson Blvd.,Cruising Areas,"Cruisy Area,(AYOR)",Hollywood,CA,1983,checked,NA,,2/20/2022 7:28am,"Robertson Blvd., CA",34.092809,-118.328661,unclear_coded_by_hand,Location could not be verified. General city or location coordinates used.
5041,'The Bushes',at Battle Abbey,,Cruising Areas,Cruisy Area,Richmond,VA,1983,checked,NA,,6/9/2022 11:40am,", VA",37.540725,-77.436048,unclear_coded_by_hand,Location could not be verified. General city or location coordinates used.
3836,'The Cage',Block around Federal Bldg.,,Cruising Areas,Cruisy Area,Asheville,NC,1983,checked,NA,,6/1/2022 2:34pm,", NC",35.595058,-82.551487,unclear_coded_by_hand,Location could not be verified. General city or location coordinates used.
1378,'The Dikes',off I-91 N.,East-West Service Rd.,Cruising Areas,"Cruisy Area,(AYOR)",Hartford,CT,1983,checked,NA,,3/12/2022 7:16am,"East-West Service Rd., CT",41.763964,-72.667475,unclear_coded_by_hand,Location could not be verified. General city or location coordinates used.
1422,'The Dunes','B.A.' Beach about 1 mi. N. of parking lot,Henlopen St. Park,Cruising Areas,,Rehoboth Beach,DE,1983,checked,NA,,3/14/2022 5:15am,"Henlopen St. Park, DE",38.784166,-75.098322,unclear_coded_by_hand,Verified Location
2418,'The Falls',"across Ohio River in Jeffersonville, Indiana",,Cruising Areas,"Cruisy Area,(*)",Louisville,KY,1983,checked,NA,,5/3/2022 4:23am,", KY",38.252665,-85.758456,unclear_coded_by_hand,Location could not be verified. General city or location coordinates used.
752,'The Grove',S. end of Evans Lake,,Cruising Areas,Cruisy Area,Riverside,CA,1983,checked,NA,,4/27/2022 6:10pm,", CA",33.994289,-117.377887,unclear_coded_by_hand,Verified Location
1379,'The Loop',nr. Asylum St.,Spring St.,Cruising Areas,"Cruisy Area,(AYOR)",Hartford,CT,1983,checked,NA,,3/12/2022 7:18am,"Spring St., CT",41.763964,-72.667475,unclear_coded_by_hand,Location could not be verified. General city or location coordinates used.
1380,'The Loop',nr. Asylum St.,Myrtle St.,Cruising Areas,"Cruisy Area,(AYOR)",Hartford,CT,1983,checked,NA,,3/12/2022 7:18am,"Myrtle St., CT",41.763964,-72.667475,unclear_coded_by_hand,Location could not be verified. General city or location coordinates used.
1381,'The Loop',nr. Asylum St.,Garden St.,Cruising Areas,"Cruisy Area,(AYOR)",Hartford,CT,1983,checked,NA,,3/12/2022 7:18am,"Garden St., CT",41.763964,-72.667475,unclear_coded_by_hand,Location could not be verified. General city or location coordinates used.
1175,'The Strip',Market St. from Ban Ness to Castro 'Hitch-hikers' or by car,,Cruising Areas,Cruisy Area,San Francisco,CA,1983,checked,NA,,3/6/2022 4:38pm,", CA",37.77493,-122.419415,unclear_coded_by_hand,Location could not be verified. General city or location coordinates used.
4135,'The Strip','Hitch-hikers' from Cache Rd. to Main Gate,Ft. Sill Blvd.,Cruising Areas,Cruisy Area,Lawton,OK,1983,checked,NA,,6/3/2022 12:47pm,"Ft. Sill Blvd., OK",34.632623,-98.422244,unclear_coded_by_hand,Verified Location
4463,'The Wall',100 block of College Ave.,,Cruising Areas,Cruisy Area,State College,PA,1983,checked,NA,,6/6/2022 7:42am,", PA",40.794839,-77.860699,unclear_coded_by_hand,Verified Location
4334,'Tow Path',along the canal & Ferry St. Bridge,,Cruising Areas,Cruisy Area,New Hope,PA,1983,checked,NA,,6/4/2022 8:13am,", PA",40.363428,-74.950423,unclear_coded_by_hand,Verified Location
260,'Truck Stop',on US 101 S. - east side,,Cruising Areas,"Cruisy Area,(AYOR)",Burlingame,CA,1983,checked,NA,,2/15/2022 1:46pm,", CA",37.57787,-122.34809,unclear_coded_by_hand,Location could not be verified. General city or location coordinates used.
4674,'Truck Stop',betw. Beaumont & Orange,,Cruising Areas,Cruisy Area,Beaumont,TX,1983,checked,NA,,6/7/2022 3:38pm,", TX",30.080174,-94.126556,unclear_coded_by_hand,Location could not be verified. General city or location coordinates used.
303,'Truck Stop',US 101 S.,,Cruising Areas,"Cruisy Area,(AYOR)",Eureka,CA,1983,checked,NA,,2/22/2022 8:18am,", CA",40.802071,-124.163673,unclear_coded_by_hand,Location could not be verified. General city or location coordinates used.
3885,'Truck Stops',,along I-95,Cruising Areas,Cruisy Area,Fayetteville,NC,1983,checked,NA,,6/2/2022 12:00pm,"along I-95, NC",35.052664,-78.878358,unclear_coded_by_hand,Location could not be verified. General city or location coordinates used.
3814,'Turn around circle',"at end of Main, & block from 1st to 2nd betw. Main & Catherine",,Cruising Areas,Cruisy Area,Utica,NY,1983,checked,NA,,6/1/2022 1:42pm,", NY",43.10199,-75.223951,unclear_coded_by_hand,Verified Location
3738,'Vaseline Alley',by foot or car,37th Rd.,Cruising Areas,"Cruisy Area,(AYOR)",Queens,NY,1983,checked,NA,,5/31/2022 9:38pm,"37th Rd., NY",40.747118,-73.892407,unclear_coded_by_hand,Location could not be verified. General city or location coordinates used.
3399,'Walking the Block',around La Fonda Hotel (& infamous T-Room),,Cruising Areas,Cruisy Area,Santa Fe,NM,1983,checked,NA,,5/27/2022 10:10pm,", NM",35.687428,-105.938512,unclear_coded_by_hand,Verified Location
1160,"""Hibernia Beach""",the heart of Castro Village,18th & Castro,Cruising Areas,"Cruisy Area,(*)",San Francisco,CA,1983,checked,NA,Noted to be at the corner of Castro and 18th St. near what is now the GLBT Historical Society Museum: http://sfbaytimes.com/life-and-loss-at-hibernia-beach-in-the-castro/,3/6/2022 4:39pm,"18th & Castro, CA",37.760715,-122.435636,unclear_coded_by_hand,Verified Location
5001,"""Ruth Ann""",(bet. exits 6 & 7) (Rest Stop),NE on I-81,Cruising Areas,Cruisy Area,Bristol,VA,1983,checked,NA,,6/9/2022 10:38am,"NE on I-81, VA",36.595142,-82.188737,unclear_coded_by_hand,Location could not be verified. General city or location coordinates used.
3841,"""The Wall""",Downtown,Franklin St.,Cruising Areas,Cruisy Area,Chapel Hill,NC,1983,checked,NA,,6/1/2022 2:40pm,"Franklin St., NC",35.9132,-79.055844,unclear_coded_by_hand,Location could not be verified. General city or location coordinates used.
3875,"""Truck Stop""",,Guess Rd. & 1-85,Cruising Areas,Cruisy Area,Durham,NC,1983,checked,NA,,6/2/2022 11:56am,"Guess Rd. & 1-85, NC",35.994033,-78.898619,unclear_coded_by_hand,Location could not be verified. General city or location coordinates used.
1088,*P.S. Restaurant,(Open for lunch - Sun. brunch 'a must')(Good afternoons) nr. Sutter,1121 Polk St.,Restaurant,"(*),(E),(R)",San Francisco,CA,1983,,,,12/5/2021 11:00am,"1121 Polk St., San Francisco, CA",37.7910282,-122.4211433,"1121 polk st, san francisco, ca 94109, usa",Google Verified Location
1064,#'s,(Numbers),2201 Fillmore,Bars/Clubs,(PT),San Francisco,CA,1983,,,,12/5/2021 11:00am,"2201 Fillmore, San Francisco, CA",37.7899812,-122.4342061,"2201 fillmore st, san francisco, ca 94115, usa",Google Verified Location
878,#1 Fifth Avenue,(Cruisy)(Piano E)(Patio) nr. Robinson(No sign),3845 5th Ave.,"Bars/Clubs,Cruising Areas","(*),(E)",San Diego,CA,1983,,,,12/9/2021 6:30pm,"3845 5th Ave., San Diego, CA",32.7477981,-117.1601832,"3845 fifth ave, san diego, ca 92103, usa",Google Verified Location
2339,2nd Ave.,North of town,,Cruising Areas,Cruisy Area,Des Moines,IA,1983,checked,NA,,5/2/2022 4:42am,", IA",41.586835,-93.624959,unclear_coded_by_hand,Location could not be verified. General city or location coordinates used.
3984,4th & Main to 5th & Sycamore,(Fuzz),,Cruising Areas,Cruisy Area,Cincinnati,OH,1983,checked,NA,,6/2/2022 2:26pm,", OH",39.101292,-84.508729,unclear_coded_by_hand,Verified Location
382,4th Street Cafe,,2030 E. 4th,Restaurant,"(M),(R)",Long Beach,CA,1983,,,,12/5/2021 11:00am,"2030 E. 4th, Long Beach, CA",33.7715433,-118.166963,"2030 e 4th st, long beach, ca 90814, usa",Google Verified Location
23,5th Ave. N.,at 20th St. nr. Bus Depot,,Cruising Areas,"Cruisy Area,(AYOR)",Birmingham,AL,1983,checked,NA,,2/4/2022 4:16am,", AL",33.518077,-86.808184,unclear_coded_by_hand,Verified Location
221,6th & Garrison,,,Cruising Areas,Cruisy Area,Ft. Smith,AR,1983,checked,NA,,2/14/2022 4:13am,", AR",35.387237,-94.425237,unclear_coded_by_hand,Verified Location
5292,7th Keg,(Best bet) nr. Colorado,300 E. Cedar,Bars/Clubs,(M),Rawlins,WY,1983,,,,12/8/2021 3:11pm,"300 E. Cedar, Rawlins, WY",41.789266,-107.23288,"300 e cedar st, rawlins, wy 82301, usa",Google Verified Location
2215,7th St.,,7th St.,Cruising Areas,Cruisy Area,Rockford,IL,1983,checked,NA,,4/14/2022 5:51am,"7th St., IL",42.271131,-89.093995,unclear_coded_by_hand,Location could not be verified. General city or location coordinates used.
1757,8 1/2 Disco,,1137 Washingston Ave.,Bars/Clubs,,Miami Beach,FL,1983,,,,12/5/2021 11:01am,"1137 Washingston Ave., Miami Beach, FL",25.7825129,-80.131998,"1137 washington ave, miami beach, fl 33139, usa",Google Verified Location
3526,8 Christopher St. Tavern,,8 Christopher St.,Bars/Clubs,"(PT),(*)",Greenwich Village & Chelsea,NY,1983,,,,12/5/2021 11:02am,"8 Christopher St., Greenwich Village & Chelsea, NY",40.7338418,-74.0001048,"8 christopher st, new york, ny 10014, usa",Google Verified Location
1430,8th St.,,bet. Shipley & Tetnell,Cruising Areas,Cruisy Area,Wilmington,DE,1983,checked,NA,,3/15/2022 5:13am,"bet. Shipley & Tetnell, DE",39.752501,-75.571118,unclear_coded_by_hand,Location could not be verified. General city or location coordinates used.
1746,13 Buttons,(Disco)(5 bars)(Cruisy)(3 blks. W. of N.W. 27th Ave. & 20th Sts.),2998 N.W.N. River Dr.,"Bars/Clubs,Cruising Areas","(*),(P),(YC),(D),(PT),(S),(E)",Miami,FL,1983,,,,12/5/2021 11:01am,"2998 N.W.N. River Dr., Miami, FL",25.7959967,-80.243737,"2998 nw n river dr, miami, fl 33142, usa",Google Verified Location
4468,14 Karat,,718 W. Market St.,Bars/Clubs,,York,PA,1983,,,,12/5/2021 11:02am,"718 W. Market St., York, PA",39.9566665,-76.7456985,"718 w market st, york, pa 17401, usa",Google Verified Location
3216,15th St.,near State Capitol Grounds,15th St.,Cruising Areas,Cruisy Area,Lincoln,NE,1983,checked,NA,,5/25/2022 8:41am,"15th St., NE",40.796693,-96.699676,unclear_coded_by_hand,Verified Location
5191,18th St.,betw. Market & Chapline,,Cruising Areas,"Cruisy Area,(AYOR),(RT)",Wheeling,WV,1983,checked,NA,,6/12/2022 8:20am,", WV",40.062778,-80.721802,unclear_coded_by_hand,Verified Location
4978,20 rue Jacob,"(Coffee House, Books, etc)",232 E. 800 So.,"Restaurant,Book Store",(L),Salt Lake City,UT,1983,,,,12/5/2021 11:02am,"232 E. 800 So., Salt Lake City, UT",40.7516723,-111.8841066,"232 e 800 s, salt lake city, ut 84111, usa",Google Verified Location
1762,21st St. Beach,,,Cruising Areas,Cruisy Area,Miami Beach,FL,1983,checked,NA,,4/4/2022 12:25pm,", FL",25.790654,-80.130045,unclear_coded_by_hand,Location could not be verified. General city or location coordinates used.
5048,21st St. Beach,,,Cruising Areas,Cruisy Area,Virginia Beach,VA,1983,checked,NA,,6/9/2022 12:10pm,", VA",36.84954,-75.973896,unclear_coded_by_hand,Verified Location
4963,25th St.,betw. Washington & Wall,,Cruising Areas,Cruisy Area,Ogden,UT,1983,checked,NA,,6/8/2022 10:44am,", UT",41.220415,-111.955161,unclear_coded_by_hand,Verified Location
4479,28 Prospect Hill,(Disco)(Cruisy patio) off Thames St. nr. P.O.,28 Prospect Hill,"Bars/Clubs,Cruising Areas","(*),(YC),(D)",Newport,RI,1983,,,,12/5/2021 11:02am,"28 Prospect Hill, Newport, RI",41.4853795,-71.3139844,"28 prospect hill st, newport, ri 02840, usa",Google Verified Location
3772,34 N. Washington St.,"(Baths)(Some YC, hustlers)",34 N. Washington St.,Bathhouses,"(YC),(*)",Rochester,NY,1983,,,,12/5/2021 11:02am,"34 N. Washington St., Rochester, NY",43.1559798,-77.6176936,"34 n washington st, rochester, ny 14614, usa",Google Verified Location
3758,40 Union Street,,40 Union St.,Restaurant,(R),Rochester,NY,1983,,,,12/5/2021 11:02am,"40 Union St., Rochester, NY",43.1570304,-77.5954882,"40 n union st, rochester, ny 14607, usa",Google Verified Location
3632,42nd St. Barracks,(Hotel-like baths),226 W. 42nd St.,"Bathhouses,Hotel",,Midtown,NY,1983,,,,12/5/2021 11:02am,"226 W. 42nd St., Midtown, NY",40.7563193,-73.9882333,"226 w 42nd st, new york, ny 10036, usa",Google Verified Location
3867,42nd Street,"(Disco)(Game room -downstairs) (Wed., Fri., Sat only*)",315 W. Main St.,Bars/Clubs,"(YC),(D),(*)",Durham,NC,1983,,,,12/10/2021 4:38pm,"315 W. Main St., Durham, NC",35.9961746,-78.9031417,"315 w main st, durham, nc 27701, usa",Google Verified Location
444,55 Club,(Latins),715 N. Western,Bars/Clubs,(RT),Hollywood,CA,1983,,,,12/5/2021 11:00am,"715 N. Western, Hollywood, CA",34.0839327,-118.3094961,"715 n western ave, los angeles, ca 90029, usa",Google Verified Location
3633,55th St. Playhouse,(Cinema) nr. 7th Ave.,55th St.,Theatre,,Midtown,NY,1983,,,,12/5/2021 11:02am,"55th St., Midtown, NY",40.7660018,-73.985207,"w 55th st, new york, ny, usa",Google Verified Location
666,73rd Ave. Baths,"(Some OC, B)",2544 73rd Ave.,Bathhouses,"(OC),(B)",Oakland,CA,1983,,,,12/5/2021 11:00am,"2544 73rd Ave., Oakland, CA",37.7665059,-122.1756471,"2544 73rd ave, oakland, ca 94605, usa",Google Verified Location
3710,75th St.,betw. Amsterdam & Columbus,,Cruising Areas,Cruisy Area,Uptown,NY,1983,checked,NA,,6/1/2022 9:36am,", NY",40.78019,-73.978736,unclear_coded_by_hand,Verified Location
4934,76 Truck Stop,,W. on I-20,Cruising Areas,Cruisy Area,Sweetwater,TX,1983,checked,NA,,6/8/2022 9:57am,"W. on I-20, TX",32.470952,-100.405938,unclear_coded_by_hand,Location could not be verified. General city or location coordinates used.
3586,78-80 Christopher St.,(All-male Mini-theatre),78 Christopher St.,Theatre,(*),Greenwich Village & Chelsea,NY,1983,,,,1/7/2022 9:19am,"78 Christopher St., Greenwich Village & Chelsea, NY",40.7334049,-74.0035071,"78 christopher st, new york, ny 10014, usa",Google Verified Location
1994,80% Straight,(erotica)(2nd floor),2131 Kuhio Ave.,Bars/Clubs,,Waikiki,HI,1983,,,,12/5/2021 11:01am,"2131 Kuhio Ave., Waikiki, HI",21.2824299,-157.8295677,"2131 kūhiō ave., honolulu, hi 96815, usa",Google Verified Location
3692,96 West,(Disco),168 W. 96th St.,Bars/Clubs,"(D),(B)",Uptown,NY,1983,,,,12/5/2021 11:02am,"168 W. 96th St., Uptown, NY",40.79354,-73.9697448,"168 w 96th st, new york, ny 10025, usa",Google Verified Location
4472,100 block of Duke & Queen Sts.,,,Cruising Areas,Cruisy Area,York,PA,1983,checked,NA,,6/6/2022 8:03am,", PA",39.961322,-76.72501,unclear_coded_by_hand,Verified Location
2687,119 Merrimac,,119 Merrimac,Bars/Clubs,"(OC),(E),(W)",Boston,MA,1983,,,,12/5/2021 11:01am,"119 Merrimac, Boston, MA",42.363889,-71.0619221,"119 merrimac st, boston, ma 02114, usa",Google Verified Location
1140,222 Club,(Opens 6am),222 Hyde St.,Bars/Clubs,,San Francisco,CA,1983,,,,12/5/2021 11:00am,"222 Hyde St., San Francisco, CA",37.782989,-122.415493,"222 hyde st, san francisco, ca 94102, usa",Google Verified Location
4318,227 Club,(WE only - AH*),227 N. Prince St.,Bars/Clubs,"(M),(WE),(AH),(BYOB),(YC),(*)",Lancaster,PA,1983,,,,12/10/2021 4:44pm,"227 N. Prince St., Lancaster, PA",40.0418402,-76.3083211,"227 n prince st, lancaster, pa 17603, usa",Google Verified Location
2405,400 E. Oak,(Breakfast & lunch)(AH - WE),Preston & Oak,Restaurant,"(R),(AH),(WE)",Louisville,KY,1983,checked,NA,,5/3/2022 4:24am,"Preston & Oak, KY",38.233847,-85.748999,unclear_coded_by_hand,Verified Location
1185,641 Club,"(Some W, SM)(Sleazy patio)",641 Stockton,Bars/Clubs,"(W),(SM),(*)",San Jose,CA,1983,,,,12/5/2021 11:00am,"641 Stockton, San Jose, CA",37.3394014,-121.9123982,"641 stockton ave, san jose, ca 95126, usa",Google Verified Location
1576,745 N.E. 18th Ave.,(Guest House),745 N.E. 18th Ave.,Hotel,(H),Ft. Launderdale,FL,1983,,,,12/5/2021 11:00am,"745 N.E. 18th Ave., Ft. Launderdale, FL",26.1337193,-80.1221396,"745 ne 18th ave, fort lauderdale, fl 33304, usa",Google Verified Location
263,900 Cherry Street,,900 Cherry St.,Bars/Clubs,"(*),(D)",Chico,CA,1983,,,,12/5/2021 11:00am,"900 Cherry St., Chico, CA",39.7208288,-121.8415384,"900 cherry st, chico, ca 95928, usa",Google Verified Location
1475,930 Club,(Very M)(Live bands - Punk rock),930 'F' St.,Bars/Clubs,(M),Washington,DC,1983,,,,12/5/2021 11:00am,"930 'F' St., Washington, DC",38.8971358,-77.0253995,"930 f st nw, washington, dc 20004, usa",Google Verified Location
5194,1101 West,(Disco)(Some L),1101 W. Wisconsin Ave.,Bars/Clubs,"(*),(PT),(L),(D)",Appleton,WI,1983,,,,12/8/2021 12:13pm,"1101 W. Wisconsin Ave., Appleton, WI",44.2728309,-88.4226292,"1101 w wisconsin ave, appleton, wi 54914, usa",Google Verified Location
629,1350 North,(Baths),46532 Lankershi Blvd.,Bathhouses,,North Hollywood,CA,1983,,,,12/5/2021 11:00am,"46532 Lankershi Blvd., North Hollywood, CA",34.1923447,-118.3877984,"lankershim blvd, los angeles, ca, usa",Google Verified Location
408,1350 Western World,(Baths),510 W. Anaheim,Bathhouses,(OC),Wilmington,CA,1983,,,,12/5/2021 11:00am,"510 W. Anaheim, Wilmington, CA",33.7794604,-118.2681252,"510 w anaheim st, wilmington, ca 90744, usa",Google Verified Location
2774,1807 House,,54 Commercial St.,Hotel,(H),Provincetown,MA,1983,,,,12/5/2021 11:01am,"54 Commercial St., Provincetown, MA",42.0420498,-70.1938363,"historic district, 54 commercial st, provincetown, ma 02657, usa",Google Verified Location
980,1808 Club,('Wild back room'),1808 Market St.,Bars/Clubs,,San Francisco,CA,1983,,,,12/5/2021 11:00am,"1808 Market St., San Francisco, CA",37.7717755,-122.4240552,"1808 market st, san francisco, ca 94102, usa",Google Verified Location
1889,1888 Club,(WE - only - AH*),1888 Cheshire Bridge Rd. N.E.,Bars/Clubs,"(D),(WE),(AH),(*)",Atlanta,GA,1983,,,,12/10/2021 4:49pm,"1888 Cheshire Bridge Rd. N.E., Atlanta, GA",33.8103797,-84.3613266,"1888 cheshire bridge rd ne, atlanta, ga 30324, usa",Google Verified Location
5111,2024 Tavern,(Good Sundays),2024 Westlake,Bars/Clubs,"(PT),(*)",Seattle,WA,1983,,,,12/5/2021 11:02am,"2024 Westlake, Seattle, WA",47.6161175,-122.3376858,"2024 westlake ave, seattle, wa 98121, usa",Google Verified Location
4859,2306 Club,"(Some SM, FFA, Kinky)(Cell like rooms)",2306 Genessee,Bars/Clubs,"(*),(P),(SM),(FFA)",Houston,TX,1983,,,,12/5/2021 11:02am,"2306 Genessee, Houston, TX",29.7486124,-95.3841806,"2306 genesee st, houston, tx 77006, usa",Google Verified Location
748,5510 Club,,5510 Mission,Bars/Clubs,(PT),Riverside,CA,1983,,,,12/5/2021 11:00am,"5510 Mission, Riverside, CA",33.9806005,-117.3754942,"riverside, ca, usa",Google Verified Location
3380,8300 Block,(Baths)(Cl. Mon & Tue),8300 Central Ave. N.E.,Bathhouses,,Albuquerque,NM,1983,,,,12/5/2021 11:02am,"8300 Central Ave. N.E., Albuquerque, NM",35.0737736,-106.5544598,"8300 central ave ne, albuquerque, nm 87108, usa",Google Verified Location
442,8709 Club Baths,,8709 W. 3rd St.,Bathhouses,"(P),(YC),(*)",Hollywood,CA,1983,,,,12/5/2021 11:00am,"8709 W. 3rd St., Hollywood, CA",34.0737038,-118.3821714,"8709 w 3rd st, los angeles, ca 90048, usa",Google Verified Location
1528,A Adult Book Store,,1915 S. Federal Hwy.,"Book Store,Erotic Shop",,Ft. Launderdale,FL,1983,,,,12/5/2021 11:00am,"1915 S. Federal Hwy., Ft. Launderdale, FL",26.0970558,-80.1369128,"1915 s federal hwy, fort lauderdale, fl 33316, usa",Google Verified Location
839,A Different Drum,(Liquor)(Go go boys),3175 India St.,Bars/Clubs,(*),San Diego,CA,1983,,,,12/5/2021 11:00am,"3175 India St., San Diego, CA",32.736467,-117.174979,"3175 india st, san diego, ca 92103, usa",Google Verified Location
5069,A Different Drummer,(Book store),420 Broadway E.,Book Store,(L),Seattle,WA,1983,,,,12/5/2021 11:02am,"420 Broadway E., Seattle, WA",47.6226349,-122.3205332,"420 broadway e, seattle, wa 98102, usa",Google Verified Location
534,A Different Light,(Books),4014 Santa Monica Blvd.,Book Store,,Los Angeles,CA,1983,,,,12/5/2021 11:00am,"4014 Santa Monica Blvd., Los Angeles, CA",34.0923697,-118.2808932,"4014 santa monica blvd, los angeles, ca 90029, usa",Google Verified Location
914,A Little More,,15th & Potrero,Bars/Clubs,"(L),(D)",San Francisco,CA,1983,checked,NA,,3/6/2022 4:42pm,"15th & Potrero, CA",37.77493,-122.419415,unclear_coded_by_hand,Location could not be verified. General city or location coordinates used.
3990,A Man's World,"(Some SM, C & W)",2402 E. St. Claire Ave,Bars/Clubs,"(*),(SM),(PT),(C&W)",Cleveland,OH,1983,,,,12/5/2021 11:02am,"2402 E. St. Claire Ave, Cleveland, OH",41.5103306,-81.6760557,"2402 st clair ave ne, cleveland, oh 44114, usa",Google Verified Location
594,A Touch of Class,(Liquor),11801 Ventura Blvd.,"Bars/Clubs,Restaurant",(R),Studio City,CA,1983,,,,12/5/2021 11:00am,"11801 Ventura Blvd., Studio City, CA",34.1421776,-118.3891858,"11801 ventura blvd, studio city, ca 91604, usa",Google Verified Location
4640,A Touch of Class,(Hair Salon),3205 S. Western,Business,,Amarillo,TX,1983,,,,12/5/2021 11:02am,"3205 S. Western, Amarillo, TX",35.181187,-101.8835637,"3205 s western st, amarillo, tx 79109, usa",Google Verified Location
920,A Touch of Europe,,422 Haight St.,Restaurant,(R),San Francisco,CA,1983,,,,12/5/2021 11:00am,"422 Haight St., San Francisco, CA",37.7724268,-122.4292973,"422 haight st, san francisco, ca 94117, usa",Google Verified Location
1712,A-1 Models & Escorts,(305) 371-5303,,Escort and Model Services,,Miami,FL,1983,checked,NA,,3/29/2022 7:48am,", FL",25.76168,-80.19179,unclear_coded_by_hand,Location could not be verified. General city or location coordinates used.
2884,A.S.P,(Business Assn.),"P.O. Box 568 Plymouth, MI 48170",Organization,,Plymouth,MI,1983,checked,NA,Listed city is different from address city,5/20/2022 12:56pm,"P.O. Box 568 Plymouth, MI 48170, MI",42.371425,-83.470213,unclear_coded_by_hand,Location could not be verified. General city or location coordinates used.
5640,A.S.U.,(T-Rooms) (Old Gym),,Cruising Areas,Cruisy Area,Tempe,AZ,1983,checked,NA,,2/10/2022 6:55am,", AZ",33.42424,-111.928053,unclear_coded_by_hand,Location could not be verified. General city or location coordinates used.
163,A.S.U.,(Student Union) (T-Rooms),,Cruising Areas,Cruisy Area,Tempe,AZ,1983,checked,NA,,2/10/2022 6:55am,", AZ",33.417703,-111.934353,unclear_coded_by_hand,Verified Location
5641,A.S.U.,(T-Rooms) (Library),,Cruising Areas,Cruisy Area,Tempe,AZ,1983,checked,NA,,2/14/2022 12:19pm,", AZ",33.41999,-111.930687,unclear_coded_by_hand,Verified Location
5070,A1 Duane's Adult Books,,1212 First Ave.,Book Store,,Seattle,WA,1983,,,,12/5/2021 11:02am,"1212 First Ave., Seattle, WA",47.6066132,-122.3376971,"1212 1st ave, seattle, wa 98101, usa",Google Verified Location
3180,AAA Video,(Movie Arcade),1105 E. Commercial,Business,,Springfield,MO,1983,,,,12/5/2021 11:02am,"1105 E. Commercial, Springfield, MO",37.2311453,-93.2765147,"1105 e commercial st, springfield, mo 65803, usa",Google Verified Location
2055,Abbott Hotel,"(Not the Ritz, but OK for a quickie)",721 W. Belmont,Hotel,"(H),(*)",Chicago,IL,1983,,,,12/5/2021 11:01am,"721 W. Belmont, Chicago, IL",41.9398071,-87.6477631,"721 w belmont ave, chicago, il 60657, usa",Google Verified Location
3087,Abby's Irish Rose,,103 S. 10th St.,Bars/Clubs,"(M),(YC),(D),(E)",Oxford,MS,1983,,,,12/5/2021 11:01am,"103 S. 10th St., Oxford, MS",34.3670145,-89.5202756,"103 s 10th st, oxford, ms 38655, usa",Google Verified Location
1288,Acacia Park,,,Cruising Areas,Cruisy Area,Colorado Springs,CO,1983,checked,NA,,3/11/2022 5:20am,", CO",38.837355,-104.822445,unclear_coded_by_hand,Verified Location
419,Academy,(Cabaret),6236 Santa Monica Blvd.,Restaurant,"(R),(S),(*)",Hollywood,CA,1983,,,,12/5/2021 11:00am,"6236 Santa Monica Blvd., Hollywood, CA",34.0907477,-118.3256537,"6236 santa monica blvd, los angeles, ca 90038, usa",Google Verified Location
4799,Academy,(Clothing),2030 Westheimer,Business,,Houston,TX,1983,,,,12/5/2021 11:02am,"2030 Westheimer, Houston, TX",29.74312,-95.4094178,"2030 westheimer rd, houston, tx 77019, usa",Google Verified Location
2056,Accessories,(Gifts & Cards),2911 N. Broadway,Business,,Chicago,IL,1983,,,,12/5/2021 11:01am,"2911 N. Broadway, Chicago, IL",41.9351861,-87.6440462,"2911 n broadway, chicago, il 60657, usa",Google Verified Location
838,Accujac & Video Studio,(714) 239-4439,,Business,,San Diego,CA,1983,checked,NA,,2/28/2022 3:57am,", CA",32.715738,-117.161084,unclear_coded_by_hand,Location could not be verified. General city or location coordinates used.
3148,Acropolis,(Looks promising),235 N. Euclid,Restaurant,(R),St. Louis,MO,1983,,,,12/5/2021 11:02am,"235 N. Euclid, St. Louis, MO",38.6444163,-90.261676,"235 n euclid ave, st. louis, mo 63108, usa",Google Verified Location
3842,"Act I, II, & III Books",(Cruisy*),2137 South Blvd.,"Book Store,Cruising Areas",(*),Charlotte,NC,1983,,,,12/10/2021 4:36pm,"2137 South Blvd., Charlotte, NC",35.2069104,-80.8604813,"2137 south blvd, charlotte, nc 28203, usa",Google Verified Location
3843,"Act I, II, & III Books",(Cruisy*),1413 Central,"Book Store,Cruising Areas",(*),Charlotte,NC,1983,,,,12/10/2021 4:37pm,"1413 Central, Charlotte, NC",35.2207656,-80.8145292,"1413 central ave, charlotte, nc 28205, usa",Google Verified Location
3844,"Act I, II, & III Books",(Cruisy*),12528 E. Independence,"Book Store,Cruising Areas",(*),Charlotte,NC,1983,,,,12/10/2021 4:36pm,"12528 E. Independence, Charlotte, NC",35.103215,-80.682317,"12528 e independence blvd, matthews, nc 28105, usa",Google Verified Location
1289,Act III,(Male movies),3480 W. Colfax,Theatre,,Denver,CO,1983,,,,12/15/2021 4:05pm,"3480 W. Colfax, Denver, CO",39.7401612,-105.0331139,"3480 w colfax ave, denver, co 80204, usa",Google Verified Location
5157,Adam & Eve Adult Ent. Center,,806 1/2 Kanawha Blvd. E.,Erotic Shop,,Charleston,WV,1983,,,,1/7/2022 9:34am,"806 1/2 Kanawha Blvd. E., Charleston, WV",38.3485553,-81.6366575,"806 kanawha blvd e, charleston, wv 25301, usa",Google Verified Location
4336,Adam & Eve Books,,133 S. 13th St.,Book Store,,Philadelphia,PA,1983,,,,12/5/2021 11:02am,"133 S. 13th St., Philadelphia, PA",39.9494551,-75.1617775,"133 s 13th st, philadelphia, pa 19107, usa",Google Verified Location
1849,Adam's Attic,(Unisex),2625 S. Dixie Hwy.,Bars/Clubs,"(YC),(Hip),(D)",West Palm Beach,FL,1983,,,,12/5/2021 11:01am,"2625 S. Dixie Hwy., West Palm Beach, FL",26.6905002,-80.0547342,"2625 s dixie hwy, west palm beach, fl 33401, usa",Google Verified Location
3964,Adam's Rib,(Disco - D - WE - Upstairs)(Sexist L * Guys not welcome) (Clifton),217 Calhoun St.,Bars/Clubs,"(D),(WE),(L),(*)",Cincinnati,OH,1983,,,,12/5/2021 11:02am,"217 Calhoun St., Cincinnati, OH",39.128031,-84.5155149,"217 calhoun st, cincinnati, oh 45219, usa",Google Verified Location
4688,Adams Inn,,4036 Cedar Springs,Bars/Clubs,,Dallas,TX,1983,,,,12/5/2021 11:02am,"4036 Cedar Springs, Dallas, TX",32.8119851,-96.8118142,"4036 cedar springs rd, dallas, tx 75219, usa",Google Verified Location
3936,Adams Street Bar,(Cocktail hour)(Disco),77 N. Adams,Bars/Clubs,(*),Akron,OH,1983,,,,12/5/2021 11:02am,"77 N. Adams, Akron, OH",41.0799241,-81.4980166,"77 n adams st, akron, oh 44304, usa",Google Verified Location
1521,Adj. Back Door,(H - upstairs),615 Main St.,Hotel,"(H),(*)",Daytona Beach,FL,1983,,,,12/5/2021 11:00am,"615 Main St., Daytona Beach, FL",29.226283,-81.010844,"615 main st bridge, daytona beach, fl 32118, usa",Google Verified Location
1527,Admiral's Court,,121 Hendricks Isle,Hotel,"(M),(H)",Ft. Launderdale,FL,1983,,,,12/5/2021 11:00am,"121 Hendricks Isle, Ft. Launderdale, FL",26.1244795,-80.1222923,"121 hendricks isle, fort lauderdale, fl 33301, usa",Google Verified Location
2571,Admiral's Loft Guest House,1/2 mi. N. Tel: (207) 646-5496,Main St.,Hotel,"(H),(*)",Ogunquit,ME,1983,,,,12/5/2021 11:01am,"Main St., Ogunquit, ME",43.2540678,-70.6001928,"main st, ogunquit, me, usa",Google Verified Location
910,Adonis Book Store,,384 Ellis St.,Book Store,(*),San Francisco,CA,1983,,,,12/5/2021 11:00am,"384 Ellis St., San Francisco, CA",37.7851247,-122.4125433,"384 ellis st, san francisco, ca 94102, usa",Google Verified Location
3613,Adonis Cinema,at 50th St.,8th Ave.,Theatre,(*),Midtown,NY,1983,,,,12/5/2021 11:02am,"8th Ave., Midtown, NY",40.7523177,-73.9933607,"8th ave, new york, ny, usa",Google Verified Location
4800,Adonis News,(Cruisy),1407 Richmond,"Cruising Areas,Book Store",,Houston,TX,1983,,,,1/7/2022 9:31am,"1407 Richmond, Houston, TX",29.7341326,-95.3969614,"1407 richmond ave., houston, tx 77006, usa",Google Verified Location
420,Adonis Theatre,,7308 Melrose Ave.,Theatre,,Hollywood,CA,1983,,,,12/13/2021 1:25pm,"7308 Melrose Ave., Hollywood, CA",34.0833055,-118.3490142,"7308 melrose ave, los angeles, ca 90046, usa",Google Verified Location
4337,Adonis Theatre,,2026 Sansom St.,Theatre,,Philadelphia,PA,1983,,,,1/7/2022 9:26am,"2026 Sansom St., Philadelphia, PA",39.9512199,-75.1744883,"2026 sansom st, philadelphia, pa 19103, usa",Google Verified Location
3017,Adonis Theatre,,616 Hennepin Ave.,Theatre,,Minneapolis,MN,1983,,,,1/7/2022 9:14am,"616 Hennepin Ave., Minneapolis, MN",44.978743,-93.2748715,"616 hennepin ave, minneapolis, mn 55403, usa",Google Verified Location
3928,Adult Book & Cinema X,,417 N.P. Ave.,"Book Store,Erotic Shop",,Fargo,NC,1983,,,,1/7/2022 9:23am,"417 N.P. Ave., Fargo, NC",46.876164,-96.7856448,"417 northern pacific ave, fargo, nd 58102, usa",Google Verified Location
1384,Adult Book Center,,70 Washington St.,"Bars/Clubs,Book Store,Erotic Shop",,Middletown,CT,1983,,,,12/5/2021 11:00am,"70 Washington St., Middletown, CT",41.5626977,-72.6503402,"70 washington st, middletown, ct 06457, usa",Google Verified Location
2154,Adult Book Store,,Roosevelt Rd.,"Cruising Areas,Book Store,Erotic Shop",Cruisy Area,Villa Park,IL,1983,checked,NA,,4/14/2022 5:58am,"Roosevelt Rd., IL",41.889752,-87.988954,unclear_coded_by_hand,Location could not be verified. General city or location coordinates used.
2023,Adult Book Store,(Arthur Ave.),716 7th St.,"Book Store,Erotic Shop",,Caldwell,ID,1983,,,,12/5/2021 11:01am,"716 7th St., Caldwell, ID",43.6627031,-116.6941734,"716 s 7th ave, caldwell, id 83605, usa",Google Verified Location
1514,Adult Book Store,('Flicks' & cruisy arcade) White Rose Shopping Center,Cocoa Beach Causeway,"Book Store,Cruising Areas,Erotic Shop",,Cocoa Beach,FL,1983,,,,12/5/2021 11:00am,"Cocoa Beach Causeway, Cocoa Beach, FL",28.3578108,-80.6294229,"w cocoa beach causeway, cocoa beach, fl, usa",Google Verified Location
3197,Adult Book Store,,210 E. Main St.,"Book Store,Erotic Shop,Cruising Areas",,Missoula,MT,1983,,,,12/5/2021 11:02am,"210 E. Main St., Missoula, MT",46.8708774,-113.9922399,"210 e main st, missoula, mt 59802, usa",Google Verified Location
5068,Adult Book Store,,1415 1st Ave.,"Book Store,Erotic Shop",,Seattle,WA,1983,,,,12/5/2021 11:02am,"1415 1st Ave., Seattle, WA",47.6082134,-122.3397797,"1415 1st ave, seattle, wa 98101, usa",Google Verified Location
3191,Adult Book Store,(Cruisy),113 Central Ave.,"Cruising Areas,Book Store,Erotic Shop",,Great Falls,MT,1983,,,,12/5/2021 11:02am,"113 Central Ave., Great Falls, MT",47.505647,-111.3051675,"113 central ave, great falls, mt 59401, usa",Google Verified Location
4939,Adult Book Store,,I-35 & Lake Brazos,"Book Store,Erotic Shop",,Waco,TX,1983,checked,NA,,6/8/2022 10:23am,"I-35 & Lake Brazos, TX",31.549333,-97.146669,unclear_coded_by_hand,Location could not be verified. General city or location coordinates used.
3364,Adult Book Store,,Rte. 31,"Book Store,Cruising Areas,Erotic Shop",Cruisy Area,Phillipsburg,NJ,1983,checked,NA,,5/26/2022 1:10pm,"Rte. 31, NJ",40.69371,-75.190176,unclear_coded_by_hand,Location could not be verified. General city or location coordinates used.
3018,Adult Book Store,,429 Hennepin Ave.,"Erotic Shop,Book Store",(*),Minneapolis,MN,1983,,,,12/5/2021 11:01am,"429 Hennepin Ave., Minneapolis, MN",44.979971,-93.2713809,"429 hennepin ave, minneapolis, mn 55403, usa",Google Verified Location
781,Adult Book Store,(24 hrs.) at Watt,5008 Roseville,"Book Store,Erotic Shop",(M),Sacramento,CA,1983,,,,12/5/2021 11:00am,"5008 Roseville, Sacramento, CA",38.6576424,-121.3823746,"5008 roseville rd, north highlands, ca 95660, usa",Google Verified Location
641,Adult Book Store,,1245 McHenry,"Book Store,Erotic Shop",,Modesto,CA,1983,,,,12/5/2021 11:00am,"1245 McHenry, Modesto, CA",37.6620656,-120.9943249,"1245 mchenry ave, modesto, ca 95350, usa",Google Verified Location
2881,Adult Book Store,,17530 Woodward,"Book Store,Cruising Areas,Erotic Shop",,Detroit,MI,1983,,,,12/5/2021 11:01am,"17530 Woodward, Detroit, MI",42.4200818,-83.1063888,"17530 woodward ave, detroit, mi 48203, usa",Google Verified Location
3904,Adult Book Store,8 mi. N.,I-85,"Cruising Areas,Book Store,Erotic Shop",Cruisy Area,Kannapolis,NC,1983,checked,NA,,6/2/2022 12:46pm,"I-85, NC",35.487361,-80.621734,unclear_coded_by_hand,Location could not be verified. General city or location coordinates used.
3186,Adult Book Store & Arcade,,2702 Minneapolis Ave.,"Book Store,Erotic Shop",(M),Billings,MT,1983,,,,1/7/2022 9:15am,"2702 Minneapolis Ave., Billings, MT",45.7832856,-108.5006904,"billings, mt, usa",Google Verified Location
2018,Adult Book Store & Arcade,(Cruisy),4049 Chinden Blvd.,"Book Store,Cruising Areas,Erotic Shop",,Boise,ID,1983,,,,12/5/2021 11:01am,"4049 Chinden Blvd., Boise, ID",43.6629108,-116.3457172,"4049 w chinden blvd, boise, id 83713, usa",Google Verified Location
1988,Adult Book Stores,,2162 Kalakaua,"Book Store,Erotic Shop",(M),Waikiki,HI,1983,,,,12/5/2021 11:01am,"2162 Kalakaua, Waikiki, HI",21.2807844,-157.8299861,"2162 kalakaua ave, honolulu, hi 96815, usa",Google Verified Location
1987,Adult Book Stores,,2122 Kalakaua,"Book Store,Erotic Shop",(M),Waikiki,HI,1983,,,,12/5/2021 11:01am,"2122 Kalakaua, Waikiki, HI",21.2819429,-157.8303154,"2122 kalakaua ave, honolulu, hi 96815, usa",Google Verified Location
2951,Adult Book Stores,,,"Cruising Areas,Book Store,Erotic Shop",Cruisy Area,Grand Rapids,MI,1983,checked,NA,,5/20/2022 2:36pm,", MI",42.96336,-85.668086,unclear_coded_by_hand,Location could not be verified. General city or location coordinates used.
4024,Adult Books,('Backroom'),Brookpark Rd.,"Cruising Areas,Book Store,Erotic Shop","Cruisy Area,(*)",Cleveland,OH,1983,checked,NA,,6/2/2022 2:56pm,"Brookpark Rd., OH",41.49932,-81.69436,unclear_coded_by_hand,Location could not be verified. General city or location coordinates used.
3208,Adult Books & Cinema X,,951 'O ' St.,"Theatre,Book Store,Erotic Shop",,Lincoln,NE,1983,,,,1/7/2022 9:17am,"951 'O ' St., Lincoln, NE",40.8133624,-96.7073451,"951 o st, lincoln, ne 68508, usa",Google Verified Location
4035,Adult Books & Movies,,12 E. Town St.,"Theatre,Book Store,Erotic Shop",,Columbus,OH,1983,,,,1/7/2022 9:24am,"12 E. Town St., Columbus, OH",39.9591346,-82.9971532,"12 e town st, columbus, oh 43215, usa",Google Verified Location
4077,Adult Bookstores & arcades,known locally as 'filth ' & Ludlow,5th & Ludlow,"Cruising Areas,Book Store,Erotic Shop",Cruisy Area,Dayton,OH,1983,checked,NA,,6/2/2022 3:52pm,"5th & Ludlow, OH",39.75646,-84.192832,unclear_coded_by_hand,Verified Location
3341,Adult Boutique,,Route 1 S.,Erotic Shop,,Highland Park,NJ,1983,,,,1/7/2022 9:17am,"Route 1 S., Highland Park, NJ",40.318007,-74.654444,"us-1, new jersey, usa",Google Verified Location
3337,Adult Boutique,(Cruisy),Rte. 1 South,"Cruising Areas,Erotic Shop",,Edison,NJ,1983,,,,1/7/2022 9:17am,"Rte. 1 South, Edison, NJ",40.505404,-74.3650246,"south 1, blue colt dr, edison, nj 08817, usa",Google Verified Location
4583,Adult Boutique,,3507 Magnolia,Erotic Shop,,Knoxville,TN,1983,,,,1/7/2022 9:29am,"3507 Magnolia, Knoxville, TN",35.9976648,-83.8816529,"3507 e magnolia ave, knoxville, tn 37914, usa",Google Verified Location
2323,Adult Disocunt Books,(Arcade),310 W. 2nd St.,"Book Store,Erotic Shop",,Davenport,IA,1983,,,,1/7/2022 9:36am,"310 W. 2nd St., Davenport, IA",41.5215132,-90.577849,"310 w 2nd st, davenport, ia 52801, usa",Google Verified Location
1423,Adult Entertainment Center,(Books & peeps)(cruisy *) Beaver Valley Shopping Center,5607 Concord Pike,"Book Store,Cruising Areas,Erotic Shop",(*),Wilmington,DE,1983,,,,12/15/2021 12:55pm,"5607 Concord Pike, Wilmington, DE",39.8338322,-75.541565,"5607 concord pike, wilmington, de 19803, usa",Google Verified Location
1812,Adult Entertainment Center,,7338 S. Tamiami Trail,Erotic Shop,,Sarasota,FL,1983,,,,12/5/2021 11:01am,"7338 S. Tamiami Trail, Sarasota, FL",27.2485929,-82.5135205,"7338 s tamiami trail, sarasota, fl 34231, usa",Google Verified Location
3724,Adult Fair Astoria Blvd.,at 90th St. (Jackson Heights),Astoria Blvd.,Erotic Shop,,Queens,NY,1983,,,,1/7/2022 9:21am,"Astoria Blvd., Queens, NY",40.7654021,-73.8890281,"astoria blvd, queens, ny, usa",Google Verified Location
2216,Adult Pleasure Palace,"(Books, 'flicks', peep shows' & cruisy arade)",331 20th St.,"Book Store,Cruising Areas,Erotic Shop",,Rock Island,IL,1983,,,,1/7/2022 9:09am,"331 20th St., Rock Island, IL",41.50908,-90.571566,"331 20th st, rock island, il 61201, usa",Google Verified Location
4272,Adult Scene,"(Books, etc.)",11th & Hamilton,"Book Store,Erotic Shop",,Allentown,PA,1983,checked,NA,,6/4/2022 6:48am,"11th & Hamilton, PA",40.600008,-75.479837,unclear_coded_by_hand,Verified Location
3391,Adult Theatres & Acrades,on Central N .E.,4200 Block,"Cruising Areas,Theatre","(AYOR),Cruisy Area",Albuquerque,NM,1983,checked,NA,,5/26/2022 1:49pm,"4200 Block, NM",35.075459,-106.564133,unclear_coded_by_hand,Location could not be verified. General city or location coordinates used.
3324,Adult Variety Center,,Rt. 1 South,Erotic Shop,,Avenel,NJ,1983,checked,NA,,5/25/2022 2:21pm,"Rt. 1 South, NJ",40.574235,-74.290875,unclear_coded_by_hand,Verified Location
783,Adult World,(Books),5423 Franklin,"Book Store,Erotic Shop",(M),Sacramento,CA,1983,,,,12/5/2021 11:00am,"5423 Franklin, Sacramento, CA",38.5257514,-121.4719299,"5423 franklin blvd, sacramento, ca 95820, usa",Google Verified Location
782,Adult World,(Books),440 W. Capitol,"Book Store,Erotic Shop",(M),Sacramento,CA,1983,,,,12/5/2021 11:00am,"440 W. Capitol, Sacramento, CA",38.5829589,-121.5145895,"440 w capitol ave, west sacramento, ca 95605, usa",Google Verified Location
5158,Adult World Twin Cinema,,1008 Quarrier St.,Theatre,(M),Charleston,WV,1983,,,,1/19/2022 8:52am,"1008 Quarrier St., Charleston, WV",38.3480339,-81.6324797,"1008 quarrier st, charleston, wv 25301, usa",Google Verified Location
1358,Aetna,,267 Farmington,Restaurant,(R),Hartford,CT,1983,,,,12/5/2021 11:00am,"267 Farmington, Hartford, CT",41.7673903,-72.6974775,"267 farmington ave, hartford, ct 06105, usa",Google Verified Location
2600,After Dark,(Disco) at 32nd (Adjoins Office),3128 Greenmount Ave.,Bars/Clubs,"(D),(AH)",Baltimore,MD,1983,,,,12/5/2021 11:01am,"3128 Greenmount Ave., Baltimore, MD",39.3269926,-76.6098382,"3128 greenmount ave, baltimore, md 21218, usa",Google Verified Location
8,After Dark,"(Many L,B) (Disco)(WE*)",117 1/2 N. 21st St.,Bars/Clubs,"(L),(B),(D),(WE),(*)",Birmingham,AL,1983,,,,12/5/2021 11:00am,"117 1/2 N. 21st St., Birmingham, AL",33.5012547,-86.8305107,"1 2nd st n #21st, birmingham, al 35204, usa",Google Verified Location
647,After Dark,(YC)(Disco)(Patio and backlot bar)(This is it!)(New Monterey),214 Lighthouse,Bars/Clubs,"(*),(YC),(D)",Monterey,CA,1983,,,,12/5/2021 11:00am,"214 Lighthouse, Monterey, CA",36.6099643,-121.8983943,"214 lighthouse ave, monterey, ca 93940, usa",Google Verified Location
4773,Agape M.C.C.,(Church) 2336 Hemphill,2336 Hemphill,Religious Institution,(MCC),Ft. Worth,TX,1983,,,,12/5/2021 11:02am,"2336 Hemphill, Ft. Worth, TX",32.7177676,-97.3322456,"2336 hemphill st, fort worth, tx 76110, usa",Google Verified Location
169,AGN,(Publication),"P.O. Box 5002 Tucson, Az 85703",Publication,,Tucson,AZ,1983,checked,NA,,2/14/2022 3:07am,"P.O. Box 5002 Tucson, Az 85703, AZ",32.222607,-110.974711,unclear_coded_by_hand,Location could not be verified. General city or location coordinates used.
3459,"Ah, Sea Guest House",call KY 7-6230,"P.O. Box 128, Cherry Grove, NY 11782",Hotel,(H),Fire Island,NY,1983,checked,NA,,5/30/2022 12:42pm,"P.O. Box 128, Cherry Grove, NY 11782, NY",40.6476,-73.145947,unclear_coded_by_hand,Location could not be verified. General city or location coordinates used.
1859,Air Force,'B.A.' Beach,,Cruising Areas,Cruisy Area,West Palm Beach,FL,1983,checked,NA,,3/31/2022 7:14am,", FL",26.715342,-80.053375,unclear_coded_by_hand,Location could not be verified. General city or location coordinates used.
93,Airbase Newstand,,13722 W. Glendale,Book Store,,Glendale,AZ,1983,,,,12/13/2021 1:19pm,"13722 W. Glendale, Glendale, AZ",33.5373763,-112.3556058,"13722 w glendale ave, luke afb, az 85307, usa",Google Verified Location
2188,Airie Crown Forest Preserve,(Summers),,Cruising Areas,Cruisy Area,La Grange,IL,1983,checked,NA,,4/14/2022 5:34am,", IL",41.768373,-87.87216,unclear_coded_by_hand,Verified Location
3937,Akron Steam & Sauna,at Water,41 S. Case,Bathhouses,,Akron,OH,1983,,,,12/5/2021 11:02am,"41 S. Case, Akron, OH",41.0690428,-81.4887479,"41 s case ave, akron, oh 44305, usa",Google Verified Location
2009,Ala Moana Beach & Park,(Dressing rooms & showers)(Days only),,Cruising Areas,Cruisy Area,Honolulu,HI,1983,checked,NA,,4/13/2022 6:25pm,", HI",21.289969,-157.847657,unclear_coded_by_hand,Verified Location
2010,Ala Moana Hotel,2nd floor T-Room,,"Cruising Areas,Hotel","Cruisy Area,(AYOR)",Honolulu,HI,1983,checked,NA,,4/13/2022 6:24pm,", HI",21.290292,-157.839597,unclear_coded_by_hand,Verified Location
1206,Alameda Plaza,,,Cruising Areas,"Cruisy Area,(AYOR)",Santa Barbara,CA,1983,checked,NA,,3/3/2022 7:32am,", CA",34.428288,-119.705983,unclear_coded_by_hand,Verified Location
912,Alamo Square Saloon,at Fell,600 Fillmore,Bars/Clubs,,San Francisco,CA,1983,,,,12/5/2021 11:00am,"600 Fillmore, San Francisco, CA",37.7750826,-122.4308337,"600 fillmore st, san francisco, ca 94117, usa",Google Verified Location
4565,Alan Gold's,(Disco) (Cl. Tues.) at Lindsay,35 Patten Pkwy.,Bars/Clubs,"(D),(*)",Chattanooga,TN,1983,,,,12/5/2021 11:02am,"35 Patten Pkwy., Chattanooga, TN",35.0461099,-85.3066339,"35 patten pkwy, chattanooga, tn 37402, usa",Google Verified Location
3494,Alex in Wonderland,(Disco) (Back room - 2nd floor) at West,13th St.,Bars/Clubs,"(D),(PT),(*)",Greenwich Village & Chelsea,NY,1983,,,,12/5/2021 11:02am,"13th St., Greenwich Village & Chelsea, NY",40.7383963,-74.0014389,"w 13th st, new york, ny, usa",Google Verified Location
911,Alfie's,"(Disco)(Macho humpy jocks)(Cruisy)(Some W, FFA)",2140 Market,"Bars/Clubs,Cruising Areas","(*),(YC),(D),(W),(FFA)",San Francisco,CA,1983,,,,12/5/2021 11:00am,"2140 Market, San Francisco, CA",37.7671503,-122.4299645,"2140 market st, san francisco, ca 94114, usa",Google Verified Location
238,Alhambra Park,Rald Rd. at Larch nr. tennis courts,,Cruising Areas,Cruisy Area,Alhambra,CA,1983,checked,NA,,2/15/2022 11:48am,", CA",34.097197,-118.146304,unclear_coded_by_hand,Verified Location
725,Alibi East,(Disco)(WE*),225 S. San Antonio,Bars/Clubs,"(D),(PT),(WE),(*)",Pomona,CA,1983,,,,12/10/2021 4:28pm,"225 S. San Antonio, Pomona, CA",34.0577915,-117.7372915,"225 s san antonio ave, pomona, ca 91766, usa",Google Verified Location
66,Alice's,,210 E. 5th Ave.,Restaurant,"(M),(AH),(R),(C)",Anchorage,AK,1983,,,,12/5/2021 11:00am,"210 E. 5th Ave., Anchorage, AK",61.217568,-149.8810305,"210 e 5th ave, anchorage, ak 99501, usa",Google Verified Location
1290,Alicia's,(Mexican R),278 S. Downing,Restaurant,"(M),(R)",Denver,CO,1983,,,,12/5/2021 11:00am,"278 S. Downing, Denver, CO",39.7115264,-104.9732373,"278 s downing st, denver, co 80209, usa",Google Verified Location
1642,Aligator News & Books,,533 Duval St.,Book Store,,Key West,FL,1983,,,,12/5/2021 11:01am,"533 Duval St., Key West, FL",24.5551663,-81.8019604,"533 duval st, key west, fl 33040, usa",Google Verified Location
5115,Alki Beach,,,Cruising Areas,Cruisy Area,Seattle,WA,1983,checked,NA,,6/9/2022 1:22pm,", WA",47.581499,-122.405701,unclear_coded_by_hand,Verified Location
3989,All Adult Books,,3141 W. 25th St.,"Book Store,Erotic Shop",,Cleveland,OH,1983,,,,12/5/2021 11:02am,"3141 W. 25th St., Cleveland, OH",41.468796,-81.699526,"3141 w 25th st, cleveland, oh 44109, usa",Google Verified Location
913,All American Mail Service,(415) 621-7111,"470 Castro St., Suite 207",Business,,San Francisco,CA,1983,,,,12/5/2021 11:00am,"470 Castro St., Suite 207, San Francisco, CA",37.7613089,-122.4352646,"470 castro st #207, san francisco, ca 94114, usa",Google Verified Location
535,All That Chaz,,4306 N. Figueroa,Restaurant,(R),Highland Park,CA,1983,,,,12/5/2021 11:00am,"4306 N. Figueroa, Highland Park, CA",34.0945874,-118.208005,"4306 n figueroa st, los angeles, ca 90065, usa",Google Verified Location
3424,Allen,,43 1/2 Allen,Restaurant,"(R),(M),(YC)",Buffalo,NY,1983,,,,12/5/2021 11:02am,"43 1/2 Allen, Buffalo, NY",42.8995099,-78.8717931,"43 1/2 allen st, buffalo, ny 14202, usa",Google Verified Location
3750,Allen St. Club,(Disco),278 Allen St.,Bars/Clubs,"(*),(L),(D)",Rochester,NY,1983,,,,12/5/2021 11:02am,"278 Allen St., Rochester, NY",43.1567326,-77.6258384,"278 allen st, rochester, ny 14608, usa",Google Verified Location
3443,Allentown area,(Elmwood & Allen),,Cruising Areas,"Cruisy Area,(*)",Buffalo,NY,1983,checked,NA,,5/27/2022 10:53pm,", NY",42.899406,-78.876479,unclear_coded_by_hand,Verified Location
3965,Alley Cat,(Small disco - upstairs) at Gano Alle y,Lodge St.,"Restaurant,Bars/Clubs","(R),(D),(*)",Cincinnati,OH,1983,checked,NA,,6/2/2022 2:31pm,"Lodge St., OH",39.103118,-84.51202,unclear_coded_by_hand,Location could not be verified. General city or location coordinates used.
681,Alligator Grill,,68-572 Hwy. 111,"Restaurant,Bars/Clubs","(M),(R),(C)",Cathedral City,CA,1983,checked,NA,,2/21/2022 3:35am,"68-572 Hwy. 111, CA",33.780539,-116.466804,unclear_coded_by_hand,Location could not be verified. General city or location coordinates used.
739,Alondra Park,,,Cruising Areas,Cruisy Area,Redondo Beach,CA,1983,checked,NA,,2/22/2022 7:58am,", CA",33.882886,-118.339748,unclear_coded_by_hand,Verified Location
2039,Alpine Villa Townhouse,,"Box 456, Ketchum, Id. 83340",Hotel,"(H),(M)",Sun Valley,ID,1983,checked,NA,address states different city than listing in book,4/30/2022 7:21pm,"Box 456, Ketchum, Id. 83340, ID",43.697129,-114.351717,unclear_coded_by_hand,Verified Location
231,Alsop Park,(AYOR-'Fuzz' crackdown),,Cruising Areas,"Cruisy Area,(AYOR)",Little Rock,AR,1983,checked,NA,,2/14/2022 4:23am,", AR",34.762634,-92.315196,unclear_coded_by_hand,Verified Location
915,Alta Plaza,at Clay,2301 Fillmore,"Restaurant,Bars/Clubs","(PE),(R),(E)",San Francisco,CA,1983,,,,12/5/2021 11:00am,"2301 Fillmore, San Francisco, CA",37.7909207,-122.4344365,"2301 fillmore st, san francisco, ca 94115, usa",Google Verified Location
3115,Alternate News,(Publication),"P.O. Box 30097, K.C., MO 64112",Publication,,Kansas City,MO,1983,checked,NA,,6/13/2022 5:03pm,"P.O. Box 30097, K.C., MO 64112, MO",39.099727,-94.578567,unclear_coded_by_hand,Location could not be verified. General city or location coordinates used.
3209,Alternative,(Disco),104 N. 20th St.,Bars/Clubs,"(C&W),(D),(*)",Lincoln,NE,1983,,,,12/5/2021 11:02am,"104 N. 20th St., Lincoln, NE",40.8138832,-96.6920684,"104 n 20th st, lincoln, ne 68503, usa",Google Verified Location
3845,Alternative Lounge,(No booze - juice bar) (Cl. Wed.),1511 Central Ave.,Bars/Clubs,"(P),(D)",Charlotte,NC,1983,,,,12/5/2021 11:02am,"1511 Central Ave., Charlotte, NC",35.2205766,-80.8130259,"1511 central ave, charlotte, nc 28205, usa",Google Verified Location
1189,Alum Rock Park,,,Cruising Areas,Cruisy Area,San Jose,CA,1983,checked,NA,,3/2/2022 6:33pm,", CA",37.396039,-121.801812,unclear_coded_by_hand,Verified Location
4645,Amarillo College - Chemistry Bldg.,(2nd floor) (T-Room) (Chemistry Bldg.),,Cruising Areas,Cruisy Area,Amarillo,TX,1983,checked,NA,,6/7/2022 3:03pm,", TX",35.188794,-101.847966,unclear_coded_by_hand,Verified Location
5183,Amarillo College - Student Union,(T-Room),,Cruising Areas,Cruisy Area,Amarillo,TX,1983,checked,NA,,6/7/2022 3:03pm,", TX",35.188794,-101.847966,unclear_coded_by_hand,Verified Location
4639,Amarillo Gay Alliance,(806) 372-9204,,Organization,,Amarillo,TX,1983,checked,NA,,6/7/2022 3:04pm,", TX",35.221997,-101.831297,unclear_coded_by_hand,Location could not be verified. General city or location coordinates used.
3019,Amazon Book Store,,2607 Hennepin Ave. S.,Book Store,(L),Minneapolis,MN,1983,,,,12/5/2021 11:01am,"2607 Hennepin Ave. S., Minneapolis, MN",44.9551233,-93.2965954,"2607 hennepin ave s, minneapolis, mn 55408, usa",Google Verified Location
1255,Amber Light,(Many L),1314 Potrero Grande,Bars/Clubs,(L),South San Gabriel,CA,1983,,,,12/5/2021 11:00am,"1314 Potrero Grande, South San Gabriel, CA",34.0451636,-118.0992324,"1314 potrero grande dr, rosemead, ca 91770, usa",Google Verified Location
916,Ambush,(Beer & wine)(Cruisy),1351 Harrison,"Bars/Clubs,Cruising Areas","(W),(SM),(FFA),(*)",San Francisco,CA,1983,,,,12/9/2021 6:38pm,"1351 Harrison, San Francisco, CA",37.7718583,-122.4106167,"1351 harrison st, san francisco, ca 94103, usa",Google Verified Location
1613,Ambush Room,(C&W - levi cruise bar),4130 N.W. 6th St.,"Bars/Clubs,Cruising Areas",(C&W),Gainesville,FL,1983,,,,12/5/2021 11:00am,"4130 N.W. 6th St., Gainesville, FL",29.690988,-82.3326206,"4130 nw 6th st, gainesville, fl 32609, usa",Google Verified Location
3400,Amelia's,,222 Central Ave.,Bars/Clubs,"(L),(*)",Albany,NY,1983,,,,12/5/2021 11:02am,"222 Central Ave., Albany, NY",42.6625244,-73.7703318,"222 central ave, albany, ny 12206, usa",Google Verified Location
917,Amelia's,(2 floors)(Disco - Upstairs WWE),647 Valencia,Bars/Clubs,"(*),(L),(D),(WE)",San Francisco,CA,1983,,,,12/5/2021 11:00am,"647 Valencia, San Francisco, CA",37.7625064,-122.4214116,"647 valencia st, san francisco, ca 94110, usa",Google Verified Location
3460,Amelia's,(Snacks),Cherry Grove,Restaurant,(R),Fire Island,NY,1983,checked,NA,,5/30/2022 12:46pm,"Cherry Grove, NY",40.66031,-73.089997,unclear_coded_by_hand,Verified Location
2281,American Legion Park,nr. Library,,Cruising Areas,"Cruisy Area,(AYOR)",Indianapolis,IN,1983,checked,NA,,4/15/2022 5:10am,", IN",39.777298,-86.156793,unclear_coded_by_hand,Verified Location
370,Americana,,210 Atlantic Ave.,"Bars/Clubs,Restaurant","(M),(R),(C),(AH)",Long Beach,CA,1983,,,,12/5/2021 11:00am,"210 Atlantic Ave., Long Beach, CA",33.7695893,-118.1849384,"210 atlantic ave, long beach, ca 90802, usa",Google Verified Location
2882,Amigas Club,(Disco) betw. 7 & 8 Mile Roads,19326 Conant,Bars/Clubs,"(L),(D)",Detroit,MI,1983,,,,12/5/2021 11:01am,"19326 Conant, Detroit, MI",42.4358992,-83.0755435,"19326 conant st, detroit, mi 48234, usa",Google Verified Location
918,Amsterdam Hotel,,749 Taylor St.,Hotel,"(H),(*)",San Francisco,CA,1983,,,,12/5/2021 11:00am,"749 Taylor St., San Francisco, CA",37.7893775,-122.4124163,"749 taylor st, san francisco, ca 94108, usa",Google Verified Location
28,Amtrak & Greyhound Depots,,,Cruising Areas,Cruisy Area,Decatur,AL,1983,checked,NA,,2/4/2022 3:52pm,", AL",34.605925,-86.983342,unclear_coded_by_hand,Location could not be verified. General city or location coordinates used.
