ID,title,description,streetaddress,city,state,amenityfeatures,type,Year,unclearaddress,notes,dateadded,lastmodified,full.address,lon,lat,geoAddress,status
OH001,American Disco,(Some L) (Disco) (2 bars) (Opens 9pm),417 Kenmore at Lakeshore,Akron,OH,"(*),(HIP),(YC),(L),(D)",Bars/Clubs,1980,checked,,2/20/2020 11:43pm,2/21/2020 1:54am,"417 Kenmore at Lakeshore, OH",-81.541485,41.049912,unclear_coded_by_hand,Found
OH002,Club Baths of Akron,,1339 E. Market,Akron,OH,(*),Baths,1980,NA,,2/20/2020 9:43pm,3/28/2020 6:57pm,"1339 E. Market, Akron, OH",-81.479264,41.064209,"1339 e market st, akron, oh 44305, usa",Geocoded
OH003,Hayloft Club,(Some L) ,77 N. Adams,Akron,OH,"(L),(D),(*)",Bars/Clubs,1980,NA,,2/20/2020 9:43pm,3/28/2020 6:57pm,"77 N. Adams, Akron, OH",-81.4980166,41.0799241,"77 n adams st, akron, oh 44304, usa",Geocoded
OH004,L & K,,2727 Manchester Rd.,Akron,OH,"(M),(R),(C),(AH)",Restaurant,1980,NA,,2/20/2020 9:43pm,3/28/2020 6:57pm,"2727 Manchester Rd., Akron, OH",-81.5484585,41.02465,"2727 manchester rd, akron, oh 44319, usa",Geocoded
OH005,Satan's Den,(Use rear door),839 S. Arlington,Akron,OH,"(L),(D)",Bars/Clubs,1980,NA,,2/20/2020 9:43pm,3/28/2020 6:57pm,"839 S. Arlington, Akron, OH",-81.4907543,41.0492523,"839 s arlington st, akron, oh 44306, usa",Geocoded
OH006,Stagecoach Inn,(Disco) (go go boys),259 E. Market St.,Akron,OH,(D),Bars/Clubs,1980,NA,,2/20/2020 9:43pm,3/28/2020 6:57pm,"259 E. Market St., Akron, OH",-81.50933,41.0825232,"259 e market st, akron, oh 44308, usa",Geocoded
OH007,Belden Village Mall,,,Akron,OH,Cruisy Area,Cruising Areas,1980,checked,,2/20/2020 11:43pm,2/21/2020 1:55am,", OH",-81.427799,40.856962,unclear_coded_by_hand,Found
OH008,Big Apple Disco,(Very M),,Akron,OH,"(M),Cruisy Area",Cruising Areas,1980,checked,,2/20/2020 11:43pm,2/21/2020 1:55am,", OH",-81.519005,41.081445,unclear_coded_by_hand,General City Coordinates Used
OH009,Grace Park,,,Akron,OH,Cruisy Area,Cruising Areas,1980,checked,,2/20/2020 11:43pm,2/21/2020 1:55am,", OH",-81.509236,41.084744,unclear_coded_by_hand,Found
OH010,Luv Pub Disco,Chapel Hill Mall,,Akron,OH,Cruisy Area,"Cruising Areas,Bars/Clubs",1980,checked,,2/20/2020 11:43pm,3/13/2020 9:04pm,", OH",-81.467271,41.114346,unclear_coded_by_hand,Found
OH011,Nimisila Park,,,Akron,OH,Cruisy Area,Cruising Areas,1980,checked,,2/20/2020 11:43pm,2/21/2020 1:55am,", OH",-81.357472,40.807722,unclear_coded_by_hand,Found
OH012,Parking Lot,American Hotel,,Akron,OH,Cruisy Area,Cruising Areas,1980,checked,,2/20/2020 11:43pm,2/21/2020 1:55am,", OH",-81.519005,41.081445,unclear_coded_by_hand,General City Coordinates Used
OH013,Quaker Square,,,Akron,OH,Cruisy Area,Cruising Areas,1980,checked,,2/20/2020 11:43pm,2/21/2020 1:55am,", OH",-81.514137,41.080918,unclear_coded_by_hand,Found
OH014,'Rest Stop',on I-77 ('The Playhouse) 10 mi W,,Akron,OH,"(AH),Cruisy Area",Cruising Areas,1980,checked,,2/20/2020 11:43pm,2/21/2020 1:55am,", OH",-81.519005,41.081445,unclear_coded_by_hand,General City Coordinates Used
OH015,Summit Mall,,,Akron,OH,Cruisy Area,Cruising Areas,1980,checked,,2/20/2020 11:43pm,2/21/2020 1:56am,", OH",-81.617352,41.134704,unclear_coded_by_hand,Found
OH016,Bus Station,,,Athens,OH,Cruisy Area,Cruising Areas,1980,checked,,2/20/2020 11:43pm,2/25/2020 10:45pm,", OH",-82.101255,39.32924,unclear_coded_by_hand,General City Coordinates Used
OH017,Ohio U.,Baker Center-2nd floor T-Room,,Athens,OH,Cruisy Area,"Cruising Areas,Organizations",1980,checked,,2/20/2020 11:43pm,3/13/2020 9:06pm,", OH",-82.101389,39.324358,unclear_coded_by_hand,Found
OH018,Swanky's,,,Athens,OH,"Cruisy Area,(M),(HIP)",Cruising Areas,1980,checked,,2/20/2020 11:43pm,2/25/2020 10:45pm,", OH",-82.101255,39.32924,unclear_coded_by_hand,General City Coordinates Used
OH019,Boobie's Why Not Club,(Some L) (Disco) (Snacks),1432 W. Tuscararas,Canton,OH,"(*),(S),(E),(L),(D)",Bars/Clubs,1980,NA,,2/20/2020 9:43pm,3/28/2020 6:57pm,"1432 W. Tuscararas, Canton, OH",-81.3889217,40.8002391,"1432 tuscarawas st w, canton, oh 44702, usa",Geocoded
OH020,Five-Forty Club,,540 Walnut Ave N.E,Canton,OH,"(YC),(D),(PT)",Bars/Clubs,1980,NA,,2/20/2020 9:43pm,3/28/2020 6:57pm,"540 Walnut Ave N.E, Canton, OH",-81.3714645,40.8011468,"540 walnut ave ne, canton, oh 44702, usa",Geocoded
OH021,Palace,,W. Tuscararas,Canton,OH,"(M),(R),(D),(PT),(AH)","Bars/Clubs,Restaurant",1980,checked,,2/20/2020 11:43pm,3/14/2020 10:25am,"W. Tuscararas, OH",-81.378447,40.798947,unclear_coded_by_hand,General City Coordinates Used
OH022,Arboretum Park,,,Canton,OH,Cruisy Area,Cruising Areas,1980,checked,,2/20/2020 11:43pm,3/14/2020 10:22am,", OH",-81.402827,40.839381,unclear_coded_by_hand,Found
OH023,McKinley Tomb,Memorial Park,,Canton,OH,"Cruisy Area,(AYOR)",Cruising Areas,1980,checked,,2/20/2020 11:43pm,3/14/2020 10:22am,", OH",-81.288701,40.791224,unclear_coded_by_hand,Found
OH024,'Rest Stop',"on Hwy 77 N, Betw. Akron & Canton",,Canton,OH,Cruisy Area,Cruising Areas,1980,checked,,2/20/2020 11:43pm,3/14/2020 10:22am,", OH",-81.378447,40.798947,unclear_coded_by_hand,General City Coordinates Used
OH025,'The Block',around Andre's Restaurant on N.W Cleveland-by foot or car,,Canton,OH,Cruisy Area,Cruising Areas,1980,checked,,2/20/2020 11:43pm,3/14/2020 10:22am,", OH",-81.378447,40.798947,unclear_coded_by_hand,General City Coordinates Used
OH026,Adam's Rib ,(Disco-D-WE-Upstairs),217 Calhoun St. ,Cincinnati,OH,"(L),(D),(WE),(*)",Bars/Clubs,1980,NA,,2/20/2020 9:43pm,3/28/2020 6:57pm,"217 Calhoun St. , Cincinnati, OH",-84.5155149,39.128031,"217 calhoun st, cincinnati, oh 45219, usa",Geocoded
OH027,Badland Territory,"(Super complex-many rooms & bars. Some YC,W,SM, Something for everyone) (Cruisy) (Recently remodeled)",419 Plum St.,Cincinnati,OH,"(*),(YC),(W),(SM),(AH),(WE)","Bars/Clubs,Cruising Areas",1980,NA,,2/20/2020 9:43pm,3/28/2020 6:57pm,"419 Plum St., Cincinnati, OH",-84.5178974,39.0999009,"419 plum st, cincinnati, oh 45202, usa",Geocoded
OH028,Golden Lions,(Some L) (Good cocktail hour) ,340 Ludlow,Cincinnati,OH,"(R),(L)","Restaurant,Bars/Clubs",1980,NA,,2/20/2020 9:43pm,3/28/2020 6:57pm,"340 Ludlow, Cincinnati, OH",-84.5210925,39.1439198,"340 ludlow ave, cincinnati, oh 45220, usa",Geocoded
OH029,M.C.C.,,65 E. Hollister,Cincinnati,OH,,Church,1980,NA,,2/20/2020 9:43pm,3/28/2020 6:57pm,"65 E. Hollister, Cincinnati, OH",-84.5101344,39.1253865,"65 e hollister st, cincinnati, oh 45219, usa",Geocoded
OH030,Steak 'n' eggs ,nr Ludlow,3221 Clifton ,Cincinnati,OH,"(M),(R),(C),(AH)",Restaurant,1980,NA,,2/20/2020 9:43pm,3/28/2020 6:57pm,"3221 Clifton , Cincinnati, OH",-84.5194864,39.1406571,"3221 clifton ave, cincinnati, oh 45220, usa",Geocoded
OH031,Y.M.C.A,(4th floor best),1105 Elm St.,Cincinnati,OH,"(M),(H)",Hotels,1980,NA,,2/20/2020 9:43pm,3/28/2020 6:57pm,"1105 Elm St., Cincinnati, OH",-84.5184095,39.1067992,"1105 elm st, cincinnati, oh 45202, usa",Geocoded
OH032,Burnet Woods,,,Cincinnati,OH,Cruisy Area,Cruising Areas,1980,checked,,2/20/2020 11:44pm,2/27/2020 2:10am,", OH",-84.517631,39.1394,unclear_coded_by_hand,Found
OH033,Eden Park,Ohio River Overlook,,Cincinnati,OH,Cruisy Area,Cruising Areas,1980,checked,,2/20/2020 11:44pm,2/27/2020 2:10am,", OH",-84.488329,39.11765,unclear_coded_by_hand,Found
OH034,Empire Theatre,,,Cincinnati,OH,Cruisy Area,"Cruising Areas,Theatre",1980,checked,,2/20/2020 11:44pm,3/13/2020 9:11pm,", OH",-84.516095,39.11255,unclear_coded_by_hand,Found
OH035,Fountain Square,,,Cincinnati,OH,Cruisy Area,Cruising Areas,1980,checked,,2/20/2020 11:44pm,2/27/2020 2:10am,", OH",-84.51245,39.101456,unclear_coded_by_hand,Found
OH036,4th & Main to 5th & Sycamore,,,Cincinnati,OH,Cruisy Area,Cruising Areas,1980,checked,Pin for middle of this block.,2/20/2020 11:44pm,2/27/2020 2:10am,", OH",-84.508729,39.101292,unclear_coded_by_hand,Found
OH037,Mt. Adams,,,Cincinnati,OH,Cruisy Area,Cruising Areas,1980,checked,,2/20/2020 11:44pm,2/27/2020 2:10am,", OH",-84.499109,39.10756,unclear_coded_by_hand,General City Coordinates Used
OH038,Mt. Airy Forest,,,Cincinnati,OH,Cruisy Area,Cruising Areas,1980,checked,,2/20/2020 11:44pm,2/27/2020 2:10am,", OH",-84.570543,39.181276,unclear_coded_by_hand,Found
OH039,Royal Theatre,,,Cincinnati,OH,Cruisy Area,"Cruising Areas,Theatre",1980,checked,,2/20/2020 11:44pm,3/13/2020 9:11pm,", OH",-84.513971,39.103967,unclear_coded_by_hand,Found
OH040,U. of C.-,Teachers College Bldg. T-room,,Cincinnati,OH,Cruisy Area,"Cruising Areas,Organizations",1980,checked,,2/20/2020 11:44pm,3/13/2020 9:12pm,", OH",-84.51495,39.132922,unclear_coded_by_hand,Found
OH041,Bill Jones Leather Shops,(Lakewood),1862 Coventry,Lakewood,OH,,Business,1980,checked,,2/20/2020 11:44pm,2/27/2020 2:10am,"1862 Coventry, OH",-81.821004,41.224837,unclear_coded_by_hand,Found
OH042,Club Steam Baths,(Newly modeled with 'whirlpool'),1448 W. 32nd St. ,Cleveland,OH,,Baths,1980,NA,,2/20/2020 9:44pm,3/28/2020 6:57pm,"1448 W. 32nd St. , Cleveland, OH",-81.71273,41.488465,"1448 w 32nd st, cleveland, oh 44113, usa",Geocoded
OH043,Club Cleveland II,(Baths),1293 W. 9th,Cleveland,OH,"(*),(YC),(P)",Bars/Clubs,1980,NA,,2/20/2020 9:44pm,3/28/2020 6:57pm,"1293 W. 9th, Cleveland, OH",-81.7004539,41.499484,"1293 w 9th st, cleveland, oh 44113, usa",Geocoded
OH044,Exedra,(Disco) ,1762 E. 18th St. ,Cleveland,OH,"(YC),(D),(*)",Bars/Clubs,1980,NA,,2/20/2020 9:44pm,3/28/2020 6:57pm,"1762 E. 18th St. , Cleveland, OH",-81.679799,41.5039881,"1762 e 18th st, cleveland, oh 44114, usa",Geocoded
OH045,Gay Community Center,(216) 621-3380,,Cleveland,OH,,Organizations,1980,checked,,2/20/2020 11:44pm,3/13/2020 8:47pm,", OH",-81.69436,41.49932,unclear_coded_by_hand,General City Coordinates Used
OH046,Godmothers II,,1014 E. 63rd St,Cleveland,OH,"(D),(L)",Bars/Clubs,1980,NA,,2/20/2020 9:44pm,3/28/2020 6:57pm,"1014 E. 63rd St, Cleveland, OH",-81.6477077,41.5250818,"1014 e 63rd st, cleveland, oh 44103, usa",Geocoded
OH047,Hex,,Ohio City,Cleveland,OH,"(M),(R)",Restaurant,1980,checked,,2/20/2020 11:44pm,2/27/2020 2:10am,"Ohio City, OH",-81.69436,41.49932,unclear_coded_by_hand,General City Coordinates Used
OH048,J.J's Disco,(Drags),2402 E. St. Claire Ave,Cleveland,OH,"(D),(RT),(S)",Bars/Clubs,1980,NA,,2/20/2020 9:44pm,3/28/2020 6:57pm,"2402 E. St. Claire Ave, Cleveland, OH",-81.6760557,41.5103306,"2402 st clair ave ne, cleveland, oh 44114, usa",Geocoded
OH049,Knight House Baths,(Looks like a winner),1946 St. Claire Ave.,Cleveland,OH,"(W),(SM),(OC)",Baths,1980,NA,,2/20/2020 9:44pm,3/28/2020 6:57pm,"1946 St. Claire Ave., Cleveland, OH",-81.6803551,41.5084898,"1946 st clair ave ne, cleveland, oh 44114, usa",Geocoded
OH050,Leather Stallion,(Closes 1 am) (Enter thru redwood fence marked 'private'),2203 E. St. Claire Ave,Cleveland,OH,"(SM),(W),(WE),(*)",Bars/Clubs,1980,NA,,2/20/2020 9:44pm,3/28/2020 6:57pm,"2203 E. St. Claire Ave, Cleveland, OH",-81.6642351,41.5167506,"2203 st clair ave., cleveland, oh 44103, usa",Geocoded
OH051,Mad Greek,,Fairmount & Cedar,Cleveland,OH,"(M),(R)",Restaurant,1980,checked,,2/20/2020 11:44pm,2/27/2020 2:10am,"Fairmount & Cedar, OH",-81.592365,41.501081,unclear_coded_by_hand,Found
OH052,Nantucket,(Best at cocktail hour),Cliffton & W. 117 St.,Cleveland,OH,,"Restaurant,Bars/Clubs",1980,checked,,2/20/2020 11:44pm,2/27/2020 2:10am,"Cliffton & W. 117 St., OH",-81.768727,41.487514,unclear_coded_by_hand,Found
OH053,New Dimensions,"(Disco) (Closed Mon. & Tues) (L on ground floor, macho guys upstairs)",1012 Sumner Ave at 9th,Cleveland,OH,"(*),(YC),(D),(S)",Bars/Clubs,1980,checked,,2/20/2020 11:44pm,2/27/2020 2:10am,"1012 Sumner Ave at 9th, OH",-81.683374,41.496527,unclear_coded_by_hand,Found
OH054,New Era Cinema,,1614 Prospect,Cleveland,OH,(M),Theatre,1980,NA,,2/20/2020 9:44pm,3/28/2020 6:57pm,"1614 Prospect, Cleveland, OH",-81.6793893,41.4994564,"1614 prospect ave e, cleveland, oh 44115, usa",Geocoded
OH055,Pickwood Lounge,(Lakewood),11633 Clifton ,Lakewood,OH,"(M),(PE),(OC)",Bars/Clubs,1980,NA,,2/20/2020 9:44pm,3/28/2020 6:57pm,"11633 Clifton , Lakewood, OH",-81.768405,41.4872491,"11633 clifton blvd, cleveland, oh 44102, usa",Geocoded
OH056,R.S.V.P,(Card & Books) Park Center Shopping Mall,1701 E. 12th & University Circle,Cleveland,OH,,Business,1980,checked,,2/20/2020 11:44pm,2/27/2020 2:10am,"1701 E. 12th & University Circle, OH",-81.685118,41.502952,unclear_coded_by_hand,Found
OH057,Shaker Club,(Use rear entrance) (Shaker Heights),2775 S. Moreland,Shaker Heights,OH,,Bars/Clubs,1980,NA,,2/20/2020 9:44pm,3/28/2020 6:57pm,"2775 S. Moreland, Shaker Heights, OH",-81.5901988,41.4828338,"2775 s moreland blvd, cleveland, oh 44120, usa",Geocoded
OH058,Six Twenty Club,(Disco) (No neon sign) (Cruisy) (Men only),620 Frankfort,Cleveland,OH,"(YC),(D),(*)","Bars/Clubs,Cruising Areas",1980,NA,,2/20/2020 9:44pm,3/28/2020 6:57pm,"620 Frankfort, Cleveland, OH",-81.6984483,41.498628,"620 frankfort ave, cleveland, oh 44113, usa",Geocoded
OH059,Traxx,"(Disco) (Some L, M)",1273 W. 9th ,Cleveland,OH,"(D),(YC),(L),(M),(*)",Bars/Clubs,1980,NA,,2/20/2020 9:44pm,3/28/2020 6:57pm,"1273 W. 9th , Cleveland, OH",-81.7006722,41.4996814,"1273 w 9th st, cleveland, oh 44113, usa",Geocoded
OH060,Vault's,(Good Sundays),1281 W. 9th St. ,Cleveland,OH,"(R),(D),(*)",Restaurant,1980,NA,,2/20/2020 9:44pm,3/28/2020 6:57pm,"1281 W. 9th St. , Cleveland, OH",-81.7006401,41.4996306,"1281 w 9th st, cleveland, oh 44113, usa",Geocoded
OH061,Zanzibar,('Drags') ('Hustlers'),1630 Payne Ave. ,Cleveland,OH,"(D),(WE),(*)",Bars/Clubs,1980,NA,,2/20/2020 9:44pm,3/28/2020 6:57pm,"1630 Payne Ave. , Cleveland, OH",-81.6809884,41.5042821,"1630 payne ave, cleveland, oh 44114, usa",Geocoded
OH062,Adult Books,(back room) Brookpark Rd.,,Cleveland,OH,Cruisy Area,"Book Store,Cruising Areas",1980,checked,,2/20/2020 11:44pm,3/13/2020 9:14pm,", OH",-81.69436,41.49932,unclear_coded_by_hand,General City Coordinates Used
OH063,Edgewater Park,,,Cleveland,OH,"Cruisy Area,(AYOR)",Cruising Areas,1980,checked,,2/20/2020 11:44pm,3/13/2020 9:14pm,", OH",-81.735455,41.49029,unclear_coded_by_hand,Found
OH064,Fulton News,('Back room)-Fulton Rd,,Cleveland,OH,Cruisy Area,Cruising Areas,1980,checked,,2/20/2020 11:44pm,3/13/2020 9:14pm,", OH",-81.69436,41.49932,unclear_coded_by_hand,General City Coordinates Used
OH065,Metropolitan Park,Memphis & Tiedman,,Cleveland,OH,Cruisy Area,Cruising Areas,1980,checked,,2/20/2020 11:44pm,3/13/2020 9:14pm,", OH",-81.755613,41.440147,unclear_coded_by_hand,Found
OH066,No. Chagrin Reservation Park,,,Cleveland,OH,"Cruisy Area,(AYOR)",Cruising Areas,1980,checked,,2/20/2020 11:44pm,3/13/2020 9:14pm,", OH",-81.439167,41.57,unclear_coded_by_hand,Found
OH067,Parma Theater,T-Room-Ridge Rd.,,Cleveland,OH,Cruisy Area,"Theatre,Cruising Areas",1980,checked,See http://cinematreasures.org/theaters/3213,2/20/2020 11:44pm,3/13/2020 9:14pm,", OH",-81.734743,41.404268,unclear_coded_by_hand,Found
OH068,'Rest Stop',"on I-71, 20 mi, S",,Cleveland,OH,"Cruisy Area,(WE)",Cruising Areas,1980,checked,,2/20/2020 11:44pm,3/13/2020 9:14pm,", OH",-81.69436,41.49932,unclear_coded_by_hand,General City Coordinates Used
OH069,'Rest Stop',"on I-90, 25. E",,Cleveland,OH,Cruisy Area,Cruising Areas,1980,checked,,2/20/2020 11:44pm,3/13/2020 9:14pm,", OH",-81.69436,41.49932,unclear_coded_by_hand,General City Coordinates Used
OH070,Rocky River Reservation,,,Cleveland,OH,"Cruisy Area,(AYOR)",Cruising Areas,1980,checked,,2/20/2020 11:44pm,3/13/2020 9:14pm,", OH",-81.883491,41.409979,unclear_coded_by_hand,Found
OH071,The Mall,Downtown-Midnight police curfew,,Cleveland,OH,"Cruisy Area,(AYOR)",Cruising Areas,1980,checked,,2/20/2020 11:44pm,3/13/2020 9:14pm,", OH",-81.69395,41.502909,unclear_coded_by_hand,Found
OH072,Adult Book & Movies,,High & Towne,Columbus,OH,,Book Store,1980,checked,,2/20/2020 11:44pm,3/13/2020 8:48pm,"High & Towne, OH",-82.998794,39.961176,unclear_coded_by_hand,General City Coordinates Used
OH073,Changes ,(Disco) (Looks promising) Granville Rd. (at Raintree Center),2463 E. Dublin,Columbus,OH,"(YC),(D)",Bars/Clubs,1980,NA,,2/20/2020 9:44pm,3/28/2020 6:57pm,"2463 E. Dublin, Columbus, OH",-83.1026492,40.0041779,"2463 dublin rd, columbus, oh 43228, usa",Geocoded
OH074,Club Columbus Baths,,1575 E. Livingston,Columbus,OH,"(P),(YC),(*)",Baths,1980,NA,,2/20/2020 9:44pm,3/28/2020 6:57pm,"1575 E. Livingston, Columbus, OH",-82.9555572,39.9488718,"1575 e livingston ave, columbus, oh 43205, usa",Geocoded
OH075,Jack's A Go Go,(L Only) (May be closed),210 Summit St. ,Columbus,OH,(L),Bars/Clubs,1980,NA,,2/20/2020 9:44pm,3/28/2020 6:57pm,"210 Summit St. , Columbus, OH",-83.0008834,40.0037143,"summit st, columbus, oh, usa",Geocoded
OH076,Kismet,(Disco) (Open Sundays),232 N. 3rd,Columbus,OH,"(D),(YC),(PT),(*)",Bars/Clubs,1980,NA,,2/20/2020 9:44pm,3/28/2020 6:57pm,"232 N. 3rd, Columbus, OH",-82.9985039,39.9674042,"232 n 3rd st, columbus, oh 43215, usa",Geocoded
OH077,Olde English Tavern,,3442 Cleveland,Columbus,OH,"(RT),(L)",Bars/Clubs,1980,NA,,2/20/2020 9:44pm,3/28/2020 6:57pm,"3442 Cleveland, Columbus, OH",-82.9610403,40.0383167,"3442 cleveland ave, columbus, oh 43224, usa",Geocoded
OH078,Rudely Elegant ,(Disco) (WE*),1005 W. Broad St.,Columbus,OH,"(YC),(D),(W),(WE),(*)",Bars/Clubs,1980,NA,,2/20/2020 9:44pm,3/28/2020 6:57pm,"1005 W. Broad St., Columbus, OH",-83.0274213,39.9586882,"1005 w broad st, columbus, oh 43222, usa",Geocoded
OH079,Tradewinds II,"(Some W, SM, YC) (Open Sundays) (Cruisy) (Expanding)",117 E. Chestnut,Columbus,OH,"(*),(W),(SM),(YC)","Bars/Clubs,Cruising Areas",1980,NA,,2/20/2020 9:44pm,3/28/2020 6:57pm,"117 E. Chestnut, Columbus, OH",-82.9983244,39.9677824,"117 e chestnut st, columbus, oh 43215, usa",Geocoded
OH080,Twilight,(Some L),2467 Cleveland,Columbus,OH,"(L),(D),(S)",Bars/Clubs,1980,NA,,2/20/2020 9:44pm,3/28/2020 6:57pm,"2467 Cleveland, Columbus, OH",-82.9654039,40.0176601,"2467 cleveland ave, columbus, oh 43211, usa",Geocoded
OH081,Village Grotto,(Cruisy) (Disco) Downstairs-The 'Loft' (We only-Upstairs*),622 S. High St. ,Columbus,OH,"(D),(PT),(SM),(W),(WE),(*)","Bars/Clubs,Cruising Areas",1980,NA,,2/20/2020 9:44pm,3/28/2020 6:57pm,"622 S. High St. , Columbus, OH",-82.997639,39.949418,"622 s high st, columbus, oh 43215, usa",Geocoded
OH082,Park by river,nr. Greenlawn Ave.,,Columbus,OH,Cruisy Area,Cruising Areas,1980,checked,,2/20/2020 11:44pm,2/27/2020 2:10am,", OH",-83.00326,39.938707,unclear_coded_by_hand,Found
OH083,Small park on Nelson Rd.,2 blocks N. of Broad St.,,Columbus,OH,Cruisy Area,Cruising Areas,1980,checked,,2/20/2020 11:44pm,2/27/2020 2:10am,", OH",-82.946403,39.974191,unclear_coded_by_hand,Found
OH084,Towne Cinema,,,Columbus,OH,Cruisy Area,"Cruising Areas,Theatre",1980,checked,,2/20/2020 11:44pm,3/13/2020 9:15pm,", OH",-82.998794,39.961176,unclear_coded_by_hand,General City Coordinates Used
OH085,Vicinity of Greyhound Bus Depot,,,Columbus,OH,Cruisy Area,Cruising Areas,1980,checked,,2/20/2020 11:44pm,2/27/2020 2:10am,", OH",-82.998794,39.961176,unclear_coded_by_hand,General City Coordinates Used
OH086,Whittier St.,'In the woods',,Columbus,OH,"Cruisy Area,(AYOR)",Cruising Areas,1980,checked,,2/20/2020 11:44pm,2/27/2020 2:10am,", OH",-82.998794,39.961176,unclear_coded_by_hand,General City Coordinates Used
OH087,Bando's,,134 N. 2nd St. ,Coshocton,OH,"(M),(YC),(R)",Restaurant,1980,NA,,2/20/2020 9:44pm,3/28/2020 6:57pm,"134 N. 2nd St. , Coshocton, OH",-81.8685737,40.2742251,"134 n 2nd st, coshocton, oh 43812, usa",Geocoded
OH088,Burger Chef,Downtown Plaza,,Coshocton,OH,Cruisy Area,Cruising Areas,1980,checked,,2/20/2020 11:44pm,2/27/2020 2:10am,", OH",-81.859576,40.272015,unclear_coded_by_hand,General City Coordinates Used
OH089,Court Square,,,Coshocton,OH,Cruisy Area,Cruising Areas,1980,checked,,2/20/2020 11:44pm,2/27/2020 2:10am,", OH",-81.865926,40.274331,unclear_coded_by_hand,Found
OH090,Hickory Billiard Parlor,Main St.,,Coshocton,OH,Cruisy Area,"Cruising Areas,Bars/Clubs",1980,checked,,2/20/2020 11:44pm,3/13/2020 9:15pm,", OH",-81.859576,40.272015,unclear_coded_by_hand,General City Coordinates Used
OH091,Near Hotel,Lobby & T-Room,,Coshocton,OH,Cruisy Area,Cruising Areas,1980,checked,,2/20/2020 11:44pm,2/27/2020 2:10am,", OH",-81.859576,40.272015,unclear_coded_by_hand,General City Coordinates Used
OH092,Club Dayton Baths,(Looks promising),6895 N. Dixie Dr.,Dayton,OH,,Baths,1980,NA,,2/20/2020 9:44pm,3/28/2020 6:57pm,"6895 N. Dixie Dr., Dayton, OH",-84.1988924,39.831371,"6895 n dixie dr, dayton, oh 45414, usa",Geocoded
OH093,Denny's,,1136 S. Main,Dayton,OH,"(M),(R),(C),(AH)",Restaurant,1980,NA,,2/20/2020 9:44pm,3/28/2020 6:57pm,"1136 S. Main, Dayton, OH",-84.1866692,39.7419919,"1136 s main st, dayton, oh 45409, usa",Geocoded
OH094,Mail Boxx,(Cruisy game room) (Snacks),401 S. Ludlow,Dayton,OH,"(*),(D),(PT),(E)","Bars/Clubs,Cruising Areas",1980,NA,,2/20/2020 9:44pm,3/28/2020 6:57pm,"401 S. Ludlow, Dayton, OH",-84.192247,39.754338,"401 s ludlow st, dayton, oh 45402, usa",Geocoded
OH095,Martinique,(Tired-don't waste your time),148 Salem Ave,Dayton,OH,,Bars/Clubs,1980,NA,,2/20/2020 9:44pm,3/28/2020 6:57pm,"148 Salem Ave, Dayton, OH",-84.206679,39.763401,"148 salem ave, dayton, oh 45406, usa",Geocoded
OH096,Stage Door,(Friendly downtown bar),44 N. Jefferson,Dayton,OH,"(*),(D)",Bars/Clubs,1980,NA,,2/20/2020 9:44pm,3/28/2020 6:57pm,"44 N. Jefferson, Dayton, OH",-84.190007,39.760934,"44 n jefferson st, dayton, oh 45402, usa",Geocoded
OH097,Studio I,(Disco) (Some L) (WE*),810 N. Main,Dayton,OH,"(D),(L),(WE),(*)",Bars/Clubs,1980,NA,,2/20/2020 9:44pm,3/28/2020 6:57pm,"810 N. Main, Dayton, OH",-84.1957788,39.7715321,"810 n main st, dayton, oh 45405, usa",Geocoded
OH098,Adult Books,(Cruisy Arcade) 5th & Ludlow known locally as 'filth '& Ludlow),,Dayton,OH,Cruisy Area,"Cruising Areas,Book Store",1980,checked,,2/20/2020 11:44pm,3/10/2020 10:46am,", OH",-84.192832,39.75646,unclear_coded_by_hand,Found
OH099,'Cruising the Levee',Take Dixie Dr or Riverside to Helena. The Levee overlooks Island Park,,Dayton,OH,"Cruisy Area,(AYOR)",Cruising Areas,1980,checked,,2/20/2020 11:44pm,2/27/2020 2:10am,", OH",-84.191607,39.758948,unclear_coded_by_hand,General City Coordinates Used
OH100,Discount Book Store,(Movie arcade-cruisy),,Dayton,OH,Cruisy Area,"Cruising Areas,Book Store",1980,checked,,2/20/2020 11:44pm,3/10/2020 10:46am,", OH",-84.191607,39.758948,unclear_coded_by_hand,General City Coordinates Used
OH101,E. 5th St. betw Brown & Wayne,,,Dayton,OH,Cruisy Area,Cruising Areas,1980,checked,Pin halfway between bruce and wayne.,2/20/2020 11:44pm,2/27/2020 2:10am,", OH",-84.183771,39.75714,unclear_coded_by_hand,Found
OH102,Hills & Dales Park,(Kettering) (Sure suicide),,Dayton,OH,"Cruisy Area,(AYOR)",Cruising Areas,1980,checked,,2/20/2020 11:44pm,2/27/2020 2:10am,", OH",-84.187667,39.716281,unclear_coded_by_hand,Found
OH103,'Rest Stop',on I-70 & US 202,,Dayton,OH,Cruisy Area,Cruising Areas,1980,checked,,2/20/2020 11:44pm,2/27/2020 2:10am,", OH",-84.191607,39.758948,unclear_coded_by_hand,General City Coordinates Used
OH104,Sambo's,N. Main,,Dayton,OH,"Cruisy Area,(M),(R),(C),(AH)","Cruising Areas,Restaurant",1980,checked,,2/20/2020 11:44pm,2/27/2020 2:10am,", OH",-84.191607,39.758948,unclear_coded_by_hand,General City Coordinates Used
OH105,The Saloon,,531 W. State,Fremont,OH,,Bars/Clubs,1980,NA,,2/20/2020 9:44pm,3/28/2020 6:57pm,"531 W. State, Fremont, OH",-83.1166896,41.3483883,"531 w state st, fremont, oh 43420, usa",Geocoded
OH106,Marlo's,,14501 Detroit,Lakewood,OH,"(M),(R),(*)",Restaurant,1980,NA,,2/20/2020 9:44pm,3/28/2020 6:57pm,"14501 Detroit, Lakewood, OH",-81.795758,41.4852486,"14501 detroit ave, lakewood, oh 44107, usa",Geocoded
OH107,Baker's,(Must be poor as they haven't paid me for their '78 books 2-10-79),24 Public Square,Lima,OH,(D),Bars/Clubs,1980,checked,,2/20/2020 11:44pm,3/13/2020 8:48pm,"24 Public Square, OH",-84.103919,40.739535,unclear_coded_by_hand,Found
OH108,Faurot Park,,,Lima,OH,Cruisy Area,Cruising Areas,1980,checked,,2/20/2020 11:44pm,2/27/2020 2:10am,", OH",-84.114947,40.736057,unclear_coded_by_hand,General City Coordinates Used
OH109,Lambda Bar,(Disco) (Some L) ,1052 Broadway,Loraine,OH,"(D),(L)",Bars/Clubs,1980,NA,,2/20/2020 9:44pm,3/28/2020 6:57pm,"1052 Broadway, Loraine, OH",-82.1723177,41.4615459,"1052 broadway ave, lorain, oh 44052, usa",Geocoded
OH110,The Place 76 Lounge,(Some L) Elyria-Loraine,Holidy Inn,Loraine,OH,"(M),(L)","Hotels,Bars/Clubs",1980,checked,,2/20/2020 11:44pm,3/13/2020 9:16pm,"Holidy Inn, OH",-82.182375,41.452819,unclear_coded_by_hand,General City Coordinates Used
OH111,Richard's Night Club,(Occ. S) (Disco-WE) (Some L) at Main,15 E. 5th ,Mansfield,OH,"(*),(R),(D),(PT),(S),(WE),(L)","Bars/Clubs,Restaurant",1980,NA,,2/20/2020 9:44pm,3/28/2020 6:57pm,"15 E. 5th , Mansfield, OH",-82.5145808,40.7632454,"15 e 5th st, mansfield, oh 44902, usa",Geocoded
OH112,'Rest Stop',at I-71 & US 30,,Mansfield,OH,Cruisy Area,Cruising Areas,1980,checked,,2/20/2020 11:44pm,3/13/2020 8:49pm,", OH",-82.419918,40.779654,unclear_coded_by_hand,Found
OH113,The Tavern,,729 Mentor Ave. ,Painsville,OH,"(M),(R),(E),(S),(WE),(*)","Restaurant,Bars/Clubs",1980,NA,,2/20/2020 9:44pm,3/28/2020 6:57pm,"729 Mentor Ave. , Painsville, OH",-81.2582878,41.7136141,"729 mentor ave, painesville, oh 44077, usa",Geocoded
OH114,L & K,Inquire Locally,,Piqua,OH,"(M),(R),(C),(AH)",Restaurant,1980,checked,,2/20/2020 11:44pm,2/27/2020 2:10am,", OH",-84.242445,40.144773,unclear_coded_by_hand,General City Coordinates Used
OH115,Water Main,(Disco),202 N. Main,Piqua,OH,"(D),(S),(P),(*)",Bars/Clubs,1980,NA,,2/20/2020 9:44pm,3/28/2020 6:57pm,"202 N. Main, Piqua, OH",-84.2397957,40.1478061,"202 n main st, piqua, oh 45356, usa",Geocoded
OH116,Summit Lodge Resort,"(Pool, sauna, & lounge) Tel:614-385-6823 Rte. 1 R",Rockbridge 43129,Rockbridge,OH,"(P),(H)","Hotels,Bars/Clubs",1980,checked,,2/20/2020 11:44pm,3/13/2020 9:17pm,"Rockbridge 43129, OH",-82.522259,39.579808,unclear_coded_by_hand,General City Coordinates Used
OH117,Keg Room,Inquire Locally,,Sandusky,OH,,Bars/Clubs,1980,checked,,2/20/2020 11:44pm,2/27/2020 2:10am,", OH",-82.711682,41.456175,unclear_coded_by_hand,General City Coordinates Used
OH118,Gaslight Inn,(Liquor) (Some L) (Cl. Sun. ),638 W. Main,Springfield,OH,"(*),(PT),(D),(L)","Bars/Clubs,Hotels",1980,NA,,2/20/2020 9:44pm,3/28/2020 6:57pm,"638 W. Main, Springfield, OH",-83.8225866,39.9256533,"638 w main st, springfield, oh 45504, usa",Geocoded
OH119,Geo. Rogers Clark Park,off Rte. 40,,Springfield,OH,Cruisy Area,Cruising Areas,1980,checked,,2/20/2020 11:44pm,2/27/2020 2:10am,", OH",-83.910122,39.908884,unclear_coded_by_hand,Found
OH120,Snyder Park,off Rte. 40,,Springfield,OH,Cruisy Area,Cruising Areas,1980,checked,,2/20/2020 11:44pm,2/27/2020 2:10am,", OH",-83.839331,39.933708,unclear_coded_by_hand,Found
OH121,David's Lounge,(Some L),160 N. 4th,Steubenville,OH,"(D),(L),(S),(*)",Bars/Clubs,1980,NA,,2/20/2020 9:44pm,3/28/2020 6:57pm,"160 N. 4th, Steubenville, OH",-80.6144266,40.3611109,"160 n 4th st, steubenville, oh 43952, usa",Geocoded
OH122,Steubenville News,,604 Market St. ,Steubenville,OH,(*),Bars/Clubs,1980,NA,,2/20/2020 9:44pm,3/28/2020 6:57pm,"604 Market St. , Steubenville, OH",-80.6179834,40.3605231,"604 market st, steubenville, oh 43952, usa",Geocoded
OH123,Camel Lot Complex,(Disco) (3-1-79: Biz must be bad as they haven't paid me),1710 Madison Ave,Toledo,OH,"(D),(L)",Bars/Clubs,1980,NA,,2/20/2020 9:44pm,3/28/2020 6:57pm,"1710 Madison Ave, Toledo, OH",-83.5465306,41.6571977,"1710 madison ave, toledo, oh 43604, usa",Geocoded
OH124,Club Toledo Baths,(A 'must') ,1122 Monroe St.,Toledo,OH,(YC),Baths,1980,NA,,2/20/2020 9:44pm,3/28/2020 6:57pm,"1122 Monroe St., Toledo, OH",-83.5440581,41.6523623,"1122 monroe st, toledo, oh 43604, usa",Geocoded
OH125,Denny's,Farmer Sack Shopping Plaza,,Toledo,OH,"(M),(R),(C),(AH)",Restaurant,1980,checked,,2/20/2020 11:44pm,2/27/2020 2:10am,", OH",-83.622199,41.614491,unclear_coded_by_hand,Found
OH126,Key West,(Disco),Upton & Berdan,Toledo,OH,"(YC),(D),(*)",Bars/Clubs,1980,checked,,2/20/2020 11:44pm,2/27/2020 2:10am,"Upton & Berdan, OH",-83.589284,41.688552,unclear_coded_by_hand,Found
OH127,Mr. Donovan's Shamrock Bar,(Cl. Sun) at Avondale (Home of Toledo Roadmen M.C.),831 Woodstock ,Toledo,OH,"(P),(SM),(W),(PT)",Bars/Clubs,1980,NA,,2/20/2020 9:44pm,3/28/2020 6:57pm,"831 Woodstock , Toledo, OH",-83.592895,41.649122,"831 woodstock ave, toledo, oh 43607, usa",Geocoded
OH128,M.C.C. ,,513 Magnolia,Toledo,OH,,Church,1980,NA,,2/20/2020 9:44pm,3/28/2020 6:57pm,"513 Magnolia, Toledo, OH",-83.5212537,41.6613717,"513 magnolia st, toledo, oh 43604, usa",Geocoded
OH129,Open Closet,(Cruisy) (Opens 11am) (Disco) (Some levi & W),3330 Secor Rd.,Toledo,OH,"(*),(D),(W)","Bars/Clubs,Cruising Areas",1980,NA,,2/20/2020 9:44pm,3/28/2020 6:57pm,"3330 Secor Rd., Toledo, OH",-83.622158,41.6815742,"3330 secor rd, toledo, oh 43606, usa",Geocoded
OH130,Rustler,(Cruisy),4023 Monroe,Toledo,OH,"(W),(SM),(*)","Bars/Clubs,Cruising Areas",1980,NA,,2/20/2020 9:44pm,3/28/2020 6:57pm,"4023 Monroe, Toledo, OH",-83.5990183,41.6781281,"4023 monroe st, toledo, oh 43606, usa",Geocoded
OH131,San Francisco Sun Baths,(Was closed but recently re-opened),3330 Secor Rd.,Toledo,OH,,Baths,1980,NA,Same address as open Closet,2/20/2020 9:44pm,3/28/2020 6:57pm,"3330 Secor Rd., Toledo, OH",-83.622158,41.6815742,"3330 secor rd, toledo, oh 43606, usa",Geocoded
OH132,Scenic,('Drags'),702 Monroe,Toledo,OH,"(RT),(B),(PT)",Bars/Clubs,1980,NA,,2/20/2020 9:44pm,3/28/2020 6:57pm,"702 Monroe, Toledo, OH",-83.5401317,41.6503614,"702 monroe st, toledo, oh 43604, usa",Geocoded
OH133,Secor News,,3330 Secor Rd.,Toledo,OH,,Bars/Clubs,1980,NA,3rd same address as bath and closet,2/20/2020 9:44pm,3/28/2020 6:57pm,"3330 Secor Rd., Toledo, OH",-83.622158,41.6815742,"3330 secor rd, toledo, oh 43606, usa",Geocoded
OH134,Zipper Bookstore,,725 Monroe,Toledo,OH,(*),Book Store,1980,NA,,2/20/2020 9:44pm,3/28/2020 6:57pm,"725 Monroe, Toledo, OH",-83.541056,41.650335,"725 monroe st, toledo, oh 43604, usa",Geocoded
OH135,Franklin Park Mall,,,Toledo,OH,Cruisy Area,Cruising Areas,1980,checked,,2/20/2020 11:44pm,2/27/2020 2:10am,", OH",-83.640731,41.694547,unclear_coded_by_hand,Found
OH136,Las Vegas Cinema,,,Toledo,OH,Cruisy Area,"Cruising Areas,Theatre",1980,checked,See http://cinematreasures.org/theaters/38395,2/20/2020 11:44pm,2/27/2020 2:10am,", OH",-83.621831,41.68151,unclear_coded_by_hand,Found
OH137,Ontario St.,betw. Washington & Jefferson,,Toledo,OH,Cruisy Area,Cruising Areas,1980,checked,,2/20/2020 11:44pm,2/27/2020 2:10am,", OH",-83.541075,41.650648,unclear_coded_by_hand,Found
OH138,Southwick Mall,T-Room,,Toledo,OH,Cruisy Area,Cruising Areas,1980,checked,See https://en.wikipedia.org/wiki/Southwyck_Mall,2/20/2020 11:44pm,2/27/2020 2:10am,", OH",-83.667966,41.60269,unclear_coded_by_hand,Found
OH139,Ann's Place,"(Some L,OC) ",126 Pine S.E,Warren,OH,"(PT),(L),(OC)",Bars/Clubs,1980,NA,,2/20/2020 9:44pm,3/28/2020 6:57pm,"126 Pine S.E, Warren, OH",-80.8163796,41.2356795,"126 pine ave se, warren, oh 44481, usa",Geocoded
OH140,Courthouse Square,,,Warren,OH,Cruisy Area,Cruising Areas,1980,checked,,2/20/2020 11:44pm,2/27/2020 2:10am,", OH",-80.81892,41.236713,unclear_coded_by_hand,Found
OH141,'Rest Stop',on Rte. 3 s.,,Wooster,OH,Cruisy Area,Cruising Areas,1980,checked,,2/20/2020 11:44pm,2/27/2020 2:10am,", OH",-81.935143,40.805057,unclear_coded_by_hand,General City Coordinates Used
OH142,Book Mark,,17 N. Chestnut,Youngstown,OH,,Book Store,1980,NA,,2/20/2020 9:44pm,3/28/2020 6:57pm,"17 N. Chestnut, Youngstown, OH",-80.6536567,41.1022076,"17 symphony pl, youngstown, oh 44503, usa",Geocoded
OH143,Downtown News,,329 W. Federal,Youngstown,OH,,Bars/Clubs,1980,NA,,2/20/2020 9:44pm,3/28/2020 6:57pm,"329 W. Federal, Youngstown, OH",-80.654809,41.102074,"329 w federal st, youngstown, oh 44503, usa",Geocoded
OH144,Outpost II,(Disco),3143 Mahoning Ave.,Youngstown,OH,"(YC),(D),(*)",Bars/Clubs,1980,NA,,2/20/2020 9:44pm,3/28/2020 6:57pm,"3143 Mahoning Ave., Youngstown, OH",-80.7059997,41.102859,"3143 mahoning ave, youngstown, oh 44509, usa",Geocoded
OH145,Tiger Paw News,,1011 Market St.,Youngstown,OH,(*),Bars/Clubs,1980,NA,,2/20/2020 9:44pm,3/28/2020 6:57pm,"1011 Market St., Youngstown, OH",-80.656366,41.088689,"1011 market st, youngstown, oh 44502, usa",Geocoded
OH146,Troubadour Lounge,"(Disco) (Also Down/Under-basement some SM,W) (Opens 9pm_",2010 Market St.,Youngstown,OH,"(*),(P),(YC),(D),(SM),(W)",Bars/Clubs,1980,NA,,2/20/2020 9:44pm,3/28/2020 6:57pm,"2010 Market St., Youngstown, OH",-80.6573669,41.07999,"2010 market st, youngstown, oh 44507, usa",Geocoded
OH147,Uptown Book Store,,2597 Market St.,Youngstown,OH,,Book Store,1980,NA,,2/20/2020 9:44pm,3/28/2020 6:57pm,"2597 Market St., Youngstown, OH",-80.6569473,41.0735359,"2597 market st, youngstown, oh 44507, usa",Geocoded
OH148,Central Square,downtown,,Youngstown,OH,Cruisy Area,Cruising Areas,1980,checked,,2/20/2020 11:44pm,2/27/2020 2:10am,", OH",-80.649519,41.09978,unclear_coded_by_hand,General City Coordinates Used
OH149,Market Street,,,Youngstown,OH,Cruisy Area,Cruising Areas,1980,checked,,2/20/2020 11:44pm,2/27/2020 2:10am,", OH",-80.649519,41.09978,unclear_coded_by_hand,General City Coordinates Used
OH150,Wick Park,,,Youngstown,OH,Cruisy Area,Cruising Areas,1980,checked,Coordinates for Wick Park neighborhood.,2/20/2020 11:44pm,2/27/2020 2:10am,", OH",-80.646565,41.113529,unclear_coded_by_hand,General City Coordinates Used
OH151,Youngstown College Campus,,,Youngstown,OH,Cruisy Area,"Cruising Areas,Organizations",1980,checked,,2/20/2020 11:44pm,3/10/2020 10:49am,", OH",-80.648146,41.106649,unclear_coded_by_hand,Found
OH152,Akron Steam & Sauna Baths,,1339 E. Market St.,Akron,OH,,Baths,1979,NA,,2/20/2020 9:44pm,3/28/2020 6:57pm,"1339 E. Market St., Akron, OH",-81.479264,41.064209,"1339 e market st, akron, oh 44305, usa",Geocoded
OH153,American Disco,(Some G) (Disco) (2 bars) (Opens 9 p.m) at Lakeshore,417 Kenmore,Akron,OH,"(*),(YC),(G),(D),(HIP)",Bars/Clubs,1979,NA,,2/20/2020 9:44pm,3/28/2020 6:57pm,"417 Kenmore, Akron, OH",-81.541485,41.0499121,"417 kenmore blvd, akron, oh 44301, usa",Geocoded
OH154,Hayloft,(Some G),77 N Adams. ,Akron,OH,"(G),(D),(*)",Bars/Clubs,1979,NA,,2/20/2020 9:44pm,3/28/2020 6:57pm,"77 N Adams. , Akron, OH",-81.4980166,41.0799241,"77 n adams st, akron, oh 44304, usa",Geocoded
OH155,L & K,,2727 Manchester Rd.,Akron,OH,"(M),(R),(C),(AH)",Restaurant,1979,NA,,2/20/2020 9:44pm,3/28/2020 6:57pm,"2727 Manchester Rd., Akron, OH",-81.5484585,41.02465,"2727 manchester rd, akron, oh 44319, usa",Geocoded
OH156,Satan's Den,(Use Rear door),839 S. Arlington,Akron,OH,"(G),(D)",Bars/Clubs,1979,NA,,2/20/2020 9:44pm,3/28/2020 6:57pm,"839 S. Arlington, Akron, OH",-81.4907543,41.0492523,"839 s arlington st, akron, oh 44306, usa",Geocoded
OH157,Stagecoach Inn,(Disco) (go go boys),259 E. Market St.,Akron,OH,"(D),(*)","Bars/Clubs,Hotels",1979,NA,,2/20/2020 9:44pm,3/28/2020 6:57pm,"259 E. Market St., Akron, OH",-81.50933,41.0825232,"259 e market st, akron, oh 44308, usa",Geocoded
OH158,Belden Village Mall,,,Akron,OH,Cruisy Area,Cruising Areas,1979,checked,,2/20/2020 11:44pm,2/27/2020 10:27pm,", OH",-81.427799,40.856962,unclear_coded_by_hand,Found
OH159,Big Apple Disco,(Very M),,Akron,OH,"Cruisy Area,(M)",Cruising Areas,1979,checked,,2/20/2020 11:44pm,2/27/2020 10:27pm,", OH",-81.519005,41.081445,unclear_coded_by_hand,General City Coordinates Used
OH160,Grace Park,,,Akron,OH,Cruisy Area,Cruising Areas,1979,checked,,2/20/2020 11:44pm,2/27/2020 10:27pm,", OH",-81.509236,41.084744,unclear_coded_by_hand,Found
OH161,Luv Pub Disco,Chapel Hill Mall,,Akron,OH,Cruisy Area,Cruising Areas,1979,checked,,2/20/2020 11:44pm,2/27/2020 10:27pm,", OH",-81.467271,41.114346,unclear_coded_by_hand,Found
OH162,Nimisila Park,,,Akron,OH,Cruisy Area,Cruising Areas,1979,checked,,2/20/2020 11:44pm,2/27/2020 10:27pm,", OH",-81.357472,40.807722,unclear_coded_by_hand,Found
OH163,Parking Lot,American Hotel,,Akron,OH,Cruisy Area,Cruising Areas,1979,checked,,2/20/2020 11:44pm,2/27/2020 10:27pm,", OH",-81.519005,41.081445,unclear_coded_by_hand,General City Coordinates Used
OH164,Quaker Store,,,Akron,OH,Cruisy Area,Cruising Areas,1979,checked,,2/20/2020 11:44pm,2/27/2020 10:27pm,", OH",-81.514137,41.080918,unclear_coded_by_hand,Found
OH165,'Rest Stop',on I-77 ('The Playhouse') 10 mi W,,Akron,OH,Cruisy Area,Cruising Areas,1979,checked,,2/20/2020 11:44pm,2/27/2020 10:27pm,", OH",-81.519005,41.081445,unclear_coded_by_hand,General City Coordinates Used
OH166,Summit Mall,,,Akron,OH,Cruisy Area,Cruising Areas,1979,checked,,2/20/2020 11:44pm,2/27/2020 10:27pm,", OH",-81.617352,41.134704,unclear_coded_by_hand,Found
OH167,Smoke Pit,(Disco) at Van Buren,210 Snyder,Barberton,OH,"(YC),(D)",Bars/Clubs,1979,NA,,2/20/2020 9:44pm,3/28/2020 6:57pm,"210 Snyder, Barberton, OH",-81.600986,41.002565,"210 snyder ave, barberton, oh 44203, usa",Geocoded
OH168,Charlie Brown's,,2329 W. Tuscararas,Canton,OH,"(M),(R),(C),(AH)",Restaurant,1979,NA,,2/20/2020 9:44pm,3/28/2020 6:57pm,"2329 W. Tuscararas, Canton, OH",-81.4002939,40.7998228,"2329 tuscarawas st w, canton, oh 44708, usa",Geocoded
OH169,Forty-Five Club,,540 Walnut Ave N. E.,Canton,OH,"(YC),(D),(PT),(*)",Bars/Clubs,1979,NA,,2/20/2020 9:44pm,3/28/2020 6:57pm,"540 Walnut Ave N. E., Canton, OH",-81.3714645,40.8011468,"540 walnut ave ne, canton, oh 44702, usa",Geocoded
OH170,Hal's Corner,(Some G),1432 W. Tuscararas,Canton,OH,"(YC),(D),(S),(G),(*)",Bars/Clubs,1979,NA,,2/20/2020 9:44pm,3/28/2020 6:57pm,"1432 W. Tuscararas, Canton, OH",-81.3889217,40.8002391,"1432 tuscarawas st w, canton, oh 44702, usa",Geocoded
OH171,Holiday Inn Downtown Bar,(Cruisy),800 W. Tuscararas,Canton,OH,(M),"Bars/Clubs,Cruising Areas,Hotels",1979,NA,,2/20/2020 9:44pm,3/28/2020 6:57pm,"800 W. Tuscararas, Canton, OH",-81.3812977,40.7993399,"800 tuscarawas st w, canton, oh 44702, usa",Geocoded
OH172,'Rest Stop',"on Hwy. 77 N, Betw. Akron & Canton",,Canton,OH,Cruisy Area,Cruising Areas,1979,checked,,2/20/2020 11:44pm,3/13/2020 8:49pm,", OH",-81.378447,40.798947,unclear_coded_by_hand,General City Coordinates Used
OH173,Under Construction,(Some 'Hustlers') (Open Sun.),428 Walnut,Cincinnati,OH,,Bars/Clubs,1980,NA,,2/25/2020 8:53pm,3/28/2020 6:57pm,"428 Walnut, Cincinnati, OH",-84.5111157,39.1009336,"428 walnut st, cincinnati, oh 45202, usa",Geocoded
OH174,Euclid Creek Metro. Park,,,Cleveland,OH,"Cruisy Area,(AYOR)",Cruising Areas,1980,checked,,2/25/2020 11:21pm,2/27/2020 2:10am,", OH",-81.543873,41.574422,unclear_coded_by_hand,Found
OH175,'The Block',around Andre's Restaurant on N.W. Cleveland-by foot or car,,Canton,OH,Cruisy Area,Cruising Areas,1979,checked,,2/27/2020 11:55am,3/13/2020 8:49pm,", OH",-81.378447,40.798947,unclear_coded_by_hand,General City Coordinates Used
OH176,Adam's Rib,(Disco-D-WE-Upstairs*),217 Calhoun St.,Cincinnati,OH,"(G),(D),(WE),(*)",Bars/Clubs,1979,NA,,2/27/2020 9:55am,3/28/2020 6:57pm,"217 Calhoun St., Cincinnati, OH",-84.5155149,39.128031,"217 calhoun st, cincinnati, oh 45219, usa",Geocoded
OH177,Badland Territory ,"('Back room' & 'Mother's Lode's have YC-D-Disco on Wed. & We) (Some W, SM)",419 Plum St. ,Cincinnati,OH,"(*),(YC),(D),(WE),(PT),(W),(SM)",Bars/Clubs,1979,NA,,2/27/2020 9:55am,3/28/2020 6:57pm,"419 Plum St. , Cincinnati, OH",-84.5178974,39.0999009,"419 plum st, cincinnati, oh 45202, usa",Geocoded
OH178,Busy Bee,,316 Ludlow,Cincinnati,OH,"(M),(R),(C)",Restaurant,1979,NA,,2/27/2020 9:55am,3/28/2020 6:57pm,"316 Ludlow, Cincinnati, OH",-84.5200335,39.1437656,"316 ludlow ave, cincinnati, oh 45220, usa",Geocoded
OH179,Court House,(HOT),Main & Court Sts.,Cincinnati,OH,"(M),(RT),(R),(AYOR),(*),(HOT)",Restaurant,1979,checked,,2/27/2020 11:55am,3/28/2020 4:13pm,"Main & Court Sts., OH",-84.511041,39.106854,unclear_coded_by_hand,Found
OH180,Darwin's,"(Disco) (Some B,RT,G)",214 W. 4th St.,Cincinnati,OH,"(YC),(D),(B),(RT),(G),(*)",Bars/Clubs,1979,NA,,2/27/2020 9:55am,3/28/2020 6:57pm,"214 W. 4th St., Cincinnati, OH",-84.5165754,39.0995473,"214 w 4th st, cincinnati, oh 45202, usa",Geocoded
OH181,Golden Lion's,(Some G) (Good cocktail hour),340 Ludlow,Cincinnati,OH,"(R),(G)",Restaurant,1979,NA,,2/27/2020 9:55am,3/28/2020 6:57pm,"340 Ludlow, Cincinnati, OH",-84.5210925,39.1439198,"340 ludlow ave, cincinnati, oh 45220, usa",Geocoded
OH182,M.C.C.,,320 Resor Rd.,Cincinnati,OH,,Church,1979,NA,,2/27/2020 9:55am,3/28/2020 6:57pm,"320 Resor Rd., Cincinnati, OH",-84.5199065,39.1479776,"320 resor ave, cincinnati, oh 45220, usa",Geocoded
OH183,P.J.'s,(Disco) (Game room-downstairs) (Upstairs) (Patio) (Sun. buffet & Tea Dance) (Clifton),114 W. McMillan ,Cincinnati,OH,"(YC),(D),(E)",Bars/Clubs,1979,NA,,2/27/2020 9:55am,3/28/2020 6:57pm,"114 W. McMillan , Cincinnati, OH",-84.516296,39.127844,"114 w mcmillan st, cincinnati, oh 45219, usa",Geocoded
OH184,Steak 'n' Eggs,nr. Ludlow,3321 Clifton,Cincinnati,OH,"(M),(R),(C),(AH)",Restaurant,1979,NA,,2/27/2020 9:55am,3/28/2020 6:57pm,"3321 Clifton, Cincinnati, OH",-84.5196507,39.141965,"3321 clifton ave, cincinnati, oh 45220, usa",Geocoded
OH185,UnderConstruction,(Some 'Hustlers') (Best Sun.),428 Walnut,Cincinnati,OH,,Bars/Clubs,1979,NA,,2/27/2020 9:55am,3/28/2020 6:57pm,"428 Walnut, Cincinnati, OH",-84.5111157,39.1009336,"428 walnut st, cincinnati, oh 45202, usa",Geocoded
OH186,Y.M.C.A.,(4th floor best) ,1105 Elm St.,Cincinnati,OH,"(M),(H)",Hotels,1979,NA,,2/27/2020 9:55am,3/28/2020 6:57pm,"1105 Elm St., Cincinnati, OH",-84.5184095,39.1067992,"1105 elm st, cincinnati, oh 45202, usa",Geocoded
OH187,Burnet Woods,,,Cincinnati,OH,Cruisy Area,Cruising Areas,1979,checked,,2/27/2020 11:55am,2/27/2020 10:27pm,", OH",-84.517631,39.1394,unclear_coded_by_hand,Found
OH188,Eden Park,Ohio River Overlook,,Cincinnati,OH,Cruisy Area,Cruising Areas,1979,checked,,2/27/2020 11:55am,2/27/2020 10:27pm,", OH",-84.488329,39.11765,unclear_coded_by_hand,Found
OH189,Empire Theatre,,,Cincinnati,OH,Cruisy Area,"Cruising Areas,Theatre",1979,checked,,2/27/2020 11:55am,3/13/2020 9:20pm,", OH",-84.516095,39.11255,unclear_coded_by_hand,Found
OH190,Fountain Square,,,Cincinnati,OH,Cruisy Area,Cruising Areas,1979,checked,,2/27/2020 11:55am,2/27/2020 10:27pm,", OH",-84.51245,39.101456,unclear_coded_by_hand,Found
OH191,4th & Main to 5th & Sycamore,,,Cincinnati,OH,Cruisy Area,Cruising Areas,1979,checked,Pin for middle of this block.,2/27/2020 11:55am,2/27/2020 10:27pm,", OH",-84.508729,39.101292,unclear_coded_by_hand,Found
OH192,Mt. Adams,,,Cincinnati,OH,Cruisy Area,Cruising Areas,1979,checked,,2/27/2020 11:55am,2/27/2020 10:27pm,", OH",-84.499109,39.10756,unclear_coded_by_hand,General City Coordinates Used
OH193,Mt. Airy Forest,,,Cincinnati,OH,Cruisy Area,Cruising Areas,1979,checked,,2/27/2020 11:55am,2/27/2020 10:27pm,", OH",-84.570543,39.181276,unclear_coded_by_hand,Found
OH194,Royal Theatre,,,Cincinnati,OH,Cruisy Area,"Cruising Areas,Theatre",1979,checked,,2/27/2020 11:55am,3/13/2020 9:20pm,", OH",-84.513971,39.103967,unclear_coded_by_hand,Found
OH195,U. of C.,Teachers College Bld. T-Room,,Cincinnati,OH,Cruisy Area,"Cruising Areas,Organizations",1979,checked,,2/27/2020 11:55am,3/13/2020 9:20pm,", OH",-84.51495,39.132922,unclear_coded_by_hand,Found
OH196,After Midnight,(Juice now-may be adding liquor) (Disco) (Fri. & Sat. only from midnight,Huron &  E. 4th,Cleveland,OH,"(YC),(D)",Bars/Clubs,1979,checked,,2/27/2020 11:55am,2/27/2020 10:27pm,"Huron &  E. 4th, OH",-81.689202,41.497143,unclear_coded_by_hand,Found
OH197,Bill Jones Leather Shop,(Lakewood),1862 Coventry,Lakewood,OH,,Business,1979,checked,,2/27/2020 11:55am,2/27/2020 10:27pm,"1862 Coventry, OH",-81.821004,41.224837,unclear_coded_by_hand,Found
OH198,Boozerie,(Lunch & Sun. brunch) (Looks promising),6010 St. Claire Ave.,Cleveland,OH,(R),Restaurant,1979,NA,,2/27/2020 9:55am,3/28/2020 6:57pm,"6010 St. Claire Ave., Cleveland, OH",-81.649762,41.5229435,"6010 st clair ave., cleveland, oh 44103, usa",Geocoded
OH199,Cleveland Depo Baths,,1946 St. Claire Ave,Cleveland,OH,,Baths,1979,NA,,2/27/2020 9:55am,3/28/2020 6:57pm,"1946 St. Claire Ave, Cleveland, OH",-81.6803551,41.5084898,"1946 st clair ave ne, cleveland, oh 44114, usa",Geocoded
OH200,Club Steam Baths,(Newly remodeled with 'whirlpool'),1448 W. 32nd St.,Cleveland,OH,"(YC),(*)",Baths,1979,NA,,2/27/2020 9:55am,3/28/2020 6:57pm,"1448 W. 32nd St., Cleveland, OH",-81.71273,41.488465,"1448 w 32nd st, cleveland, oh 44113, usa",Geocoded
OH201,Club Cleveland II,(W. 9th St. Baths),1293 W. 9th,Cleveland,OH,(*),Baths,1979,NA,,2/27/2020 9:55am,3/28/2020 6:57pm,"1293 W. 9th, Cleveland, OH",-81.7004539,41.499484,"1293 w 9th st, cleveland, oh 44113, usa",Geocoded
OH202,Coventry Books,(Cleveland Heights),1842 Coventry Rd.,Cleveland Heights,OH,,Book Store,1979,NA,,2/27/2020 9:55am,3/28/2020 6:57pm,"1842 Coventry Rd., Cleveland Heights, OH",-81.5801603,41.5091479,"1842 coventry rd, cleveland heights, oh 44118, usa",Geocoded
OH203,Godmothers II,,1014 E. 63rd St.,Cleveland,OH,"(G),(D),(*)",Bars/Clubs,1979,NA,,2/27/2020 9:55am,3/28/2020 6:57pm,"1014 E. 63rd St., Cleveland, OH",-81.6477077,41.5250818,"1014 e 63rd st, cleveland, oh 44103, usa",Geocoded
OH204,Gypsy's Tiger Den Bar,,2418 E. St. Clair Ave.,Cleveland,OH,"(R),(*)",Restaurant,1979,NA,,2/27/2020 9:55am,3/28/2020 6:57pm,"2418 E. St. Clair Ave., Cleveland, OH",-81.6642686,41.5164265,"2418 st clair ave., cleveland, oh 44103, usa",Geocoded
OH205,J.J's Disco,,2402 E. St. Claire Ave.,Cleveland,OH,(D),Bars/Clubs,1979,NA,,2/27/2020 9:55am,3/28/2020 6:57pm,"2402 E. St. Claire Ave., Cleveland, OH",-81.6760557,41.5103306,"2402 st clair ave ne, cleveland, oh 44114, usa",Geocoded
OH206,Leather Statllion,(WE*) (Closes 1 am) (Enter through redwood fence marked 'private') ,2203 E. St. Claire Ave.,Cleveland,OH,"(SM),(W),(WE),(*)",Business,1979,NA,,2/27/2020 9:55am,3/28/2020 6:57pm,"2203 E. St. Claire Ave., Cleveland, OH",-81.6642351,41.5167506,"2203 st clair ave., cleveland, oh 44103, usa",Geocoded
OH207,Mad Greek,Courtyard-Courtyard level,Coventry Rd. at Euclid Heights,Cleveland,OH,"(M),(R)",Restaurant,1979,checked,,2/27/2020 11:55am,2/27/2020 10:27pm,"Coventry Rd. at Euclid Heights, OH",-81.579975,41.508059,unclear_coded_by_hand,Found
OH208,M.C.C.,(Office),2999 W. 25th St.,Cleveland,OH,,Church,1979,NA,,2/27/2020 9:55am,3/28/2020 6:57pm,"2999 W. 25th St., Cleveland, OH",-81.699237,41.471215,"2999 w 25th st, cleveland, oh 44113, usa",Geocoded
OH209,Nantucket,(Best Sun.),Clifton & W. 117th St.,Cleveland,OH,(M),Bars/Clubs,1979,checked,,2/27/2020 11:55am,2/27/2020 10:27pm,"Clifton & W. 117th St., OH",-81.768727,41.487514,unclear_coded_by_hand,Found
OH210,New Dimensions,(Disco) (Closed Mon. & Tues.) at 9th,1012 Sumner Ave.,Cleveland,OH,"(YC),(D),(S)",Bars/Clubs,1979,NA,,2/27/2020 9:55am,3/28/2020 6:57pm,"1012 Sumner Ave., Cleveland, OH",-81.682425,41.49676,"1012 sumner ave, cleveland, oh 44115, usa",Geocoded
OH211,New Era Cinema,,1614 Prospect,Cleveland,OH,(M),Theatre,1979,NA,,2/27/2020 9:55am,3/28/2020 6:57pm,"1614 Prospect, Cleveland, OH",-81.6793893,41.4994564,"1614 prospect ave e, cleveland, oh 44115, usa",Geocoded
OH212,Picklewood Lounge,(Lakewood),11633 Clifton,Lakewood,OH,"(M),(PE),(OC)",Bars/Clubs,1979,NA,,2/27/2020 9:55am,3/28/2020 6:57pm,"11633 Clifton, Lakewood, OH",-81.768405,41.4872491,"11633 clifton blvd, cleveland, oh 44102, usa",Geocoded
OH213,Rainbow,(Some G),2211 E. 9th St.,Cleveland,OH,"(B),(RT),(D),(G)",Bars/Clubs,1979,NA,,2/27/2020 9:55am,3/28/2020 6:57pm,"2211 E. 9th St., Cleveland, OH",-81.6841951,41.4979325,"2211 e 9th st, cleveland, oh 44115, usa",Geocoded
OH214,R.S.V.P.,(Cards & books) Park Center Shopping Mall,1701 E. 12th & University Circle,Cleveland,OH,,Book Store,1979,checked,,2/27/2020 11:55am,2/27/2020 10:27pm,"1701 E. 12th & University Circle, OH",-81.685118,41.502952,unclear_coded_by_hand,Found
OH215,Shaker Club,(Disco-D-Downstairs) (Adding R) (Use rear entrance) (Shaker Heights),2775 So. Moreland,Shaker Heights,OH,"(*),(D),(R)",Bars/Clubs,1979,NA,,2/27/2020 9:55am,3/28/2020 6:57pm,"2775 So. Moreland, Shaker Heights, OH",-81.5901988,41.4828338,"2775 s moreland blvd, cleveland, oh 44120, usa",Geocoded
OH216,Six Twenty Club,"(No neon sign) (Disco) (betw, 6th & 9th Sts. W)",620 Frankfort,Cleveland,OH,"(YC),(D),(*)",Bars/Clubs,1979,NA,,2/27/2020 9:55am,3/28/2020 6:57pm,"620 Frankfort, Cleveland, OH",-81.6984483,41.498628,"620 frankfort ave, cleveland, oh 44113, usa",Geocoded
OH217,Traxx,(Disco) (Cruisy) (May be adding roof garden like old location),1237 W. 9th,Cleveland,OH,"(*),(D)","Bars/Clubs,Cruising Areas",1979,NA,,2/27/2020 9:55am,3/28/2020 6:57pm,"1237 W. 9th, Cleveland, OH",-81.7010751,41.5001669,"1237 w 9th st, cleveland, oh 44113, usa",Geocoded
OH218,McKinley Tomb,Memorial Park,,Canton,OH,"Cruisy Area,(AYOR)",Cruising Areas,1979,checked,,2/27/2020 12:01pm,3/13/2020 8:49pm,", OH",-81.288701,40.791224,unclear_coded_by_hand,Found
OH219,Twiggy's Place,(Some G) (18 & older) (Disco),2537 E. St Claire Ave.,Cleveland,OH,"(HIP),(YC),(G),(D)",Bars/Clubs,1979,NA,,2/27/2020 12:27pm,3/28/2020 6:57pm,"2537 E. St Claire Ave., Cleveland, OH",-81.6751595,41.5117279,"2537 st clair ave ne, cleveland, oh 44114, usa",Geocoded
OH220,Vault's,(Good Sundays),1281 W. 9th St.,Cleveland,OH,"(R),(D),(*)",Restaurant,1979,NA,,2/27/2020 12:34pm,3/28/2020 6:57pm,"1281 W. 9th St., Cleveland, OH",-81.7006401,41.4996306,"1281 w 9th st, cleveland, oh 44113, usa",Geocoded
OH221,Zanzibar,(go go boys) ('Drags),1630 Payne Ave.,Cleveland,OH,(D),Bars/Clubs,1979,NA,,2/27/2020 12:34pm,3/28/2020 6:57pm,"1630 Payne Ave., Cleveland, OH",-81.6809884,41.5042821,"1630 payne ave, cleveland, oh 44114, usa",Geocoded
OH222,Edgewater Park,(HOT),,Cleveland,OH,"Cruisy Area,(HOT)",Cruising Areas,1979,checked,,2/27/2020 2:34pm,3/28/2020 4:13pm,", OH",-81.735455,41.49029,unclear_coded_by_hand,Found
OH223,Euclid Creek Metro. Park,(HOT),,Cleveland,OH,"Cruisy Area,(HOT)",Cruising Areas,1979,checked,,2/27/2020 2:34pm,3/28/2020 4:13pm,", OH",-81.543873,41.574422,unclear_coded_by_hand,Found
OH224,No. Chagrin Reservation Park,(HOT),,Cleveland,OH,"Cruisy Area,(HOT)",Cruising Areas,1979,checked,,2/27/2020 2:34pm,3/28/2020 4:13pm,", OH",-81.439167,41.57,unclear_coded_by_hand,Found
OH225,'Rest Stop',"on I-71, 20 mi, So.",,Cleveland,OH,"Cruisy Area,(WE),(*)",Cruising Areas,1979,checked,,2/27/2020 2:34pm,2/27/2020 10:27pm,", OH",-81.69436,41.49932,unclear_coded_by_hand,General City Coordinates Used
OH226,'Rest Stop',on I-90. 25 mi. E,,Cleveland,OH,Cruisy Area,Cruising Areas,1979,checked,,2/27/2020 2:34pm,2/27/2020 10:27pm,", OH",-81.69436,41.49932,unclear_coded_by_hand,General City Coordinates Used
OH227,Rocky River Reservations,(HOT),,Cleveland,OH,"Cruisy Area,(HOT)",Cruising Areas,1979,checked,,2/27/2020 2:34pm,3/28/2020 4:13pm,", OH",-81.883491,41.409979,unclear_coded_by_hand,Found
OH228,The Mall,Downtown-(Hot) Midnight police curfew,,Cleveland,OH,"Cruisy Area,(HOT)",Cruising Areas,1979,checked,,2/27/2020 2:34pm,3/28/2020 4:13pm,", OH",-81.69395,41.502909,unclear_coded_by_hand,Found
OH229,Adult Books & Movies,,High & Towne,Columbus,OH,,Book Store,1979,checked,,2/27/2020 2:34pm,2/27/2020 10:27pm,"High & Towne, OH",-82.998794,39.961176,unclear_coded_by_hand,General City Coordinates Used
OH230,Club Columbus Baths,,1575 E. Livingston,Columbus,OH,"(P),(YC),(*)",Baths,1979,NA,,2/27/2020 12:34pm,3/28/2020 6:57pm,"1575 E. Livingston, Columbus, OH",-82.9555572,39.9488718,"1575 e livingston ave, columbus, oh 43205, usa",Geocoded
OH231,Exchange,(Leather Shop),119 E. Chestnut,Columbus,OH,,Business,1979,NA,,2/27/2020 12:34pm,3/28/2020 6:57pm,"119 E. Chestnut, Columbus, OH",-82.998312,39.967744,"119 e chestnut st, columbus, oh 43215, usa",Geocoded
OH232,Jack's A Go Go,(G only) (They may have closed-Amen!) ,2210 Summit St.,Columbus,OH,(G),Bars/Clubs,1979,NA,,2/27/2020 12:34pm,3/28/2020 6:57pm,"2210 Summit St., Columbus, OH",-83.0002345,40.0085426,"2210 summit st, columbus, oh 43201, usa",Geocoded
OH233,Kismet,(Recently remodeled-'in' Disco-D for the YC) (Beer only),232 N. 3rd,Columbus,OH,"(*),(YC),(PT)",Bars/Clubs,1979,NA,,2/27/2020 12:34pm,3/28/2020 6:57pm,"232 N. 3rd, Columbus, OH",-82.9985039,39.9674042,"232 n 3rd st, columbus, oh 43215, usa",Geocoded
OH234,Olde English Tavern,,3442 Cleveland,Columbus,OH,"(RT),(G)",Bars/Clubs,1979,NA,,2/27/2020 12:34pm,3/28/2020 6:57pm,"3442 Cleveland, Columbus, OH",-82.9610403,40.0383167,"3442 cleveland ave, columbus, oh 43224, usa",Geocoded
OH235,Rudely Elegant,"(Did not open as scheduled last year, but should have by now)",1005 W. Broad St.,Columbus,OH,"(YC),(D)",Bars/Clubs,1979,NA,,2/27/2020 12:34pm,3/28/2020 6:57pm,"1005 W. Broad St., Columbus, OH",-83.0274213,39.9586882,"1005 w broad st, columbus, oh 43222, usa",Geocoded
OH236,Smitty,,76 Town St.,Columbus,OH,"(M),(R),(C),(AH)",Bars/Clubs,1979,NA,,2/27/2020 12:34pm,3/28/2020 6:57pm,"76 Town St., Columbus, OH",-82.996493,39.9592096,"76 e town st, columbus, oh 43215, usa",Geocoded
OH237,Tradewinds II,"Some W,SM,YC)",117 E. Chestnut,Columbus,OH,"(*),(W),(SM),(YC)",Bars/Clubs,1979,NA,,2/27/2020 12:34pm,3/28/2020 6:57pm,"117 E. Chestnut, Columbus, OH",-82.9983244,39.9677824,"117 e chestnut st, columbus, oh 43215, usa",Geocoded
OH238,Ty's,(Disco) (Some G) (Somewhat 'off' but should 'pick up' again) (Enter thru rear on Pearl St. ,242 S. High St.,Columbus,OH,"(D),(G)",Bars/Clubs,1979,NA,,2/27/2020 12:34pm,3/28/2020 6:57pm,"242 S. High St., Columbus, OH",-82.9996095,39.9567925,"242 s high st, columbus, oh 43215, usa",Geocoded
OH239,Village Grotto,(Cruisy) (Disco) Downstairs-The 'Loft' (WE only) Upstairs,622 S. High St.,Columbus,OH,"(D),(PT),(SM),(W),(WE),(*)","Bars/Clubs,Cruising Areas",1979,NA,,2/27/2020 12:34pm,3/28/2020 6:57pm,"622 S. High St., Columbus, OH",-82.997639,39.949418,"622 s high st, columbus, oh 43215, usa",Geocoded
OH240,Small park on Nelson Rd.,2 blocks N. of Broad St.,,Columbus,OH,Cruisy Area,Cruising Areas,1979,checked,,2/27/2020 2:34pm,2/27/2020 10:27pm,", OH",-82.946403,39.974191,unclear_coded_by_hand,Found
OH241,Towne Cinema,,,Columbus,OH,Cruisy Area,"Cruising Areas,Theatre",1979,checked,,2/27/2020 2:34pm,3/13/2020 9:21pm,", OH",-82.998794,39.961176,unclear_coded_by_hand,General City Coordinates Used
OH242,Vicinity of Greyhound Depot,,,Columbus,OH,Cruisy Area,Cruising Areas,1979,checked,,2/27/2020 2:34pm,2/27/2020 10:27pm,", OH",-82.998794,39.961176,unclear_coded_by_hand,General City Coordinates Used
OH243,Whittier St.,'In the woods' (HOT),,Columbus,OH,"Cruisy Area,(AYOR),(HOT)",Cruising Areas,1979,checked,,2/27/2020 2:34pm,3/28/2020 4:13pm,", OH",-82.998794,39.961176,unclear_coded_by_hand,General City Coordinates Used
OH244,Bando's,,134 N. 2nd St.,Coshocton,OH,"(M),(YC),(R)",Restaurant,1979,NA,,2/27/2020 12:34pm,3/28/2020 6:57pm,"134 N. 2nd St., Coshocton, OH",-81.8685737,40.2742251,"134 n 2nd st, coshocton, oh 43812, usa",Geocoded
OH245,Funny Page,,502 Main St.,Coshocton,OH,"(M),(YC),(WE),(*)",Bars/Clubs,1979,NA,,2/27/2020 12:34pm,3/28/2020 6:57pm,"502 Main St., Coshocton, OH",-81.8631998,40.2737943,"502 main st, coshocton, oh 43812, usa",Geocoded
OH246,Burger Cheg,Downtown Plaza,,Coshocton,OH,Cruisy Area,"Cruising Areas,Restaurant",1979,checked,,2/27/2020 2:34pm,3/13/2020 9:22pm,", OH",-81.859576,40.272015,unclear_coded_by_hand,General City Coordinates Used
OH247,Court Square,,,Coshocton,OH,Cruisy Area,"Cruising Areas,Bars/Clubs",1979,checked,,2/27/2020 2:34pm,3/13/2020 9:22pm,", OH",-81.865926,40.274331,unclear_coded_by_hand,Found
OH248,Hickory Billiard Parlor,Main St.,,Coshocton,OH,Cruisy Area,Cruising Areas,1979,checked,,2/27/2020 2:34pm,2/27/2020 10:27pm,", OH",-81.859576,40.272015,unclear_coded_by_hand,General City Coordinates Used
OH249,Near Hotel,Lobby & T-Room,,Coshocton,OH,Cruisy Area,"Cruising Areas,Hotels",1979,checked,,2/27/2020 2:34pm,3/13/2020 9:22pm,", OH",-81.859576,40.272015,unclear_coded_by_hand,General City Coordinates Used
OH250,Denny's,,1136 S. Main,Dayton,OH,"(M),(R),(AH),(C)",Restaurant,1979,NA,,2/27/2020 12:34pm,3/28/2020 6:57pm,"1136 S. Main, Dayton, OH",-84.1866692,39.7419919,"1136 s main st, dayton, oh 45409, usa",Geocoded
OH251,Mail Boxx,(Cruisy game room) (Snacks),401 S. Ludlow,Dayton,OH,"(D),(PT),(*),(E)","Bars/Clubs,Cruising Areas",1979,NA,,2/27/2020 12:34pm,3/28/2020 6:57pm,"401 S. Ludlow, Dayton, OH",-84.192247,39.754338,"401 s ludlow st, dayton, oh 45402, usa",Geocoded
OH252,Martinique,(Tired-don't waste your time),148 Salem Ave.,Dayton,OH,,Bars/Clubs,1979,NA,,2/27/2020 12:34pm,3/28/2020 6:57pm,"148 Salem Ave., Dayton, OH",-84.206679,39.763401,"148 salem ave, dayton, oh 45406, usa",Geocoded
OH253,New Jimmy's,"(Disco) (Still not open, but may succeed)",35 W. 5th,Dayton,OH,"(YC),(D)",Bars/Clubs,1979,NA,,2/27/2020 12:34pm,3/28/2020 6:57pm,"35 W. 5th, Dayton, OH",-84.1918893,39.7569892,"35 w 5th st, dayton, oh 45402, usa",Geocoded
OH254,Stage Door,(Friendly downtown bar),44 N. Jefferson,Dayton,OH,"(D),(*)",Bars/Clubs,1979,NA,,2/27/2020 12:34pm,3/28/2020 6:57pm,"44 N. Jefferson, Dayton, OH",-84.190007,39.760934,"44 n jefferson st, dayton, oh 45402, usa",Geocoded
OH255,Studio I,(Disco) (Some G) (WE*),810 N. Main ,Dayton,OH,"(D),(G),(WE),(*)",Bars/Clubs,1979,NA,,2/27/2020 12:34pm,3/28/2020 6:57pm,"810 N. Main , Dayton, OH",-84.1957788,39.7715321,"810 n main st, dayton, oh 45405, usa",Geocoded
OH256,'Cruising the Levee',Take Dixie Dr. or Riverside to Helena. The Levee overlooks Island Park,,Dayton,OH,"Cruisy Area,(AYOR)",Cruising Areas,1979,checked,,2/27/2020 2:34pm,3/13/2020 8:50pm,", OH",-84.191607,39.758948,unclear_coded_by_hand,General City Coordinates Used
OH257,Discount Book Store,,,Dayton,OH,Cruisy Area,"Cruising Areas,Book Store",1979,checked,,2/27/2020 2:34pm,3/13/2020 8:50pm,", OH",-84.191607,39.758948,unclear_coded_by_hand,General City Coordinates Used
OH258,Hills & Dales Park,(Kettering) (HOT) (Sure suicide),,Dayton,OH,"Cruisy Area,(AYOR),(HOT)",Cruising Areas,1979,checked,,2/27/2020 2:34pm,3/28/2020 4:13pm,", OH",-84.187667,39.716281,unclear_coded_by_hand,Found
OH259,The Saloon,,531 W. State,Fremont,OH,,Bars/Clubs,1979,NA,,2/27/2020 12:34pm,3/28/2020 6:57pm,"531 W. State, Fremont, OH",-83.1166896,41.3483883,"531 w state st, fremont, oh 43420, usa",Geocoded
OH260,Chez Jay,(Many G) Inquire Locally,,Hamilton,OH,(G),Bars/Clubs,1979,checked,,2/27/2020 9:41pm,2/27/2020 10:27pm,", OH",-84.561335,39.399501,unclear_coded_by_hand,Found
OH261,Lakewood News,,11800 Detroit Ave.,Lakewood,OH,,Bars/Clubs,1979,NA,,2/27/2020 7:41pm,3/28/2020 6:57pm,"11800 Detroit Ave., Lakewood, OH",-81.7705755,41.4838987,"11800 detroit ave, lakewood, oh 44107, usa",Geocoded
OH262,Baker's,,24 Public Square,Lima,OH,(D),Bars/Clubs,1979,NA,,2/27/2020 7:41pm,3/28/2020 6:57pm,"24 Public Square, Lima, OH",-84.1054181,40.7396418,"24 town square, lima, oh 45801, usa",Geocoded
OH263,Faurot Park,,,Lima,OH,Cruisy Area,Cruising Areas,1979,checked,,2/27/2020 9:41pm,2/27/2020 10:27pm,", OH",-84.114947,40.736057,unclear_coded_by_hand,General City Coordinates Used
OH264,Buck's Tavern,,1052 Broadway,Loraine,OH,,Bars/Clubs,1979,NA,,2/27/2020 7:41pm,3/28/2020 6:57pm,"1052 Broadway, Loraine, OH",-82.1723177,41.4615459,"1052 broadway ave, lorain, oh 44052, usa",Geocoded
OH265,Holiday Inn Bar,,I-71 at US 30,Mansfield,OH,(M),"Bars/Clubs,Hotels",1979,checked,,2/27/2020 9:41pm,3/13/2020 9:23pm,"I-71 at US 30, OH",-82.515447,40.75839,unclear_coded_by_hand,General City Coordinates Used
OH266,Richard's Night Club,(Occ. S) (Some G),15 E. 5th Main,Mansfield,OH,"(*),(R),(D),(PT),(S),(G)","Restaurant,Bars/Clubs",1979,NA,,2/27/2020 7:41pm,3/28/2020 6:57pm,"15 E. 5th Main, Mansfield, OH",-82.5145808,40.7632454,"15 e 5th st, mansfield, oh 44902, usa",Geocoded
OH267,'Rest Stop',at I-71 & US 30,,Mansfield,OH,Cruisy Area,Cruising Areas,1979,checked,,2/27/2020 9:41pm,2/27/2020 10:27pm,", OH",-82.419918,40.779654,unclear_coded_by_hand,Found
OH268,The Tavern,,792 Mentor Ave.,Painsville,OH,"(M),(R),(E),(S),(WE),(*)",Bars/Clubs,1979,NA,,2/27/2020 7:41pm,3/28/2020 6:57pm,"792 Mentor Ave., Painsville, OH",-81.2601271,41.713167,"792 mentor ave, painesville, oh 44077, usa",Geocoded
OH269,Water Main,(Disco),202 N. Main,Piqua,OH,"(D),(PT),(S),(*)",Bars/Clubs,1979,NA,,2/27/2020 7:41pm,3/28/2020 6:57pm,"202 N. Main, Piqua, OH",-84.2397957,40.1478061,"202 n main st, piqua, oh 45356, usa",Geocoded
OH270,Summit Lodge Resort,"(Pool, Sauna, & lounge. Tel (614) 385-6823) Rte. 1, Rockbridge Ohio 43129",,Rockbridge,OH,"(P),(H)",Hotels,1979,checked,,2/27/2020 9:41pm,2/27/2020 10:27pm,", OH",-82.522259,39.579808,unclear_coded_by_hand,General City Coordinates Used
OH271,Keg Room,Inquire Locally,,Sandusky,OH,,Bars/Clubs,1979,checked,,2/27/2020 9:41pm,2/27/2020 10:27pm,", OH",-82.711682,41.456175,unclear_coded_by_hand,General City Coordinates Used
OH272,Gaslight Inn,(Liquor),638 W. Main,Springfield,OH,"(R),(*)","Restaurant,Hotels",1979,NA,,2/27/2020 7:41pm,3/28/2020 6:57pm,"638 W. Main, Springfield, OH",-83.8225866,39.9256533,"638 w main st, springfield, oh 45504, usa",Geocoded
OH273,Why Not Cafe,(Beer),1400 W. Main,Springfield,OH,"(D),(S)","Bars/Clubs,Restaurant",1979,NA,,2/27/2020 7:41pm,3/28/2020 6:57pm,"1400 W. Main, Springfield, OH",-83.8338544,39.9258929,"1400 w main st, springfield, oh 45504, usa",Geocoded
OH274,Geo. Rogers Clark Park,off Rte. 40,,Springfield,OH,Cruisy Area,Cruising Areas,1979,checked,,2/27/2020 9:41pm,2/27/2020 10:27pm,", OH",-83.910122,39.908884,unclear_coded_by_hand,Found
OH275,Snyder Park,(off Rte. 40),,Springfield,OH,Cruisy Area,Cruising Areas,1979,checked,,2/27/2020 9:41pm,2/27/2020 10:27pm,", OH",-83.839331,39.933708,unclear_coded_by_hand,Found
OH276,Upper Valley Mall,,,Springfield,OH,Cruisy Area,Cruising Areas,1979,checked,,2/27/2020 9:41pm,2/27/2020 10:27pm,", OH",-83.85387,39.948725,unclear_coded_by_hand,Found
OH277,David's Lounge,(Some G) ,160 N. 4th,Steubenville,OH,"(D),(G),(S),(*)",Bars/Clubs,1979,NA,,2/27/2020 7:41pm,3/28/2020 6:57pm,"160 N. 4th, Steubenville, OH",-80.6144266,40.3611109,"160 n 4th st, steubenville, oh 43952, usa",Geocoded
OH278,Camel lot Complex I,(2 bars) (Disco) ,1710 Madison Ave. ,Toledo,OH,"(H),(YC),(D),(R)","Hotels,Restaurant,Bars/Clubs",1979,NA,,2/27/2020 7:41pm,3/28/2020 6:57pm,"1710 Madison Ave. , Toledo, OH",-83.5465306,41.6571977,"1710 madison ave, toledo, oh 43604, usa",Geocoded
OH279,Club Toledo Baths,(A 'must') ,1122 Monroe St.,Toledo,OH,"(YC),(*)",Baths,1979,NA,,2/27/2020 7:41pm,3/28/2020 6:57pm,"1122 Monroe St., Toledo, OH",-83.5440581,41.6523623,"1122 monroe st, toledo, oh 43604, usa",Geocoded
OH280,Ivanhoe,(Some G) ,300 Main St.,Toledo,OH,"(M),(G)",Bars/Clubs,1979,NA,,2/27/2020 7:41pm,3/28/2020 6:57pm,"300 Main St., Toledo, OH",-83.5216216,41.6464913,"300 main st, toledo, oh 43605, usa",Geocoded
OH281,Lenny's Other Side,"(Some W,SM) (Enter thru 'Open Closet' opens 10 p.m)",3330 Secor Rd.,Toledo,OH,"(W),(SM),(*)",Bars/Clubs,1979,NA,same address,2/27/2020 7:41pm,3/28/2020 6:57pm,"3330 Secor Rd., Toledo, OH",-83.622158,41.6815742,"3330 secor rd, toledo, oh 43606, usa",Geocoded
OH282,M.C.C.,,513 Magnolia,Toledo,OH,,Church,1979,NA,,2/27/2020 7:41pm,3/28/2020 6:57pm,"513 Magnolia, Toledo, OH",-83.5212537,41.6613717,"513 magnolia st, toledo, oh 43604, usa",Geocoded
OH283,Open Closet,(Cruisy) (Opens 11 a.m.) (Disco),3330 Secor Rd.,Toledo,OH,"(*),(D)","Bars/Clubs,Cruising Areas",1979,NA,same address,2/27/2020 7:41pm,3/28/2020 6:57pm,"3330 Secor Rd., Toledo, OH",-83.622158,41.6815742,"3330 secor rd, toledo, oh 43606, usa",Geocoded
OH284,Rustler,(Also adj. Disco-D),4023 Monroe,Toledo,OH,"(W),(SM),(D),(*)",Bars/Clubs,1979,NA,,2/27/2020 7:56pm,3/28/2020 6:57pm,"4023 Monroe, Toledo, OH",-83.5990183,41.6781281,"4023 monroe st, toledo, oh 43606, usa",Geocoded
OH285,San Francisco Sun Baths,(Looks promising) ,3330 Secor Rd.,Toledo,OH,,Baths,1979,NA,same address,2/27/2020 7:56pm,3/28/2020 6:57pm,"3330 Secor Rd., Toledo, OH",-83.622158,41.6815742,"3330 secor rd, toledo, oh 43606, usa",Geocoded
OH286,Scenic,('Drags'),702 Monroe,Toledo,OH,"(RT),(B),(PT)",Bars/Clubs,1979,NA,,2/27/2020 7:56pm,3/28/2020 6:57pm,"702 Monroe, Toledo, OH",-83.5401317,41.6503614,"702 monroe st, toledo, oh 43604, usa",Geocoded
OH287,Steak 'n' Eggs,,2648 W. Central,Toledo,OH,"(M),(R),(C),(AH)",Restaurant,1979,NA,,2/27/2020 7:56pm,3/28/2020 6:57pm,"2648 W. Central, Toledo, OH",-83.6070494,41.6778745,"2648 central ave, toledo, oh 43606, usa",Geocoded
OH288,TJ's,(Some G) ,417 Jackson,Toledo,OH,"(G),(PT)",Bars/Clubs,1979,NA,,2/27/2020 7:56pm,3/28/2020 6:57pm,"417 Jackson, Toledo, OH",-83.532762,41.6539145,"417 jackson st, toledo, oh 43604, usa",Geocoded
OH289,Zipper Bookstore,,725 Monroe,Toledo,OH,(*),Book Store,1979,NA,,2/27/2020 7:56pm,3/28/2020 6:57pm,"725 Monroe, Toledo, OH",-83.541056,41.650335,"725 monroe st, toledo, oh 43604, usa",Geocoded
OH290,Franklin Park Mall,,,Toledo,OH,Cruisy Area,Cruising Areas,1979,checked,,2/27/2020 9:56pm,2/27/2020 10:27pm,", OH",-83.640731,41.694547,unclear_coded_by_hand,Found
OH291,Las Vegas Cinema,,,Toledo,OH,Cruisy Area,"Cruising Areas,Theatre",1979,checked,See http://cinematreasures.org/theaters/38395,2/27/2020 9:56pm,2/27/2020 10:27pm,", OH",-83.621831,41.68151,unclear_coded_by_hand,Found
OH292,Ontario St.,betw. Washington & Jefferson,,Toledo,OH,Cruisy Area,Cruising Areas,1979,checked,,2/27/2020 9:56pm,2/27/2020 10:27pm,", OH",-83.541075,41.650648,unclear_coded_by_hand,Found
OH293,Ottawa Park,,,Toledo,OH,Cruisy Area,Cruising Areas,1979,checked,,2/27/2020 9:57pm,2/27/2020 10:27pm,", OH",-83.595464,41.665399,unclear_coded_by_hand,Found
OH294,Southwick Mall,T-Rooms,,Toledo,OH,Cruisy Area,Cruising Areas,1979,checked,See https://en.wikipedia.org/wiki/Southwyck_Mall,2/27/2020 9:57pm,2/27/2020 10:27pm,", OH",-83.667966,41.60269,unclear_coded_by_hand,Found
OH295,Toledo U.,Old Library Bldg.-2nd floor T-Room,,Toledo,OH,Cruisy Area,"Cruising Areas,Organizations",1979,checked,,2/27/2020 9:57pm,3/13/2020 9:24pm,", OH",-83.614237,41.65788,unclear_coded_by_hand,Found
OH296,Ann's Place,"(Some G, OC)",126 Pine S.E.,Warren,OH,"(PT),(G),(OC)",Bars/Clubs,1979,NA,,2/27/2020 7:57pm,3/28/2020 6:57pm,"126 Pine S.E., Warren, OH",-80.8163796,41.2356795,"126 pine ave se, warren, oh 44481, usa",Geocoded
OH297,Camel Lot Complex II,(18 & over) (Disco) (AH-WE),532 South St.,Warren,OH,"(YC),(D),(R),(AH),(WE),(*)",Restaurant,1979,NA,,2/27/2020 7:57pm,3/28/2020 6:57pm,"532 South St., Warren, OH",-80.8111115,41.2338487,"532 s st se, warren, oh 44483, usa",Geocoded
OH298,Courthouse Square,,,Warren,OH,Cruisy Area,Cruising Areas,1979,checked,,2/27/2020 9:57pm,2/27/2020 10:27pm,", OH",-80.81892,41.236713,unclear_coded_by_hand,Found
OH299,Book Mart,,17 N. Chestnut,Youngstown,OH,,Book Store,1979,NA,,2/27/2020 8:15pm,3/28/2020 6:57pm,"17 N. Chestnut, Youngstown, OH",-80.6536567,41.1022076,"17 symphony pl, youngstown, oh 44503, usa",Geocoded
OH300,Club 21,"(Some M,G,B) (Park in rear)",2121 South Ave.,Youngstown,OH,"(R),(D),(M),(G),(B),(P),(S),(AH)","Restaurant,Bars/Clubs",1979,NA,,2/27/2020 8:15pm,3/28/2020 6:57pm,"2121 South Ave., Youngstown, OH",-80.645859,41.078238,"2121 south ave, youngstown, oh 44502, usa",Geocoded
OH301,Outpost II,(Disco) (18 & over),3143 Mahoning Ave.,Youngstown,OH,"(YC),(D),(R),(*)",Restaurant,1979,NA,,2/27/2020 8:15pm,3/28/2020 6:57pm,"3143 Mahoning Ave., Youngstown, OH",-80.7059997,41.102859,"3143 mahoning ave, youngstown, oh 44509, usa",Geocoded
OH302,Troubadour Lounge,(Some G) (Opens 9 P.M.) ,2010 Market St.,Youngstown,OH,"(*),(P),(YC),(D),(G)",Bars/Clubs,1979,NA,,2/27/2020 8:15pm,3/28/2020 6:57pm,"2010 Market St., Youngstown, OH",-80.6573669,41.07999,"2010 market st, youngstown, oh 44507, usa",Geocoded
OH303,Uptown Book Store,,2597 Market St. ,Youngstown,OH,,Book Store,1979,NA,,2/27/2020 8:15pm,3/28/2020 6:57pm,"2597 Market St. , Youngstown, OH",-80.6569473,41.0735359,"2597 market st, youngstown, oh 44507, usa",Geocoded
OH304,Central Square,downtown,,Youngstown,OH,Cruisy Area,Cruising Areas,1979,checked,,2/27/2020 10:15pm,2/27/2020 10:27pm,", OH",-80.649519,41.09978,unclear_coded_by_hand,General City Coordinates Used
OH305,Market Street,,,Youngstown,OH,Cruisy Area,Cruising Areas,1979,checked,,2/27/2020 10:15pm,2/27/2020 10:27pm,", OH",-80.649519,41.09978,unclear_coded_by_hand,General City Coordinates Used
OH306,Youngstown College Campus,,,Youngstown,OH,Cruisy Area,"Cruising Areas,Organizations",1979,checked,,2/27/2020 10:15pm,3/13/2020 9:25pm,", OH",-80.648146,41.106649,unclear_coded_by_hand,Found
OH307,Akron Steam & Sauna Baths,,1339 E. Market St.,Akron,OH,(*),Baths,1978,NA,,2/27/2020 9:47pm,3/28/2020 6:57pm,"1339 E. Market St., Akron, OH",-81.479264,41.064209,"1339 e market st, akron, oh 44305, usa",Geocoded
OH308,American hotel & Restaurant,(Some G) (Disco) (2 bars) (Opens 9 pm) at Lakeshore,417 Kenmore,Akron,OH,"(*),(HIP),(YC),(G),(D)","Hotels,Restaurant,Bars/Clubs",1978,NA,,2/27/2020 9:47pm,3/28/2020 6:57pm,"417 Kenmore, Akron, OH",-81.541485,41.0499121,"417 kenmore blvd, akron, oh 44301, usa",Geocoded
OH309,Gentlemen's Pub,(Disco),1104 So. Main,Akron,OH,"(R),(D),(*)",Restaurant,1978,NA,,2/27/2020 9:47pm,3/28/2020 6:57pm,"1104 So. Main, Akron, OH",-81.5281773,41.056476,"1104 s main st, akron, oh 44311, usa",Geocoded
OH310,Hayloft club,(Some G),77 No. Adams,Akron,OH,"(G),(D),(*)",Bars/Clubs,1978,NA,,2/27/2020 9:47pm,3/28/2020 6:57pm,"77 No. Adams, Akron, OH",-81.4980166,41.0799241,"77 n adams st, akron, oh 44304, usa",Geocoded
OH311,L&K,,2727 Manchester Rd.,Akron,OH,"(M),(R),(C),(AH)",Restaurant,1978,NA,,2/27/2020 9:47pm,3/28/2020 6:57pm,"2727 Manchester Rd., Akron, OH",-81.5484585,41.02465,"2727 manchester rd, akron, oh 44319, usa",Geocoded
OH312,Satan's Den,(Some G) (Also called Jerri & Louise's-use rear door) ,839 So. Arlington,Akron,OH,"(G),(D)",Bars/Clubs,1978,NA,,2/27/2020 9:47pm,3/28/2020 6:57pm,"839 So. Arlington, Akron, OH",-81.4907543,41.0492523,"839 s arlington st, akron, oh 44306, usa",Geocoded
OH313,Stagecoach Inn,(Disco) (go go boys),259 E. Market,Akron,OH,(D),Bars/Clubs,1978,NA,,2/27/2020 9:47pm,3/28/2020 6:57pm,"259 E. Market, Akron, OH",-81.50933,41.0825232,"259 e market st, akron, oh 44308, usa",Geocoded
OH314,Belden Village Mall,,,Akron,OH,Cruisy Area,Cruising Areas,1978,checked,,2/27/2020 11:47pm,3/13/2020 8:53pm,", OH",-81.427799,40.856962,unclear_coded_by_hand,Found
OH315,Big Apple Disco,(Very M),,Akron,OH,"Cruisy Area,(M)",Cruising Areas,1978,checked,,2/27/2020 11:47pm,2/27/2020 11:56pm,", OH",-81.519005,41.081445,unclear_coded_by_hand,General City Coordinates Used
OH316,Grace Park,,,Akron,OH,Cruisy Area,Cruising Areas,1978,checked,,2/27/2020 11:47pm,2/27/2020 11:56pm,", OH",-81.509236,41.084744,unclear_coded_by_hand,Found
OH317,Luv Pub Disco,Chapel Hill Mall,,Akron,OH,Cruisy Area,Cruising Areas,1978,checked,,2/27/2020 11:47pm,2/27/2020 11:56pm,", OH",-81.467271,41.114346,unclear_coded_by_hand,Found
OH318,Nimisila Park,,,Akron,OH,Cruisy Area,Cruising Areas,1978,checked,,2/27/2020 11:47pm,2/27/2020 11:56pm,", OH",-81.357472,40.807722,unclear_coded_by_hand,Found
OH319,Parking Lot,American Hotel,,Akron,OH,Cruisy Area,Cruising Areas,1978,checked,,2/27/2020 11:47pm,2/27/2020 11:56pm,", OH",-81.519005,41.081445,unclear_coded_by_hand,General City Coordinates Used
OH320,Quaker Square,,,Akron,OH,Cruisy Area,Cruising Areas,1978,checked,,2/27/2020 11:47pm,2/27/2020 11:56pm,", OH",-81.514137,41.080918,unclear_coded_by_hand,Found
OH321,'Rest Stop',on I-77 ('The Playhouse) 10 mi W,,Akron,OH,Cruisy Area,Cruising Areas,1978,checked,,2/27/2020 11:47pm,2/27/2020 11:56pm,", OH",-81.519005,41.081445,unclear_coded_by_hand,General City Coordinates Used
OH322,Summit Mall,,,Akron,OH,Cruisy Area,Cruising Areas,1978,checked,,2/27/2020 11:47pm,2/27/2020 11:56pm,", OH",-81.617352,41.134704,unclear_coded_by_hand,Found
OH323,Smoke Pit,(Disco) at Van buren,210 Snyder ,Barberton,OH,"(YC),(D),(*)",Bars/Clubs,1978,NA,,2/27/2020 9:47pm,3/28/2020 6:57pm,"210 Snyder , Barberton, OH",-81.600986,41.002565,"210 snyder ave, barberton, oh 44203, usa",Geocoded
OH324,Charlie Brown,,2329 W. Tuscararas,Canton,OH,"(M),(R),(C),(AH)",Restaurant,1978,NA,,2/27/2020 9:47pm,3/28/2020 6:57pm,"2329 W. Tuscararas, Canton, OH",-81.4002939,40.7998228,"2329 tuscarawas st w, canton, oh 44708, usa",Geocoded
OH325,Hal's Corner,(Some G),1432 W. Tuscararas,Canton,OH,"(YC),(D),(S),(G),(*)",Bars/Clubs,1978,NA,,2/27/2020 9:47pm,3/28/2020 6:57pm,"1432 W. Tuscararas, Canton, OH",-81.3889217,40.8002391,"1432 tuscarawas st w, canton, oh 44702, usa",Geocoded
OH326,Horseshoe Club,"(Some G,D)",1701 Harrison St. S.W.,Canton,OH,"(G),(D)",Bars/Clubs,1978,NA,,2/27/2020 9:47pm,3/28/2020 6:57pm,"1701 Harrison St. S.W., Canton, OH",-81.3987212,40.7803627,"1701 harrison ave sw, canton, oh 44706, usa",Geocoded
OH327,304Club,,300-04 Harrison St. S.W.,Canton,OH,"(YC),(D),(PT),(*)",Bars/Clubs,1978,NA,,2/27/2020 9:47pm,3/28/2020 6:57pm,"300-04 Harrison St. S.W., Canton, OH",-81.3974734,40.8008108,"300 harrison ave sw, canton, oh 44708, usa",Geocoded
OH328,'The Block',around Andre's Restaurant on N.W. Cleveland-by foot or car,,Canton,OH,Cruisy Area,Cruising Areas,1978,checked,,2/27/2020 11:47pm,2/28/2020 2:31am,", OH",-81.378447,40.798947,unclear_coded_by_hand,General City Coordinates Used
OH329,"""McKinley Tomb",Memorial Park,,Canton,OH,Cruisy Area,Cruising Areas,1978,checked,,2/27/2020 11:47pm,2/28/2020 2:31am,", OH",-81.288701,40.791224,unclear_coded_by_hand,Found
OH330,'Rest Stop',on Hwy. 77 N. betw Akron & Canton,,Canton,OH,Cruisy Area,Cruising Areas,1978,checked,,2/27/2020 11:47pm,2/28/2020 2:31am,", OH",-81.378447,40.798947,unclear_coded_by_hand,General City Coordinates Used
OH331,Adam's Rib,,217 Calhoun St.,Cincinnati,OH,"(G),(D),(*)",Bars/Clubs,1978,NA,,2/27/2020 9:47pm,3/28/2020 6:57pm,"217 Calhoun St., Cincinnati, OH",-84.5155149,39.128031,"217 calhoun st, cincinnati, oh 45219, usa",Geocoded
OH332,Badland Territory,"(The 'Back Room' & Mother Lode have (D) & Disco) on Wed. & WE) (Some W,SM)",419 Plum St.,Cincinnati,OH,"(YC),(*),(D),(WE),(PT),(W),(SM)",Bars/Clubs,1978,NA,,2/27/2020 9:47pm,3/28/2020 6:57pm,"419 Plum St., Cincinnati, OH",-84.5178974,39.0999009,"419 plum st, cincinnati, oh 45202, usa",Geocoded
OH333,Busy Bee,,316 Ludlow,Cincinnati,OH,"(M),(R),(YC)",Restaurant,1978,NA,,2/27/2020 9:47pm,3/28/2020 6:57pm,"316 Ludlow, Cincinnati, OH",-84.5200335,39.1437656,"316 ludlow ave, cincinnati, oh 45220, usa",Geocoded
OH334,Court House,(HOT),Main & Court Sts.,Cincinnati,OH,"(M),(R),(C),(AH),(HOT)",Restaurant,1978,checked,,2/27/2020 11:47pm,3/28/2020 4:13pm,"Main & Court Sts., OH",-84.511041,39.106854,unclear_coded_by_hand,Found
OH335,Darwin's,(May be adding basement Disco),214 W. 4th St.,Cincinnati,OH,"(YC),(D),(R),(*)",Restaurant,1978,NA,,2/27/2020 9:47pm,3/28/2020 6:57pm,"214 W. 4th St., Cincinnati, OH",-84.5165754,39.0995473,"214 w 4th st, cincinnati, oh 45202, usa",Geocoded
OH336,Golden Lion's,(Some G) (Cocktail hour best),340 Ludlow,Cincinnati,OH,"(G),(R)","Restaurant,Bars/Clubs",1978,NA,,2/27/2020 9:47pm,3/28/2020 6:57pm,"340 Ludlow, Cincinnati, OH",-84.5210925,39.1439198,"340 ludlow ave, cincinnati, oh 45220, usa",Geocoded
OH337,M.C.C.,,320 Resor Rd.,Cincinnati,OH,,Church,1978,NA,,2/27/2020 9:47pm,3/28/2020 6:57pm,"320 Resor Rd., Cincinnati, OH",-84.5199065,39.1479776,"320 resor ave, cincinnati, oh 45220, usa",Geocoded
OH338,Post House,Greyhound bus Depot,5th & Sycamore,Cincinnati,OH,"(M),(RT),(AYOR)",Organizations,1978,checked,,2/27/2020 11:47pm,2/28/2020 2:31am,"5th & Sycamore, OH",-84.508118,39.101895,unclear_coded_by_hand,Found
OH339,Under Construction,(Looks promising),428 Walnut,Cincinnati,OH,,Bars/Clubs,1978,NA,,2/27/2020 9:47pm,3/28/2020 6:57pm,"428 Walnut, Cincinnati, OH",-84.5111157,39.1009336,"428 walnut st, cincinnati, oh 45202, usa",Geocoded
OH340,Wiggins,(Bar only-cocktail hour),31 E. 4th St. ,Cincinnati,OH,"(M),(R),(OC)","Restaurant,Bars/Clubs",1978,NA,,2/27/2020 9:47pm,3/28/2020 6:57pm,"31 E. 4th St. , Cincinnati, OH",-84.511658,39.0997161,"31 e 4th st, cincinnati, oh 45202, usa",Geocoded
OH341,Y.M.C.A.,(4th floor best),1105 Elm St.,Cincinnati,OH,"(M),(H)",Hotels,1978,NA,,2/27/2020 9:47pm,3/28/2020 6:57pm,"1105 Elm St., Cincinnati, OH",-84.5184095,39.1067992,"1105 elm st, cincinnati, oh 45202, usa",Geocoded
OH342,Block around Greyhound & Trailways Bus Depots,,,Cincinnati,OH,Cruisy Area,Cruising Areas,1978,checked,,2/27/2020 11:47pm,2/28/2020 2:31am,", OH",-84.51202,39.103118,unclear_coded_by_hand,General City Coordinates Used
OH343,Burnet Woods,,,Cincinnati,OH,Cruisy Area,Cruising Areas,1978,checked,,2/27/2020 11:47pm,2/28/2020 2:31am,", OH",-84.517631,39.1394,unclear_coded_by_hand,Found
OH344,Eden Park,Ohio River Overlook,,Cincinnati,OH,Cruisy Area,Cruising Areas,1978,checked,,2/27/2020 11:47pm,2/28/2020 2:31am,", OH",-84.488329,39.11765,unclear_coded_by_hand,Found
OH345,Empire Theatre,,,Cincinnati,OH,Cruisy Area,"Cruising Areas,Theatre",1978,checked,,2/27/2020 11:47pm,3/13/2020 9:27pm,", OH",-84.516095,39.11255,unclear_coded_by_hand,Found
OH346,Fountain Square,,,Cincinnati,OH,Cruisy Area,Cruising Areas,1978,checked,,2/27/2020 11:47pm,2/28/2020 2:31am,", OH",-84.51245,39.101456,unclear_coded_by_hand,Found
OH347,Fourth & Main Sts.,,,Cincinnati,OH,Cruisy Area,Cruising Areas,1978,checked,,2/27/2020 11:47pm,2/28/2020 2:31am,", OH",-84.509454,39.100413,unclear_coded_by_hand,Found
OH348,Mt. Airy Forest,,,Cincinnati,OH,Cruisy Area,Cruising Areas,1978,checked,,2/27/2020 11:47pm,2/28/2020 2:31am,", OH",-84.570543,39.181276,unclear_coded_by_hand,Found
OH349,Royal Theatre,,,Cincinnati,OH,Cruisy Area,"Cruising Areas,Theatre",1978,checked,,2/27/2020 11:47pm,3/13/2020 9:27pm,", OH",-84.513971,39.103967,unclear_coded_by_hand,Found
OH350,Teachers College Bldg.,T-Room U. of Cincy,,Cincinnati,OH,Cruisy Area,Cruising Areas,1978,checked,,2/28/2020 12:52am,2/28/2020 2:31am,", OH",-84.51495,39.132922,unclear_coded_by_hand,Found
OH351,Adonis Theatre,,1273 W. 9th St.,Cleveland,OH,,Theatre,1978,NA,,2/27/2020 10:52pm,3/28/2020 6:57pm,"1273 W. 9th St., Cleveland, OH",-81.7006722,41.4996814,"1273 w 9th st, cleveland, oh 44113, usa",Geocoded
OH352,After Midnight,(Disco)(Juice bar) (WE only-midnight to 5 a.m.),Huron & E. 4th,Cleveland,OH,"(D),(WE)",Bars/Clubs,1978,checked,,2/28/2020 12:52am,2/28/2020 2:31am,"Huron & E. 4th, OH",-81.689202,41.497143,unclear_coded_by_hand,Found
OH353,Baskerville's,"(Some G) (Disco-D& C-AH, Wed., Fri & Sat. nights)",1187 Old River Rd.,Cleveland,OH,"(YC),(G),(D),(M),(C),(AH)",Bars/Clubs,1978,NA,,2/27/2020 10:52pm,3/28/2020 6:57pm,"1187 Old River Rd., Cleveland, OH",-81.704137,41.499387,"1187 old river rd, cleveland, oh 44113, usa",Geocoded
OH354,Bayou Landing,(Disco) (Several bars) (Closed Mon. & Tues) at 9th,1012 Sumner Ave.,Cleveland,OH,"(*),(YC),(D),(S),(PT)",Bars/Clubs,1978,NA,,2/27/2020 10:52pm,3/28/2020 6:57pm,"1012 Sumner Ave., Cleveland, OH",-81.682425,41.49676,"1012 sumner ave, cleveland, oh 44115, usa",Geocoded
OH355,Cleveland Depo Baths,(Looks promising),1946 St. Claire Ave,Cleveland,OH,,Baths,1978,NA,,2/27/2020 10:58pm,3/28/2020 6:57pm,"1946 St. Claire Ave, Cleveland, OH",-81.6803551,41.5084898,"1946 st clair ave ne, cleveland, oh 44114, usa",Geocoded
OH356,Club Steam Baths,,1448 W. 32nd St.,Cleveland,OH,"(YC),(*)",Baths,1978,NA,,2/27/2020 10:58pm,3/28/2020 6:57pm,"1448 W. 32nd St., Cleveland, OH",-81.71273,41.488465,"1448 w 32nd st, cleveland, oh 44113, usa",Geocoded
OH357,Club Cleveland II,(Baths),1293 W. 9th,Cleveland,OH,,Baths,1978,NA,,2/27/2020 10:58pm,3/28/2020 6:57pm,"1293 W. 9th, Cleveland, OH",-81.7004539,41.499484,"1293 w 9th st, cleveland, oh 44113, usa",Geocoded
OH358,Coventry Books,(Cleveland Heights),1842 Coventry Rd.,Cleveland Heights,OH,,Book Store,1978,NA,,2/27/2020 10:58pm,3/28/2020 6:57pm,"1842 Coventry Rd., Cleveland Heights, OH",-81.5801603,41.5091479,"1842 coventry rd, cleveland heights, oh 44118, usa",Geocoded
OH359,Godmothers II,,1014 E. 63rd St.,Cleveland,OH,"(G),(D),(*)",Bars/Clubs,1978,NA,,2/27/2020 10:58pm,3/28/2020 6:57pm,"1014 E. 63rd St., Cleveland, OH",-81.6477077,41.5250818,"1014 e 63rd st, cleveland, oh 44103, usa",Geocoded
OH360,J.J's ,(Disco),2402 St. Claire Ave.,Cleveland,OH,"(D),(*)",Bars/Clubs,1978,NA,,2/27/2020 10:58pm,3/28/2020 6:57pm,"2402 St. Claire Ave., Cleveland, OH",-81.6760557,41.5103306,"2402 st clair ave ne, cleveland, oh 44114, usa",Geocoded
OH361,Leather Stallion,(Enter thru redwood fence marked 'private') ,2203 St. Claire Ave,Cleveland,OH,"(SM),(W),(*)",Bars/Clubs,1978,NA,,2/27/2020 10:58pm,3/28/2020 6:57pm,"2203 St. Claire Ave, Cleveland, OH",-81.6642351,41.5167506,"2203 st clair ave., cleveland, oh 44103, usa",Geocoded
OH362,Market Pub,('Drags'),W. 25th at Lorain,Cleveland,OH,(RT),Bars/Clubs,1978,checked,,2/28/2020 12:58am,2/28/2020 2:31am,"W. 25th at Lorain, OH",-81.703371,41.484173,unclear_coded_by_hand,Found
OH363,Nantucket,(Best Sundays) (Lakewood),Clifton & W. 117th Sts.,Lakewood,OH,(M),Bars/Clubs,1978,checked,,2/28/2020 12:58am,2/28/2020 2:31am,"Clifton & W. 117th Sts., OH",-81.768727,41.487514,unclear_coded_by_hand,Found
OH364,New Era Cinemas,,1614 Prospect,Cleveland,OH,,Theatre,1978,NA,,2/27/2020 10:58pm,3/28/2020 6:57pm,"1614 Prospect, Cleveland, OH",-81.6793893,41.4994564,"1614 prospect ave e, cleveland, oh 44115, usa",Geocoded
OH365,Pickwood Lounge,(Lakewood),11633 Clifton,Lakewood,OH,"(M),(PE),(OC)",Bars/Clubs,1978,NA,,2/27/2020 10:58pm,3/28/2020 6:57pm,"11633 Clifton, Lakewood, OH",-81.768405,41.4872491,"11633 clifton blvd, cleveland, oh 44102, usa",Geocoded
OH366,Putty Cat ,(Some G),6410 Denison,Cleveland,OH,(G),Bars/Clubs,1978,NA,,2/27/2020 10:58pm,3/28/2020 6:57pm,"6410 Denison, Cleveland, OH",-81.731276,41.459736,"6410 denison ave, cleveland, oh 44102, usa",Geocoded
OH367,Rainbow,(SomeG),2211 E. 9th St. ,Cleveland,OH,"(B),(RT),(G),(D),(*)",Bars/Clubs,1978,NA,,2/27/2020 10:58pm,3/28/2020 6:57pm,"2211 E. 9th St. , Cleveland, OH",-81.6841951,41.4979325,"2211 e 9th st, cleveland, oh 44115, usa",Geocoded
OH368,Shaker Club,(Disco) (Shaker Heights),2775 So. Moreland,Shaker Heights,OH,"(D),(*)",Bars/Clubs,1978,NA,,2/27/2020 10:58pm,3/28/2020 6:57pm,"2775 So. Moreland, Shaker Heights, OH",-81.5901988,41.4828338,"2775 s moreland blvd, cleveland, oh 44120, usa",Geocoded
OH369,Six Twenty Club,"(No neon-one block No. of Superior, betw. 6th & 9th Sts. W.)",620 Frankfort,Cleveland,OH,"(YC),(D),(*)",Bars/Clubs,1978,NA,,2/27/2020 10:58pm,3/28/2020 6:57pm,"620 Frankfort, Cleveland, OH",-81.6984483,41.498628,"620 frankfort ave, cleveland, oh 44113, usa",Geocoded
OH370,Twiggy's Place,(Some G) (18 & up) (Disco),2537 St. Claire Ave.,Cleveland,OH,"(*),(HIP),(YC),(G),(D)",Bars/Clubs,1978,NA,,2/27/2020 10:58pm,3/28/2020 6:57pm,"2537 St. Claire Ave., Cleveland, OH",-81.6751595,41.5117279,"2537 st clair ave ne, cleveland, oh 44114, usa",Geocoded
OH371,Vaults,,1281 W. 9th St.,Cleveland,OH,"(R),(D),(*)",Restaurant,1978,NA,,2/27/2020 11:27pm,3/28/2020 6:57pm,"1281 W. 9th St., Cleveland, OH",-81.7006401,41.4996306,"1281 w 9th st, cleveland, oh 44113, usa",Geocoded
OH372,West 9th Street Club,(Baths),1293 W. 9th,Cleveland,OH,(*),Baths,1978,NA,,2/27/2020 11:27pm,3/28/2020 6:57pm,"1293 W. 9th, Cleveland, OH",-81.7004539,41.499484,"1293 w 9th st, cleveland, oh 44113, usa",Geocoded
OH373,Zanzibar,(go go boys),1630 Payne Ave.,Cleveland,OH,(D),Bars/Clubs,1978,NA,,2/27/2020 11:27pm,3/28/2020 6:57pm,"1630 Payne Ave., Cleveland, OH",-81.6809884,41.5042821,"1630 payne ave, cleveland, oh 44114, usa",Geocoded
OH374,Edgewater Park,,,Cleveland,OH,Cruisy Area,Cruising Areas,1978,checked,,2/28/2020 1:27am,2/28/2020 2:31am,", OH",-81.735455,41.49029,unclear_coded_by_hand,Found
OH375,Euclid Creek Metropolitan Park,,,Cleveland,OH,Cruisy Area,Cruising Areas,1978,checked,,2/28/2020 1:27am,3/13/2020 9:29pm,", OH",-81.543873,41.574422,unclear_coded_by_hand,Found
OH376,No. Chagrin Reservation Park,,,Cleveland,OH,Cruisy Area,Cruising Areas,1978,checked,,2/28/2020 1:27am,3/13/2020 9:29pm,", OH",-81.439167,41.57,unclear_coded_by_hand,Found
OH377,'Rest stop',"on I-90, 25 mi. E. of Cleveland",,Cleveland,OH,Cruisy Area,Cruising Areas,1978,checked,,2/28/2020 1:27am,3/13/2020 9:29pm,", OH",-81.69436,41.49932,unclear_coded_by_hand,General City Coordinates Used
OH378,Rocky River Reservation Park,,,Cleveland,OH,Cruisy Area,Cruising Areas,1978,checked,,2/28/2020 1:27am,3/13/2020 9:29pm,", OH",-81.883491,41.409979,unclear_coded_by_hand,Found
OH379,The Mail,downtown-12 p.m. police curfew,,Cleveland,OH,Cruisy Area,Cruising Areas,1978,checked,,2/28/2020 1:27am,3/13/2020 9:29pm,", OH",-81.69395,41.502909,unclear_coded_by_hand,Found
OH380,Adult Books & Movies,,High & Towne,Columbus,OH,,Book Store,1978,checked,,2/28/2020 1:27am,3/13/2020 9:29pm,"High & Towne, OH",-82.998794,39.961176,unclear_coded_by_hand,General City Coordinates Used
OH381,Cat's Meow,(Cruisy downstairs john),129 E. Naghten,Columbus,OH,(D),"Bars/Clubs,Cruising Areas",1978,NA,,2/27/2020 11:27pm,3/28/2020 6:57pm,"129 E. Naghten, Columbus, OH",-82.9974201,39.968846,"129 e naghten st, columbus, oh 43215, usa",Geocoded
OH382,Club Columbus Baths,,1575 E. Livingston,Columbus,OH,"(P),(YC),(*)",Baths,1978,NA,,2/27/2020 11:27pm,3/28/2020 6:57pm,"1575 E. Livingston, Columbus, OH",-82.9555572,39.9488718,"1575 e livingston ave, columbus, oh 43205, usa",Geocoded
OH383,Exchange,(Leather shop) ,119 E. Chestnut,Columbus,OH,,Business,1978,NA,,2/27/2020 11:27pm,3/28/2020 6:57pm,"119 E. Chestnut, Columbus, OH",-82.998312,39.967744,"119 e chestnut st, columbus, oh 43215, usa",Geocoded
OH384,Jack's A Go Go,(G-only-$5 cover for men),2210 Summit St.,Columbus,OH,"(G),(D)",Bars/Clubs,1978,NA,,2/27/2020 11:27pm,3/28/2020 6:57pm,"2210 Summit St., Columbus, OH",-83.0002345,40.0085426,"2210 summit st, columbus, oh 43201, usa",Geocoded
OH385,Kismet,(Some RT) (Open afternoons),232 No. 3rd,Columbus,OH,"(D),(RT)",Bars/Clubs,1978,NA,,2/27/2020 11:27pm,3/28/2020 6:57pm,"232 No. 3rd, Columbus, OH",-82.9988548,39.9703006,"n 3rd st, columbus, oh 43215, usa",Geocoded
OH386,Olde English Tavern,,3442 Cleveland,Columbus,OH,"(RT),(G)",Bars/Clubs,1978,NA,,2/27/2020 11:33pm,3/28/2020 6:57pm,"3442 Cleveland, Columbus, OH",-82.9610403,40.0383167,"3442 cleveland ave, columbus, oh 43224, usa",Geocoded
OH387,Rudely Elegant,(Disco) ,1005 W. Broad St.,Columbus,OH,"(YC),(D),(*)",Bars/Clubs,1978,NA,,2/27/2020 11:33pm,3/28/2020 6:57pm,"1005 W. Broad St., Columbus, OH",-83.0274213,39.9586882,"1005 w broad st, columbus, oh 43222, usa",Geocoded
OH388,Smitty,,76 Town St. ,Columbus,OH,"(M),(R),(C),(AH)",Restaurant,1978,NA,,2/27/2020 11:33pm,3/28/2020 6:57pm,"76 Town St. , Columbus, OH",-82.996493,39.9592096,"76 e town st, columbus, oh 43215, usa",Geocoded
OH389,Tiny's,"(Some B,RT,'Drags') (WE*)",High St. at Mound,Columbus,OH,"(S),(B),(RT),(WE),(*)",Bars/Clubs,1978,checked,,2/28/2020 1:33am,2/28/2020 2:31am,"High St. at Mound, OH",-82.999206,39.954807,unclear_coded_by_hand,Found
OH390,Tradewinds II,"(Some YC,W,SM)",117 E. Chestnut,Columbus,OH,"(YC),(W),(SM),(*)",Bars/Clubs,1978,NA,,2/27/2020 11:33pm,3/28/2020 6:57pm,"117 E. Chestnut, Columbus, OH",-82.9983244,39.9677824,"117 e chestnut st, columbus, oh 43215, usa",Geocoded
OH391,Ty's,(Disco) (Some G),242 So. High St.,Columbus,OH,"(YC),(D),(G),(*)",Bars/Clubs,1978,NA,,2/27/2020 11:33pm,3/28/2020 6:57pm,"242 So. High St., Columbus, OH",-82.9996095,39.9567925,"242 s high st, columbus, oh 43215, usa",Geocoded
OH392,Village Grotto,(Disco) (Cruisy downstairs-The Loft (W) (SM) upstairs),622 So. High St.,Columbus,OH,"(D),(PT),(W),(SM)","Bars/Clubs,Cruising Areas",1978,NA,,2/27/2020 11:33pm,3/28/2020 6:57pm,"622 So. High St., Columbus, OH",-82.997639,39.949418,"622 s high st, columbus, oh 43215, usa",Geocoded
OH393,Small Park on Nelson Rd.,2 blocks No. of Broad St.,,Columbus,OH,Cruisy Area,Cruising Areas,1978,checked,,2/28/2020 1:33am,2/28/2020 2:31am,", OH",-82.946403,39.974191,unclear_coded_by_hand,Found
OH394,Towne Cinema,,,Columbus,OH,Cruisy Area,"Cruising Areas,Theatre",1978,checked,,2/28/2020 1:33am,2/28/2020 2:31am,", OH",-82.998794,39.961176,unclear_coded_by_hand,General City Coordinates Used
OH395,Vicinity of Greyhound Bus Depot,,,Columbus,OH,Cruisy Area,Cruising Areas,1978,checked,,2/28/2020 1:33am,2/28/2020 2:31am,", OH",-82.998794,39.961176,unclear_coded_by_hand,General City Coordinates Used
OH396,Whittier St.,'In the woods' (HOT),,Columbus,OH,"Cruisy Area,(AYOR),(HOT)",Cruising Areas,1978,checked,,2/28/2020 1:33am,3/28/2020 4:13pm,", OH",-82.998794,39.961176,unclear_coded_by_hand,General City Coordinates Used
OH397,Bando's,,134 No. 2nd St,Coshocton,OH,"(M),(YC),(R)",Restaurant,1978,NA,,2/27/2020 11:33pm,3/28/2020 6:57pm,"134 No. 2nd St, Coshocton, OH",-81.8685737,40.2742251,"134 n 2nd st, coshocton, oh 43812, usa",Geocoded
OH398,Funny Page,(WE*),502 Main St.,Coshocton,OH,"(M),(YC),(WE),(*)",Bars/Clubs,1978,NA,,2/27/2020 11:33pm,3/28/2020 6:57pm,"502 Main St., Coshocton, OH",-81.8631998,40.2737943,"502 main st, coshocton, oh 43812, usa",Geocoded
OH399,Burger Chef,,,Coshocton,OH,Cruisy Area,"Cruising Areas,Restaurant",1978,checked,,2/28/2020 1:33am,3/13/2020 9:30pm,", OH",-81.859576,40.272015,unclear_coded_by_hand,General City Coordinates Used
OH400,Court Square,,,Coshocton,OH,Cruisy Area,Cruising Areas,1978,checked,,2/28/2020 1:33am,2/28/2020 2:31am,", OH",-81.865926,40.274331,unclear_coded_by_hand,Found
OH401,Hickory Billiard Parlor,Main St.,,Coshocton,OH,Cruisy Area,"Cruising Areas,Bars/Clubs",1978,checked,,2/28/2020 1:33am,3/13/2020 9:30pm,", OH",-81.859576,40.272015,unclear_coded_by_hand,General City Coordinates Used
OH402,Near Hotel,Lobby & T-Room,,Coshocton,OH,Cruisy Area,"Cruising Areas,Hotels",1978,checked,,2/28/2020 1:33am,3/10/2020 10:57am,", OH",-81.859576,40.272015,unclear_coded_by_hand,General City Coordinates Used
OH403,Denny's,,1136 So. Main,Dayton,OH,"(M),(R),(C),(AH)",Restaurant,1978,NA,,2/27/2020 11:33pm,3/28/2020 6:57pm,"1136 So. Main, Dayton, OH",-84.1866692,39.7419919,"1136 s main st, dayton, oh 45409, usa",Geocoded
OH404,Mail Boxx,(Game room & snacks),401 So. Ludlow,Dayton,OH,"(D),(PT),(*)",Bars/Clubs,1978,NA,,2/27/2020 11:33pm,3/28/2020 6:57pm,"401 So. Ludlow, Dayton, OH",-84.192247,39.754338,"401 s ludlow st, dayton, oh 45402, usa",Geocoded
OH405,Martinique,,148 Salem Ave.,Dayton,OH,(D),Bars/Clubs,1978,NA,,2/27/2020 11:33pm,3/28/2020 6:57pm,"148 Salem Ave., Dayton, OH",-84.206679,39.763401,"148 salem ave, dayton, oh 45406, usa",Geocoded
OH406,New Jimmy's,(Some G) (Disco),35 W. 5th.,Dayton,OH,"(YC),(G),(D),(*)",Bars/Clubs,1978,NA,,2/27/2020 11:49pm,3/28/2020 6:57pm,"35 W. 5th., Dayton, OH",-84.1918893,39.7569892,"35 w 5th st, dayton, oh 45402, usa",Geocoded
OH407,Renee's Stage Door,(Friendly downtown bar),44 No. Jefferson,Dayton,OH,"(D),(*)",Bars/Clubs,1978,NA,,2/27/2020 11:49pm,3/28/2020 6:57pm,"44 No. Jefferson, Dayton, OH",-84.190007,39.760934,"44 n jefferson st, dayton, oh 45402, usa",Geocoded
OH408,'Cruising the Levee',"Take Riverside or North Bend Blvd. to Helena, then to Kettering",,Dayton,OH,Cruisy Area,Cruising Areas,1978,checked,,2/28/2020 1:49am,2/28/2020 2:31am,", OH",-84.191607,39.758948,unclear_coded_by_hand,General City Coordinates Used
OH409,Discount Book Store,,,Dayton,OH,Cruisy Area,"Cruising Areas,Book Store",1978,checked,,2/28/2020 1:49am,3/13/2020 9:32pm,", OH",-84.191607,39.758948,unclear_coded_by_hand,General City Coordinates Used
OH410,Field on Island park,,,Dayton,OH,Cruisy Area,Cruising Areas,1978,checked,,2/28/2020 1:49am,2/28/2020 2:31am,", OH",-84.197664,39.778362,unclear_coded_by_hand,Found
OH411,Greyhound Bus Deport,,,Dayton,OH,Cruisy Area,Cruising Areas,1978,checked,,2/28/2020 1:49am,2/28/2020 2:31am,", OH",-84.191607,39.758948,unclear_coded_by_hand,General City Coordinates Used
OH412,Hills & Dales Park,(Kettering),,Dayton,OH,Cruisy Area,Cruising Areas,1978,checked,,2/28/2020 1:49am,2/28/2020 2:31am,", OH",-84.187667,39.716281,unclear_coded_by_hand,Found
OH413,The Saloon,,531 W. State,Fremont,OH,,Bars/Clubs,1978,NA,,2/27/2020 11:49pm,3/28/2020 6:57pm,"531 W. State, Fremont, OH",-83.1166896,41.3483883,"531 w state st, fremont, oh 43420, usa",Geocoded
OH414,Chez Jay's,(Many G) Inquire Locally,,Hamilton,OH,"(G),(*)",Bars/Clubs,1978,checked,,2/28/2020 1:49am,2/28/2020 2:31am,", OH",-84.561335,39.399501,unclear_coded_by_hand,Found
OH415,Baker's,,24 Public Square,Lima,OH,"(D),(*)",Bars/Clubs,1978,checked,,2/28/2020 1:49am,3/13/2020 8:53pm,"24 Public Square, OH",-84.103919,40.739535,unclear_coded_by_hand,Found
OH416,Faurot Park,,,Lima,OH,Cruisy Area,Cruising Areas,1978,checked,,2/28/2020 1:49am,2/28/2020 2:31am,", OH",-84.114947,40.736057,unclear_coded_by_hand,General City Coordinates Used
OH417,Buck's Tavern,,1052 Broadway,Loraine,OH,,Bars/Clubs,1978,NA,,2/27/2020 11:49pm,3/28/2020 6:57pm,"1052 Broadway, Loraine, OH",-82.1723177,41.4615459,"1052 broadway ave, lorain, oh 44052, usa",Geocoded
OH418,Holiday Inn Bar,,I-71 at US 30,Mansfield,OH,(M),"Bars/Clubs,Hotels",1978,checked,,2/28/2020 1:49am,3/13/2020 9:32pm,"I-71 at US 30, OH",-82.515447,40.75839,unclear_coded_by_hand,General City Coordinates Used
OH419,Richard's,(Some G),15 E. 5th Main,Mansfield,OH,"(R),(D),(G),(*)",Restaurant,1978,NA,,2/27/2020 11:49pm,3/28/2020 6:57pm,"15 E. 5th Main, Mansfield, OH",-82.5145808,40.7632454,"15 e 5th st, mansfield, oh 44902, usa",Geocoded
OH420,Retreat,Inquire Locally,,Mansfield,OH,(WE),Bars/Clubs,1978,checked,,2/28/2020 1:49am,2/28/2020 2:31am,", OH",-82.515447,40.75839,unclear_coded_by_hand,General City Coordinates Used
OH421,'Rest Stop',at I-71 & US 30,,Mansfield,OH,Cruisy Area,Cruising Areas,1978,checked,,2/28/2020 1:49am,2/28/2020 2:31am,", OH",-82.419918,40.779654,unclear_coded_by_hand,Found
OH422,The Tavern,(WE*),792 Mentor Ave.,Painsville,OH,"(M),(R),(E),(S),(WE),(*)",Restaurant,1978,NA,,2/27/2020 11:49pm,3/28/2020 6:57pm,"792 Mentor Ave., Painsville, OH",-81.2601271,41.713167,"792 mentor ave, painesville, oh 44077, usa",Geocoded
OH423,Water Main,(Disco),202 No. Main,Piqua,OH,"(D),(PT),(S),(*)",Bars/Clubs,1978,NA,,2/27/2020 11:49pm,3/28/2020 6:57pm,"202 No. Main, Piqua, OH",-84.2397957,40.1478061,"202 n main st, piqua, oh 45356, usa",Geocoded
OH424,Summit Lounge Resort,"(Pool, sauna & lounge) Tel: 614-385-6823; rte. 1, Rock-bridge, Ohio 43149",,Rockbridge,OH,"(P),(H)",Hotels,1978,checked,,2/28/2020 1:49am,3/13/2020 8:54pm,", OH",-82.522259,39.579808,unclear_coded_by_hand,General City Coordinates Used
OH425,Why Not Cafe,(Occ. E) (Beer),1400 W. Main St.,Springfield,OH,"(*),(D),(YC),(E)","Bars/Clubs,Restaurant",1978,NA,,2/27/2020 11:49pm,3/28/2020 6:57pm,"1400 W. Main St., Springfield, OH",-83.8338544,39.9258929,"1400 w main st, springfield, oh 45504, usa",Geocoded
OH426,George Rogers Clark Park,(Off Rte.40),,Springfield,OH,Cruisy Area,Cruising Areas,1978,checked,,2/28/2020 1:49am,2/28/2020 2:31am,", OH",-83.910122,39.908884,unclear_coded_by_hand,Found
OH427,Snyder Park,(Off Rte.40),,Springfield,OH,Cruisy Area,Cruising Areas,1978,checked,,2/28/2020 1:49am,2/28/2020 2:31am,", OH",-83.839331,39.933708,unclear_coded_by_hand,Found
OH428,Upper Valley Mall,(Upper Valley Pike),,Springfield,OH,Cruisy Area,Cruising Areas,1978,checked,,2/28/2020 1:49am,2/28/2020 2:31am,", OH",-83.85387,39.948725,unclear_coded_by_hand,Found
OH429,David's Lounge,"(Some G,S) ",160 No. 4th,Steubenville,OH,"(D),(G),(S),(*)",Bars/Clubs,1978,NA,,2/27/2020 11:49pm,3/28/2020 6:57pm,"160 No. 4th, Steubenville, OH",-80.6144266,40.3611109,"160 n 4th st, steubenville, oh 43952, usa",Geocoded
OH430,Arlington,,610 2nd St.,Toledo,OH,"(M),(R)",Restaurant,1978,NA,,2/27/2020 11:49pm,3/28/2020 6:57pm,"610 2nd St., Toledo, OH",-83.5216464,41.6473319,"610 2nd st, toledo, oh 43605, usa",Geocoded
OH431,Camel Lot,(2 bars)(Disco),1710 Madison Ave.,Toledo,OH,"(*),(H),(D),(R),(YC)","Hotels,Restaurant,Bars/Clubs",1978,NA,,2/27/2020 11:49pm,3/28/2020 6:57pm,"1710 Madison Ave., Toledo, OH",-83.5465306,41.6571977,"1710 madison ave, toledo, oh 43604, usa",Geocoded
OH432,Club Toledo Baths,,1122 Monroe St.,Toledo,OH,"(YC),(*)",Baths,1978,NA,,2/27/2020 11:50pm,3/28/2020 6:57pm,"1122 Monroe St., Toledo, OH",-83.5440581,41.6523623,"1122 monroe st, toledo, oh 43604, usa",Geocoded
OH433,Ivanhoe,(Some G),300 Main St,Toledo,OH,"(M),(G)",Bars/Clubs,1978,NA,,2/27/2020 11:50pm,3/28/2020 6:57pm,"300 Main St, Toledo, OH",-83.5216216,41.6464913,"300 main st, toledo, oh 43605, usa",Geocoded
OH434,Lenny's Other Side,"(Some W, SM)* (Enter thru Open Closet* ",3330 Secor Rd.,Toledo,OH,"(W),(SM),(*)",Bars/Clubs,1978,NA,,2/27/2020 11:50pm,3/28/2020 6:57pm,"3330 Secor Rd., Toledo, OH",-83.622158,41.6815742,"3330 secor rd, toledo, oh 43606, usa",Geocoded
OH435,Open Closet,(Tops in town-Cruisy-opens 11 a.m.) (Adding Disco-D) (Some OC),3330 Secor Rd.,Toledo,OH,"(D),(YC),(OC)","Bars/Clubs,Cruising Areas",1978,NA,,2/27/2020 11:50pm,3/28/2020 6:57pm,"3330 Secor Rd., Toledo, OH",-83.622158,41.6815742,"3330 secor rd, toledo, oh 43606, usa",Geocoded
OH436,Rustler,,4023 Monroe,Toledo,OH,"(W),(*)",Bars/Clubs,1978,NA,,2/27/2020 11:50pm,3/28/2020 6:57pm,"4023 Monroe, Toledo, OH",-83.5990183,41.6781281,"4023 monroe st, toledo, oh 43606, usa",Geocoded
OH437,Scenic,('Drags'),702 Monroe,Toledo,OH,"(B),(PT)",Bars/Clubs,1978,NA,,2/27/2020 11:50pm,3/28/2020 6:57pm,"702 Monroe, Toledo, OH",-83.5401317,41.6503614,"702 monroe st, toledo, oh 43604, usa",Geocoded
OH438,T.J.'s,(Some G),417 Jackson,Toledo,OH,"(G),(PT),(WE),(*)",Bars/Clubs,1978,NA,,2/27/2020 11:50pm,3/28/2020 6:57pm,"417 Jackson, Toledo, OH",-83.532762,41.6539145,"417 jackson st, toledo, oh 43604, usa",Geocoded
OH439,Zipper Bookstore,,725 Monroe,Toledo,OH,(*),Book Store,1978,NA,,2/27/2020 11:50pm,3/28/2020 6:57pm,"725 Monroe, Toledo, OH",-83.541056,41.650335,"725 monroe st, toledo, oh 43604, usa",Geocoded
OH440,Gaiety Theatre,,,Toledo,OH,Cruisy Area,"Cruising Areas,Theatre",1978,checked,See http://cinematreasures.org/theaters/34384,2/28/2020 1:50am,3/13/2020 9:34pm,", OH",-83.532798,41.651984,unclear_coded_by_hand,Found
OH441,Ontario St.,(HOT),,Toledo,OH,"Cruisy Area,(HOT)",Cruising Areas,1978,checked,,2/28/2020 1:50am,3/28/2020 4:13pm,", OH",-83.541075,41.650648,unclear_coded_by_hand,Found
OH442,Ottawa Park,,,Toledo,OH,Cruisy Area,Cruising Areas,1978,checked,,2/28/2020 1:50am,2/28/2020 2:31am,", OH",-83.595464,41.665399,unclear_coded_by_hand,Found
OH443,Ann's Place,"(Some G,OC)",126 Pine S.E.,Warren,OH,"(PT),(G),(OC)",Bars/Clubs,1978,NA,,2/27/2020 11:50pm,3/28/2020 6:57pm,"126 Pine S.E., Warren, OH",-80.8163796,41.2356795,"126 pine ave se, warren, oh 44481, usa",Geocoded
OH444,Betsy Ross Motel,,nr. Outpost on Rte 5.,Warren,OH,"(M),(H)",Hotels,1978,checked,,2/28/2020 1:50am,2/28/2020 2:31am,"nr. Outpost on Rte 5., OH",-80.818417,41.237557,unclear_coded_by_hand,General City Coordinates Used
OH445,Camel Lot Complex II,(Disco)(AH-WE),532 South St.,Warren,OH,"(*),(YC),(D),(R),(AH),(WE)",Restaurant,1978,NA,,2/27/2020 11:50pm,3/28/2020 6:57pm,"532 South St., Warren, OH",-80.8111115,41.2338487,"532 s st se, warren, oh 44483, usa",Geocoded
OH446,Outpost,(Disco) (WE-only*),1 mi. E of Ohio Tpke. on Rte. 5 (Exit 14),Warren,OH,"(YC),(D),(WE),(*)",,1978,checked,,2/28/2020 1:50am,2/28/2020 2:31am,"1 mi. E of Ohio Tpke. on Rte. 5 (Exit 14), OH",-80.818417,41.237557,unclear_coded_by_hand,General City Coordinates Used
OH447,Courthouse Square,,,Warren,OH,Cruisy Area,Cruising Areas,1978,checked,,2/28/2020 1:50am,2/28/2020 2:31am,", OH",-80.81892,41.236713,unclear_coded_by_hand,Found
OH448,Book Mart,,17 No. Chestnut St.,Youngstown,OH,,Book Store,1978,NA,,2/27/2020 11:50pm,3/28/2020 6:57pm,"17 No. Chestnut St., Youngstown, OH",-80.6536567,41.1022076,"17 symphony pl, youngstown, oh 44503, usa",Geocoded
OH449,Club 21,"(Some M, G,B)",2121 South Ave.,Youngstown,OH,"(R),(D),(M),(G),(B),(AH)","Restaurant,Bars/Clubs",1978,NA,,2/27/2020 11:50pm,3/28/2020 6:57pm,"2121 South Ave., Youngstown, OH",-80.645859,41.078238,"2121 south ave, youngstown, oh 44502, usa",Geocoded
OH450,Troubadour Lounge,(Some G) (Opens 9 p.m.),2010 Market St.,Youngstown,OH,"(*),(P),(YC),(D),(G)",Bars/Clubs,1978,NA,,2/27/2020 11:50pm,3/28/2020 6:57pm,"2010 Market St., Youngstown, OH",-80.6573669,41.07999,"2010 market st, youngstown, oh 44507, usa",Geocoded
